timepoint,stationcode,longitude,latitude,area,positionname,primarypollutant,aqi,pm10,pm10_24h,pm2_5,pm2_5_24h,o3,o3_24h,o3_8h,o3_8h_24h,no2,no2_24h,so2,so2_24h,co,co_24h
2026-06-14T1000,2568A,102.2503,31.8896,阿坝藏族羌族自治州,马师校,,32,32,20,18,11,57,57,32,32,8,5,3,3,0.2,0.2
2026-06-14T1000,3994A,102.2174,31.9016,阿坝藏族羌族自治州,马尔康中学西区,,19,NA,15,13,8,47,47,34,34,7,6,1,1,0.1,0
2026-06-14T1000,2695A,80.2899,41.1684,阿克苏地区,电视台,,32,32,60,21,52,80,80,93,89,7,7,2,3,0.5,0.5
2026-06-14T1000,2696A,80.2592,41.1541,阿克苏地区,艺术中心,NA,NA,NA,46,16,32,69,69,91,88,24,25,4,3,0.6,0.6
2026-06-14T1000,2205A,105.699,38.8409,阿拉善盟,蒙二幼,,47,47,16,3,4,136,136,125,124,4,3,9,9,0.3,0.3
2026-06-14T1000,2206A,105.7198,38.8508,阿拉善盟,环保局新楼,,41,30,14,8,3,131,131,128,125,5,3,12,11,0.4,0.4
2026-06-14T1000,2708A,88.1266,47.8515,阿勒泰地区,市站,,25,21,22,3,4,80,80,86,85,12,6,7,7,0.1,0.1
2026-06-14T1000,4166A,88.1198,47.7931,阿勒泰地区,阿勒泰路33号,,24,22,36,3,5,75,75,88,82,8,4,6,6,0.3,0.2
2026-06-14T1000,2630A,80.1171,32.4999,阿里地区,阿里监测站,,41,11,10,10,3,131,131,110,109,4,2,1,2,0.3,0.3
2026-06-14T1000,3192A,80.0906,32.5029,阿里地区,阿里藏医院,,38,14,9,3,2,121,121,111,107,1,1,4,4,0.3,0.3
2026-06-14T1000,2644A,109.0088,32.6974,安康市,汉滨区检察院,,32,32,33,22,17,47,47,30,30,9,9,9,6,0.7,0.5
2026-06-14T1000,4054A,109.0324,32.6913,安康市,市邮政管理局,,34,34,28,20,20,54,54,29,29,8,10,9,5,0.7,0.5
2026-06-14T1000,2291A,117.0806,30.5181,安庆市,环科院,,30,30,26,14,26,84,84,55,55,6,15,8,9,0.6,0.6
2026-06-14T1000,2292A,117.0331,30.5118,安庆市,马山宾馆,,33,33,27,17,30,88,88,64,64,8,18,9,10,0.7,0.8
2026-06-14T1000,2294A,116.9897,30.6146,安庆市,安庆大学,,37,37,23,24,20,83,83,33,33,9,10,4,3,0.4,0.4
2026-06-14T1000,3173A,117.0598,30.5351,安庆市,市人大,,37,37,26,14,26,92,92,58,58,10,16,4,5,0.4,0.5
2026-06-14T1000,3123A,105.9408,26.2431,安顺市,凤凰山,,29,NA,24,20,18,65,65,46,46,12,16,10,11,0.4,0.4
2026-06-14T1000,3124A,105.9443,26.2567,安顺市,金钟山,,28,24,27,19,18,67,67,49,49,11,9,10,12,0.5,0.5
2026-06-14T1000,3125A,105.8983,26.248,安顺市,娄家坡,,23,21,19,16,15,62,62,58,54,9,8,8,9,0.4,0.3
2026-06-14T1000,1819A,114.3552,36.1017,安阳市,红庙街,细颗粒物(PM2.5),72,NA,46,46,25,146,146,120,120,10,7,15,7,1.2,0.6
2026-06-14T1000,1820A,114.361,36.0681,安阳市,银杏小区,颗粒物(PM10),55,56,45,30,24,154,154,127,127,14,9,14,5,1.0,0.3
2026-06-14T1000,3141A,114.3921,36.0879,安阳市,信访局,,50,50,45,34,23,158,158,129,129,12,7,8,4,0.7,0.4
2026-06-14T1000,3669A,114.4706,36.0634,安阳市,左辅环卫站,颗粒物(PM10),53,54,52,24,20,138,138,109,109,12,12,6,3,0.7,0.4
2026-06-14T1000,4117A,114.2918,36.0769,安阳市,钢三路198号,颗粒物(PM10),53,53,46,36,30,142,142,118,118,7,9,7,4,0.9,0.5
2026-06-14T1000,1748A,123.0441,41.1201,鞍山市,深沟寺,,40,40,25,25,15,103,103,90,85,8,9,5,5,0.6,0.7
2026-06-14T1000,1749A,123.011,41.0931,鞍山市,太阳城,NA,NA,NA,28,NA,17,104,104,96,89,8,8,7,8,NA,0.6
2026-06-14T1000,1750A,123.0483,41.1445,鞍山市,太平,,43,43,32,23,17,100,100,87,87,9,14,4,5,0.6,0.7
2026-06-14T1000,1751A,122.964,41.0968,鞍山市,铁西三道街,颗粒物(PM10),55,56,40,26,22,120,120,89,89,12,19,5,6,0.6,0.7
2026-06-14T1000,1753A,123.0219,41.0822,鞍山市,明达新区,,38,36,27,26,16,108,108,97,93,9,9,5,6,0.5,0.5
2026-06-14T1000,4201A,122.944647,41.082639,鞍山市,兴盛南路290号,,44,44,46,26,24,117,117,80,80,8,19,7,7,0.5,0.7
2026-06-14T1000,2195A,107.4206,40.7609,巴彦淖尔市,附二中,,30,27,26,10,9,96,96,75,75,8,7,13,11,0.5,0.4
2026-06-14T1000,2196A,107.37,40.7372,巴彦淖尔市,市环保大楼,,34,34,29,7,8,100,100,88,86,7,6,10,8,0.6,0.5
2026-06-14T1000,1956A,86.1476,41.7529,巴音郭楞蒙古自治州,孔雀公园,,45,45,60,8,17,72,72,113,106,18,12,6,5,0.3,0.2
2026-06-14T1000,1957A,86.1971,41.7166,巴音郭楞蒙古自治州,棉纺厂,颗粒物(PM10),54,55,78,11,23,80,80,104,98,14,14,/,/,/,/
2026-06-14T1000,1958A,86.236,41.7172,巴音郭楞蒙古自治州,经济开发区,,45,45,63,16,19,85,85,96,93,4,7,4,3,0.2,0.2
2026-06-14T1000,3181A,106.776805,31.852614,巴中市,市五中,,42,35,30,29,24,60,60,25,25,15,12,8,7,0.9,0.8
2026-06-14T1000,3183A,106.7419,31.8654,巴中市,圣泉水务公司,,35,32,29,24,24,68,68,28,28,11,18,8,8,0.7,0.7
2026-06-14T1000,3616A,106.7617,31.8343,巴中市,市中心医院,,39,35,33,27,27,69,69,24,24,10,13,8,7,0.9,0.8
2026-06-14T1000,2235A,122.7909,45.608,白城市,洮北区环保局,,30,NA,29,21,11,65,65,73,73,10,7,6,4,0.1,0.1
2026-06-14T1000,2236A,122.8741,45.5725,白城市,市环保局,,20,7,12,7,8,63,63,71,69,8,6,4,4,0.2,0.2
2026-06-14T1000,2231A,126.4219,41.9172,白山市,喜丰,颗粒物(PM10),54,55,52,15,22,105,105,40,40,16,23,24,11,0.7,0.7
2026-06-14T1000,2232A,126.4082,41.9416,白山市,环保局,,39,39,32,17,20,105,105,34,34,8,9,20,15,0.6,0.7
2026-06-14T1000,2647A,104.1727,36.5448,白银市,第三小学,颗粒物(PM10),52,52,43,19,15,92,92,84,79,14,15,26,26,0.5,0.5
2026-06-14T1000,2648A,104.1467,36.5482,白银市,动力公司,颗粒物(PM10),63,67,40,23,14,69,69,75,64,28,19,9,11,0.6,0.4
2026-06-14T1000,2512A,106.6102,23.901,百色市,市监测站,,18,16,26,3,14,57,57,59,59,7,8,7,8,0.8,0.7
2026-06-14T1000,2513A,106.6524,23.8842,百色市,市中心血站,,23,23,28,13,20,51,51,58,58,14,12,12,12,0.3,0.4
2026-06-14T1000,4133A,106.6273,23.8798,百色市,龙景西路,,19,15,33,12,17,60,60,69,68,10,12,8,10,0.5,0.6
2026-06-14T1000,2270A,117.396,32.9389,蚌埠市,工人疗养院,,43,38,36,30,20,133,133,94,94,13,13,7,6,0.4,0.4
2026-06-14T1000,2271A,117.3606,32.9428,蚌埠市,百货大楼,NA,NA,NA,26,NA,15,133,133,95,95,12,10,NA,8,0.6,0.5
2026-06-14T1000,2273A,117.4183,32.8909,蚌埠市,蚌埠学院,,46,39,36,32,26,116,116,67,67,15,13,9,6,0.4,0.4
2026-06-14T1000,2274A,117.3534,32.9672,蚌埠市,淮上区政府,,44,44,29,30,17,138,138,92,92,12,11,7,6,0.4,0.3
2026-06-14T1000,2275A,117.3143,32.8977,蚌埠市,高新区,,48,39,32,33,21,117,117,86,86,23,11,11,8,0.4,0.3
2026-06-14T1000,3715A,117.3091,32.9314,蚌埠市,蚌埠田家炳中学,,44,44,34,30,19,135,135,88,88,9,8,8,8,0.6,0.5
2026-06-14T1000,1585A,109.8761,40.6533,包头市,市环境监测站,,28,26,29,12,13,88,88,49,49,13,18,14,8,0.2,0.2
2026-06-14T1000,1587A,109.9992,40.5843,包头市,包头八中,,28,28,35,3,12,80,80,44,44,11,20,13,12,0.2,0.4
2026-06-14T1000,1589A,109.8641,40.6288,包头市,惠龙物流,,28,16,22,6,9,89,89,61,61,9,14,11,9,0.2,0.3
2026-06-14T1000,1590A,110.0376,40.5546,包头市,东河鸿龙湾,,26,24,23,3,13,81,81,44,44,11,19,10,8,0.5,0.5
2026-06-14T1000,3283A,109.9154,40.5684,包头市,滨河大厦,,29,29,30,17,12,82,82,43,43,16,26,13,11,0.4,0.4
2026-06-14T1000,3419A,109.9449,40.6259,包头市,包头市委党校,,27,23,18,8,14,84,84,53,53,12,17,17,12,0.7,0.7
2026-06-14T1000,3683A,109.8332,40.6577,包头市,昆区政府,,27,21,25,16,13,84,84,52,52,13,19,9,6,0.4,0.4
2026-06-14T1000,1931A,107.0802,34.3129,宝鸡市,竹园沟,,25,17,22,12,12,80,80,60,60,6,4,6,6,0.5,0.5
2026-06-14T1000,1933A,107.1429,34.3549,宝鸡市,监测站,,32,32,30,20,18,81,81,63,63,9,8,11,7,0.4,0.4
2026-06-14T1000,1934A,107.1172,34.3759,宝鸡市,技工学校,,45,45,32,18,17,84,84,65,65,4,6,5,6,0.5,0.5
2026-06-14T1000,1936A,107.2025,34.3518,宝鸡市,文理学院,,34,34,35,18,18,85,85,64,64,12,13,8,7,0.3,0.3
2026-06-14T1000,1937A,107.2396,34.3626,宝鸡市,三迪小学,,45,45,37,19,19,86,86,61,61,12,11,8,8,0.5,0.5
2026-06-14T1000,4155A,107.1721,34.3558,宝鸡市,滨河北路,,33,33,33,17,16,80,80,60,60,6,7,7,6,0.6,0.6
2026-06-14T1000,4308A,107.3898,34.3601,宝鸡市,陈仓区北开路21号,,45,45,46,23,22,86,86,48,48,15,19,12,25,0.4,0.4
2026-06-14T1000,1051A,115.4803,38.8568,保定市,游泳馆,,35,25,33,19,20,111,111,86,86,8,10,4,5,0.2,0.2
2026-06-14T1000,1052A,115.509,38.8895,保定市,华电二区,,32,25,30,12,16,102,102,69,69,8,10,3,3,0.5,0.5
2026-06-14T1000,1053A,115.4588,38.9037,保定市,接待中心,,34,26,35,18,21,108,108,79,79,7,10,1,1,0.1,0.1
2026-06-14T1000,1054A,115.4484,38.8344,保定市,地表水厂,,36,32,41,12,17,113,113,91,91,8,11,2,2,0.4,0.4
2026-06-14T1000,3581A,115.3136,38.9511,保定市,满城区生态环境分局,,35,24,28,10,19,110,110,89,89,9,11,2,2,0.1,0.1
2026-06-14T1000,3582A,115.4709,38.7628,保定市,清苑区第二中学,NA,NA,36,45,12,18,NA,NA,72,NA,10,14,1,2,0.3,0.3
2026-06-14T1000,3583A,115.6231,39.0223,保定市,徐水物探局,,35,34,44,23,22,110,110,70,70,11,15,3,3,0.4,0.3
2026-06-14T1000,4004A,115.4199,38.8665,保定市,双鹰农机,,35,25,34,6,20,112,112,90,90,7,9,2,3,0.1,0.2
2026-06-14T1000,4034A,115.515,38.8589,保定市,植保所站,,36,26,36,16,18,115,115,86,86,9,12,2,3,0.3,0.3
2026-06-14T1000,2594A,99.1589,25.1137,保山市,市环境监测站,,26,NA,12,18,8,64,64,45,45,9,7,5,5,0.4,0.3
2026-06-14T1000,2595A,99.1616,25.1381,保山市,市环保局,,42,NA,12,29,15,61,61,45,45,7,5,5,4,0.3,0.3
2026-06-14T1000,1867A,109.1435,21.4085,北海市,海滩公园,颗粒物(PM10),53,54,44,9,9,73,73,73,72,4,4,3,2,0.6,0.6
2026-06-14T1000,1868A,109.0983,21.466,北海市,新市环保局,,31,31,23,18,17,81,81,83,81,5,4,3,4,0.4,0.4
2026-06-14T1000,1869A,109.1775,21.5232,北海市,北海工业园,NA,NA,35,26,17,11,NA,NA,69,68,8,3,1,1,0.4,0.3
2026-06-14T1000,3400A,109.1844,21.4396,北海市,龙潭自来水厂,,26,26,20,10,6,68,68,70,68,2,2,3,2,0.6,0.5
2026-06-14T1000,1001A,116.3611,39.8786,北京市,万寿西宫,,38,21,34,12,19,120,120,78,78,6,12,3,4,0.4,0.4
2026-06-14T1000,1003A,116.4174,39.9289,北京市,东四,,40,24,32,14,18,125,125,79,79,11,16,2,3,0.2,0.2
2026-06-14T1000,1004A,116.4073,39.8858,北京市,天坛,,36,24,32,15,18,113,113,75,75,9,13,1,2,0.4,0.4
2026-06-14T1000,1005A,116.4622,39.9364,北京市,农展馆,,34,26,32,16,18,107,107,66,66,10,15,2,3,0.4,0.4
2026-06-14T1000,1006A,116.3399,39.9293,北京市,官园,,34,20,33,11,19,108,108,59,59,9,16,4,5,0.3,0.3
2026-06-14T1000,1007A,116.2879,39.9613,北京市,海淀万柳,,34,15,33,9,17,108,108,50,50,11,18,4,4,0.3,0.3
2026-06-14T1000,1008A,116.6635,40.1349,北京市,顺义新城,,31,15,36,9,22,97,97,67,67,5,8,3,4,0.4,0.5
2026-06-14T1000,1009A,116.6275,40.327,北京市,怀柔镇,,33,11,33,6,20,105,105,62,62,5,7,2,2,0.4,0.5
2026-06-14T1000,1010A,116.2295,40.217,北京市,昌平镇,,32,11,29,7,17,100,100,45,45,7,17,4,4,0.6,0.6
2026-06-14T1000,1011A,116.3968,39.982,北京市,奥体中心,,31,20,31,13,18,97,97,54,54,9,16,3,4,0.4,0.5
2026-06-14T1000,3418A,116.8336,40.4095,北京市,密云新城,,30,10,27,6,18,94,94,72,72,2,5,2,2,0.3,0.4
2026-06-14T1000,3671A,116.0879,39.9725,北京市,门头沟三家店,,36,13,22,3,10,115,115,45,45,4,15,1,1,0.4,0.4
2026-06-14T1000,3672A,116.1507,39.8246,北京市,丰台云岗,,36,27,32,13,17,113,113,62,62,8,11,2,2,0.4,0.3
2026-06-14T1000,3674A,115.9578,39.7602,北京市,房山燕山,,32,30,28,17,12,100,100,60,60,13,10,3,3,0.4,0.4
2026-06-14T1000,3675A,116.4669,39.7734,北京市,大兴旧宫,,38,19,34,11,19,120,120,64,64,9,19,2,2,0.5,0.5
2026-06-14T1000,3694A,115.9859,40.4562,北京市,延庆石河营,,29,29,24,18,14,76,76,40,40,12,12,2,2,0.3,0.4
2026-06-14T1000,3695A,116.6151,40.3052,北京市,怀柔新城,,30,11,32,6,20,96,96,66,66,5,7,1,2,0.4,0.5
2026-06-14T1000,3696A,116.2542,39.8764,北京市,丰台小屯,,33,20,35,10,18,103,103,61,61,8,12,3,3,0.4,0.5
2026-06-14T1000,3697A,116.8399,40.3843,北京市,密云镇,,32,15,29,9,19,101,101,68,68,4,8,5,4,0.6,0.5
2026-06-14T1000,4057A,115.9423,40.4431,北京市,延庆百泉,,24,24,24,14,15,75,75,38,38,11,12,1,1,0.2,0.3
2026-06-14T1000,4058A,116.6598,39.9164,北京市,通州新华,,37,32,40,18,21,116,116,64,64,7,15,3,3,0.6,0.6
2026-06-14T1000,4182A,116.1942,39.9158,北京市,石景山八角,,33,14,35,11,17,105,105,59,59,13,20,3,3,0.4,0.4
2026-06-14T1000,4194A,117.078628,40.151726,北京市,平谷新城,,32,32,39,22,25,95,95,66,66,4,6,1,2,0.5,0.5
2026-06-14T1000,1761A,123.8274146,41.31234549,本溪市,大峪,,41,31,30,17,16,131,131,95,95,5,11,8,7,0.5,0.6
2026-06-14T1000,1763A,123.7169,41.3094,本溪市,彩屯,,44,44,33,25,20,124,124,101,98,14,15,11,12,1.6,1.6
2026-06-14T1000,1764A,123.7672166,41.28649327,本溪市,东明,,47,39,39,28,16,148,148,112,112,10,12,5,6,0.5,0.6
2026-06-14T1000,1765A,123.799345,41.266614,本溪市,新立屯,,44,33,31,26,15,140,140,99,97,6,10,9,8,0.6,0.6
2026-06-14T1000,1766A,123.829144,41.336777,本溪市,威宁,,38,29,35,14,17,121,121,91,90,2,9,9,8,0.5,0.6
2026-06-14T1000,2587A,105.287,27.3133,毕节市,八中,,31,31,23,21,16,63,63,42,42,17,10,30,9,0.6,0.4
2026-06-14T1000,2588A,105.3079,27.2987,毕节市,师专,,32,25,30,22,17,52,52,31,31,14,13,15,8,0.5,0.4
2026-06-14T1000,4263A,105.3688,27.3598,毕节市,工业大道,,32,32,26,10,12,66,66,29,29,12,16,10,7,/,/
2026-06-14T1000,1629A,117.9961,37.3604,滨州市,第二水厂,细颗粒物(PM2.5),68,53,50,44,19,146,146,109,109,13,10,9,8,0.8,0.5
2026-06-14T1000,1630A,117.9789,37.3931,滨州市,北中新校,细颗粒物(PM2.5),58,41,43,39,19,145,145,113,113,15,12,12,10,0.9,0.7
2026-06-14T1000,3514A,117.9379,37.3959,滨州市,中海酒店,细颗粒物(PM2.5),52,NA,38,36,17,148,148,120,120,18,15,10,9,0.6,0.4
2026-06-14T1000,3515A,117.9381509,37.35547456,滨州市,开发区一中,颗粒物(PM10),56,58,52,34,18,136,136,106,106,12,15,9,8,0.4,0.2
2026-06-14T1000,3516A,118.0914,37.6938,滨州市,金海六路,,43,34,46,30,17,130,130,112,112,8,12,5,7,0.5,0.6
2026-06-14T1000,4028A,117.9955,37.3752,滨州市,滨州市西街道办事处,细颗粒物(PM2.5),58,46,46,39,19,150,150,111,111,12,10,8,6,0.8,0.6
2026-06-14T1000,2311A,115.8071,33.8399,亳州市,污水处理厂,,38,17,18,8,11,120,120,79,79,9,11,5,5,0.2,0.4
2026-06-14T1000,2312A,115.7789,33.8519,亳州市,三国揽胜宫,,38,38,33,10,11,119,119,86,86,6,7,4,4,0.2,0.2
2026-06-14T1000,3332A,115.7631,33.803,亳州市,亳州学院,,38,17,20,13,12,121,121,85,85,6,8,5,4,0.2,0.2
2026-06-14T1000,2693A,82.0482,44.8553,博尔塔拉蒙古自治州,市党校,,23,14,23,3,7,71,71,72,70,6,4,4,3,0.1,0.1
2026-06-14T1000,2694A,82.0805,44.8966,博尔塔拉蒙古自治州,市环保局,,44,44,25,3,4,53,53,67,62,17,11,8,6,0.6,0.6
2026-06-14T1000,1071A,116.8733,38.2922,沧州市,沧县城建局,,38,31,35,22,23,120,120,97,93,9,10,3,4,0.5,0.5
2026-06-14T1000,1072A,116.8462,38.3189,沧州市,电视转播站,,35,34,41,21,22,112,112,86,80,10,12,4,7,0.3,0.3
2026-06-14T1000,1073A,116.8588,38.3161,沧州市,市环保局,,42,42,46,23,26,114,114,90,85,7,10,4,5,0.5,0.4
2026-06-14T1000,3324A,116.8011,38.294,沧州市,河北水利电力学院,,34,27,28,21,23,108,108,91,88,12,11,4,5,0.2,0.2
2026-06-14T1000,2622A,97.1813,31.1289,昌都市,昌都监测站,,25,9,9,3,3,77,77,81,81,9,10,7,6,0.8,0.6
2026-06-14T1000,3719A,97.1707,31.1428,昌都市,昌都会议中心,,30,10,7,3,3,93,93,98,98,4,4,6,6,0.4,0.4
2026-06-14T1000,2692A,87.2722,44.0298,昌吉回族自治州,新区政务中心,,21,21,19,3,10,67,67,76,64,14,9,7,7,0.1,0.1
2026-06-14T1000,3613A,87.3069,44.0093,昌吉回族自治州,亚心广场,,31,31,25,3,10,76,76,82,74,22,12,8,7,0.1,0.1
2026-06-14T1000,4164A,87.2057,43.9289,昌吉回族自治州,财政所,,26,20,28,3,5,81,81,84,74,8,6,6,6,0.3,0.2
2026-06-14T1000,1120A,125.2874,43.9024,长春市,客车厂,,26,NA,26,18,32,78,78,50,50,27,35,6,6,0.4,0.5
2026-06-14T1000,1121A,125.2943,43.8508,长春市,邮电学院,,27,NA,23,16,30,86,86,54,54,11,21,7,7,0.4,0.5
2026-06-14T1000,1122A,125.3648,43.8745,长春市,劳动公园,,28,26,32,15,30,87,87,55,55,16,31,6,7,0.5,0.6
2026-06-14T1000,1123A,125.3233,43.8781,长春市,园林处,,32,NA,27,22,35,87,87,56,56,14,24,3,3,0.4,0.5
2026-06-14T1000,1124A,125.4604,43.7904,长春市,净月潭,,40,NA,23,28,21,66,66,46,46,17,18,6,6,0.4,0.4
2026-06-14T1000,1126A,125.38,43.8422,长春市,经开区环卫处,,28,21,29,19,32,88,88,56,56,17,29,5,5,0.3,0.4
2026-06-14T1000,1127A,125.234,43.7761,长春市,高新区管委会,,30,NA,24,21,25,77,77,60,57,15,22,6,6,0.4,0.4
2026-06-14T1000,1128A,125.1695,43.83,长春市,岱山公园,,30,NA,29,20,26,94,94,64,64,14,26,3,4,0.2,0.3
2026-06-14T1000,4281A,125.334645,43.916281,长春市,北亚泰大街1068号,,28,NA,27,18,34,89,89,51,51,12,30,5,5,0.4,0.5
2026-06-14T1000,1335A,113.082,28.2421,长沙市,经开区环保局,,27,27,18,9,16,83,83,61,61,4,9,4,4,0.5,0.5
2026-06-14T1000,1336A,112.8873,28.2202,长沙市,高开区环保局,,27,17,23,13,16,86,86,47,47,4,7,3,3,0.6,0.6
2026-06-14T1000,1337A,113.0785,28.2012,长沙市,马坡岭,,28,14,20,10,17,89,89,63,63,7,12,6,6,0.7,0.7
2026-06-14T1000,1338A,112.9448,28.1894,长沙市,湖南师范大学,,29,20,19,14,15,92,92,61,61,6,8,8,7,0.2,0.2
2026-06-14T1000,1339A,113.0177,28.1322,长沙市,雨花区环保局,,27,20,19,12,16,84,84,60,60,4,8,4,4,0.7,0.7
2026-06-14T1000,1340A,112.9795,28.2593,长沙市,伍家岭,,28,19,21,12,15,88,88,56,56,6,10,4,3,0.4,0.4
2026-06-14T1000,1341A,113.002,28.1944,长沙市,火车新站,,28,NA,19,12,16,87,87,60,60,5,9,8,7,0.2,0.3
2026-06-14T1000,1342A,112.9846,28.1177,长沙市,天心区环保局,,29,22,19,12,17,90,90,63,63,4,8,4,4,0.1,0.1
2026-06-14T1000,1343A,112.8906,28.1307,长沙市,湖南中医药大学,,29,21,19,8,13,90,90,48,48,5,12,6,6,0.4,0.4
2026-06-14T1000,1727A,113.1146,36.1547,长治市,清华站,,47,47,30,22,17,126,126,119,110,21,9,13,10,0.8,0.6
2026-06-14T1000,1730A,113.0887,36.2126,长治市,审计局,,48,48,31,27,17,138,138,118,114,10,6,12,11,0.6,0.4
2026-06-14T1000,1731A,113.0845,36.1856,长治市,长治八中,颗粒物(PM10),54,55,39,33,17,131,131,116,111,26,14,14,12,0.8,0.6
2026-06-14T1000,2845A,113.1561,36.1912,长治市,德盛苑,,49,47,30,34,18,138,138,118,112,18,10,13,11,0.7,0.5
2026-06-14T1000,3568A,113.0603,36.0464,长治市,向阳小学,颗粒物(PM10),73,81,63,25,17,134,134,104,102,17,7,20,17,1.1,0.8
2026-06-14T1000,3569A,112.8788,36.315,长治市,屯留一中,细颗粒物(PM2.5),52,42,29,36,17,138,138,97,97,15,10,25,13,1.9,1.3
2026-06-14T1000,4189A,113.113092,36.199482,长治市,英华南巷50号,颗粒物(PM10),53,53,37,28,18,143,143,118,117,13,7,12,10,1.0,0.8
2026-06-14T1000,4190A,113.23666,36.33435,长治市,学府街1号,细颗粒物(PM2.5),60,52,36,40,17,165,165,129,129,22,12,17,7,1.9,0.6
2026-06-14T1000,1854A,111.696,28.9725,常德市,市二中,,14,10,15,7,10,43,43,22,22,4,7,8,8,0.6,0.6
2026-06-14T1000,3138A,111.7152,29.0288,常德市,武陵区永安,,19,19,19,6,14,45,45,23,23,3,12,6,8,0.8,0.8
2026-06-14T1000,3139A,111.6891,28.9881,常德市,鼎城区玉霞,NA,NA,17,17,6,11,NA,NA,14,12,NA,12,NA,10,NA,0.7
2026-06-14T1000,3140A,111.6651,29.0526,常德市,武陵区长庚,,15,15,19,8,12,41,41,25,25,5,10,8,9,0.7,0.7
2026-06-14T1000,1196A,119.9524,31.7586,常州市,市监测站,,35,35,26,18,16,66,66,74,70,19,18,5,5,0.3,0.3
2026-06-14T1000,1200A,119.9351,31.703,常州市,武进监测站,,24,9,24,3,15,74,74,75,73,6,7,3,3,0.3,0.3
2026-06-14T1000,3002A,119.9701,31.813,常州市,行政中心,,23,NA,18,12,15,71,71,73,70,12,11,4,5,0.3,0.4
2026-06-14T1000,3003A,120.0434,31.7726,常州市,经开区,,30,30,36,17,14,70,70,76,72,19,17,2,4,0.7,0.6
2026-06-14T1000,3010A,119.8919,31.7892,常州市,钟楼,,24,23,31,10,13,74,74,77,74,14,14,7,8,0.4,0.4
2026-06-14T1000,3429A,119.8595,31.706,常州市,武进经发区,,20,17,24,7,12,64,64,66,64,14,9,6,7,0.6,0.6
2026-06-14T1000,3430A,119.5812,31.7256,常州市,金坛城区,,26,19,19,15,14,83,83,77,73,9,9,8,7,0.7,0.6
2026-06-14T1000,4089A,119.9551,31.863,常州市,崇义南街5-H号,,26,8,20,3,14,83,83,73,72,6,11,8,8,0.6,0.5
2026-06-14T1000,2220A,120.4318,41.588,朝阳市,西梁,,33,33,30,22,20,66,66,82,77,11,12,8,8,0.7,0.6
2026-06-14T1000,2221A,120.452,41.565,朝阳市,河畔小区,,29,23,25,20,23,81,81,91,88,7,11,8,8,0.3,0.2
2026-06-14T1000,2222A,120.4176,41.5648,朝阳市,八里堡,,49,NA,29,34,31,75,75,87,82,17,14,2,3,0.6,0.6
2026-06-14T1000,3026A,116.6179,23.6608,潮州市,市政府,,22,22,22,13,17,29,29,32,28,17,11,8,6,0.8,0.6
2026-06-14T1000,4036A,116.646,23.676,潮州市,金山,,26,26,20,10,15,25,25,22,18,16,10,3,2,0.5,0.4
2026-06-14T1000,2473A,113.0116,25.8228,郴州市,市职中,,18,NA,12,12,7,57,57,48,48,4,4,6,6,0.9,0.8
2026-06-14T1000,2475A,113.0381,25.8074,郴州市,市审计局,,18,12,11,11,6,56,56,43,43,7,10,4,3,/,/
2026-06-14T1000,2476A,113.0348,25.7757,郴州市,市环保局,,18,18,11,12,7,54,54,44,44,9,8,5,5,0.6,0.4
2026-06-14T1000,4252A,113.0138,25.8011,郴州市,好美居路49号,,20,15,9,6,6,62,62,52,52,7,7,6,5,/,/
2026-06-14T1000,1431A,103.9727,30.7242,成都市,金泉两河,细颗粒物(PM2.5),107,73,45,67,39,70,70,54,54,24,18,10,4,0.5,0.4
2026-06-14T1000,1432A,104.1423,30.6765,成都市,十里店,细颗粒物(PM2.5),56,45,42,38,33,75,75,82,75,33,17,7,8,0.6,0.5
2026-06-14T1000,1433A,104.0594,30.5765,成都市,三瓦窑,颗粒物(PM10),51,51,48,34,37,90,90,77,74,23,27,7,9,0.7,0.6
2026-06-14T1000,1434A,104.1122,30.6306,成都市,沙河铺,颗粒物(PM10),54,55,41,33,29,71,71,68,65,36,22,6,6,0.6,0.5
2026-06-14T1000,2880A,104.0219,30.6561,成都市,大石西路,细颗粒物(PM2.5),109,78,56,69,49,57,57,58,53,39,23,5,6,0.8,0.6
2026-06-14T1000,3136A,104.2724,30.559,成都市,龙泉驿区区政府,,38,29,25,26,24,97,97,111,104,11,10,8,9,0.5,0.4
2026-06-14T1000,3357A,104.0028,30.6891,成都市,金博路,细颗粒物(PM2.5),88,73,47,54,41,63,63,63,53,38,27,8,8,0.9,0.7
2026-06-14T1000,3359A,104.056,30.5228,成都市,华阳,细颗粒物(PM2.5),54,41,36,37,29,71,71,65,61,20,15,3,5,0.6,0.5
2026-06-14T1000,3488A,104.387954,30.746684,成都市,青白江技师分院,细颗粒物(PM2.5),58,43,32,39,25,88,88,110,104,16,13,3,5,0.7,0.6
2026-06-14T1000,3489A,104.0788,30.4054,成都市,科学城,,39,34,30,27,22,79,79,73,68,15,10,7,8,0.5,0.5
2026-06-14T1000,4011A,103.8505,30.6946,成都市,光华大道三段,细颗粒物(PM2.5),113,82,51,74,45,79,79,56,52,23,19,9,5,0.7,0.5
2026-06-14T1000,4144A,104.3257,30.6406,成都市,八角井街185号,NA,NA,38,36,27,21,97,97,114,110,13,11,NA,5,0.5,0.5
2026-06-14T1000,4224A,104.2433276,30.53529463,成都市,鲸龙路1057号,,44,44,33,26,26,100,100,72,71,18,19,9,9,0.7,0.6
2026-06-14T1000,1062A,117.9531,40.908,承德市,铁路,,42,42,31,19,17,65,65,57,54,16,13,2,2,0.3,0.3
2026-06-14T1000,1063A,117.9397,40.9763,承德市,中国银行,,27,16,30,8,15,84,84,55,55,5,8,2,2,0.3,0.3
2026-06-14T1000,4073A,117.9462,40.95,承德市,杏林街1号,,26,25,28,13,21,81,81,60,60,11,8,2,2,0.2,0.3
2026-06-14T1000,4274A,117.7994,40.9605,承德市,滨河大街98号,,32,32,22,18,17,84,84,58,58,10,7,4,2,0.7,0.4
2026-06-14T1000,2314A,117.4698,30.6617,池州市,池州学院,,22,NA,20,15,13,58,58,35,35,22,14,4,4,0.7,0.7
2026-06-14T1000,3237A,117.4918,30.6617,池州市,展览馆,,32,32,21,20,12,54,54,23,23,21,12,6,3,0.6,0.6
2026-06-14T1000,3333A,117.5626,30.695,池州市,第八中学,,31,31,20,18,12,49,49,27,27,20,11,4,3,0.5,0.5
2026-06-14T1000,3334A,117.5037,30.6242,池州市,第十二中学,,29,29,21,16,12,84,84,32,32,12,14,7,4,0.8,0.8
2026-06-14T1000,1744A,118.9229,42.2816,赤峰市,松山一中,,19,10,34,9,31,58,58,126,105,18,13,9,10,0.6,0.8
2026-06-14T1000,1745A,118.9588,42.2733,赤峰市,哈达街,,20,15,39,14,29,57,57,123,105,19,13,12,13,0.5,0.6
2026-06-14T1000,1746A,118.8792,42.2551,赤峰市,天义路,,20,NA,23,14,21,52,52,106,88,17,13,5,6,0.2,0.3
2026-06-14T1000,3058A,119.2656,42.0356,赤峰市,银河街,,36,34,39,24,29,113,113,116,108,13,11,8,9,0.7,0.7
2026-06-14T1000,3286A,118.9359,42.3146,赤峰市,桥北物流园区,,25,25,37,9,22,47,47,109,87,22,13,3,5,0.6,0.8
2026-06-14T1000,2521A,107.3473,22.4137,崇左市,市环保局江州分局,,33,32,35,23,18,74,74,68,60,12,9,7,5,0.5,0.5
2026-06-14T1000,4256A,107.375,22.3736,崇左市,石景林东路7号,,29,25,27,20,16,64,64,63,54,16,11,6,4,0.8,0.7
2026-06-14T1000,3207A,118.31131,32.3033,滁州市,市政府原办公楼,NA,NA,NA,20,NA,22,NA,NA,136,NA,NA,9,NA,6,NA,0.4
2026-06-14T1000,3331A,118.3268,32.2633,滁州市,图书馆,,40,37,28,28,18,105,105,78,78,8,8,11,10,0.4,0.4
2026-06-14T1000,4101A,118.3196,32.3335,滁州市,银山路666号,,50,NA,25,35,20,114,114,69,69,11,13,6,6,0.3,0.3
2026-06-14T1000,4102A,118.3426,32.2979,滁州市,黄山路555号,,42,39,32,29,20,120,120,76,76,10,12,9,9,0.3,0.3
2026-06-14T1000,2606A,101.5379,25.0492,楚雄彝族自治州,市经济开发区,,13,12,11,3,6,39,39,NA,NA,4,8,1,2,0.5,0.2
2026-06-14T1000,4153A,101.5536,25.0343,楚雄彝族自治州,团结路562号,,13,NA,9,6,6,40,40,32,32,2,4,3,3,0.4,0.4
2026-06-14T1000,2549A,107.5087,31.2186,达州市,市环境监测站,,43,43,37,17,15,55,55,22,22,17,20,6,6,0.4,0.4
2026-06-14T1000,2550A,107.4988,31.2132,达州市,凤凰小区,,31,31,37,16,15,59,59,23,23,14,19,5,5,0.4,0.4
2026-06-14T1000,2551A,107.5081,31.1987,达州市,达县机关宾馆,,34,34,38,18,18,68,68,23,23,15,29,4,4,0.3,0.3
2026-06-14T1000,2552A,107.4644,31.2124,达州市,市政中心,,40,40,39,19,16,59,59,25,25,19,24,4,4,0.4,0.4
2026-06-14T1000,2614A,100.2168,25.5818,大理白族自治州,大理市环境监测站,,18,8,9,3,6,57,57,50,50,6,5,6,5,0.5,0.4
2026-06-14T1000,2615A,100.1542,25.7055,大理白族自治州,大理古城,NA,NA,18,13,3,6,40,40,30,30,11,11,NA,11,0.6,0.6
2026-06-14T1000,1109A,121.6119,38.974,大连市,甘井子,,40,24,37,20,24,128,128,108,108,10,9,9,9,0.6,0.5
2026-06-14T1000,1110A,121.565,38.9509,大连市,周水子,,42,35,42,29,31,122,122,104,104,14,12,5,5,0.6,0.5
2026-06-14T1000,1111A,121.5637,38.8849,大连市,星海三站,,43,32,48,27,24,136,136,126,126,6,5,6,5,0.7,0.6
2026-06-14T1000,1112A,121.6301,38.9117,大连市,青泥洼桥,,44,35,41,27,24,140,140,116,116,7,7,5,6,0.8,0.6
2026-06-14T1000,1113A,121.6248,38.8643,大连市,傅家庄,,47,29,28,26,22,149,149,128,128,3,3,8,8,0.5,0.4
2026-06-14T1000,1114A,121.5117,38.8636,大连市,七贤岭,,38,31,53,24,23,121,121,116,116,12,11,6,6,0.8,0.7
2026-06-14T1000,1116A,121.7507,39.1339,大连市,金州,,38,31,33,26,25,113,113,106,106,9,6,5,5,0.8,0.6
2026-06-14T1000,1117A,121.7811,39.0495,大连市,开发区,,42,32,35,29,26,126,126,113,113,14,10,7,7,0.5,0.4
2026-06-14T1000,1118A,121.9762,39.0631,大连市,双D港,,50,40,32,35,23,109,109,98,98,11,7,6,6,0.7,0.6
2026-06-14T1000,4082A,121.2548,38.8188,大连市,旅顺,,40,39,41,28,27,113,113,112,112,10,5,6,5,0.5,0.4
2026-06-14T1000,1789A,124.8085,46.0381,大庆市,大同区,,23,23,23,13,8,58,58,47,45,14,17,5,4,0.3,0.2
2026-06-14T1000,1790A,125.1166,46.5255,大庆市,龙凤区,,43,43,37,8,9,45,45,36,36,14,12,3,2,0.2,0.1
2026-06-14T1000,1791A,124.8894,46.4007,大庆市,红岗区,,33,33,32,11,9,49,49,42,41,14,11,5,5,0.3,0.3
2026-06-14T1000,1792A,125.1391,46.578,大庆市,萨尔图区,,30,30,18,7,5,52,52,42,42,11,9,5,5,0.3,0.3
2026-06-14T1000,1793A,124.9026,46.6217,大庆市,让胡路区,,26,26,25,6,9,53,53,43,42,8,9,3,3,0.4,0.4
2026-06-14T1000,3481A,125.127,46.6277,大庆市,萨区政府监测点,NA,NA,16,17,3,6,NA,NA,47,NA,6,4,9,8,0.2,0.2
2026-06-14T1000,1723A,113.2926,40.0759,大同市,云冈宾馆,,30,12,27,3,10,94,94,56,56,6,17,9,9,0.4,0.4
2026-06-14T1000,1724A,113.3437,40.0921,大同市,大同大学,,28,22,29,8,11,88,88,60,60,8,14,10,9,0.4,0.5
2026-06-14T1000,1725A,113.2637,40.129,大同市,安家小村,,30,17,32,9,10,96,96,63,63,5,16,10,9,0.4,0.4
2026-06-14T1000,3282A,113.3399,40.0586,大同市,大同市卫生学校,NA,NA,NA,34,7,17,96,96,68,68,7,17,11,9,0.5,0.5
2026-06-14T1000,3565A,113.1371,40.1122,大同市,云冈站,,29,18,43,10,9,91,91,41,41,6,20,8,8,0.6,0.5
2026-06-14T1000,3566A,113.1186,40.2556,大同市,图书馆,NA,NA,22,24,3,9,NA,NA,33,33,6,10,7,7,0.6,0.6
2026-06-14T1000,3567A,113.5931,40.0459,大同市,区一中,,41,41,23,3,8,88,88,58,57,14,10,11,8,0.5,0.4
2026-06-14T1000,4199A,113.2798248,40.09972476,大同市,魏都大道141号,,30,23,34,6,13,94,94,54,54,7,19,7,8,0.5,0.5
2026-06-14T1000,2269A,124.1068,50.4091,大兴安岭地区,科技局,NA,NA,15,19,7,7,61,61,33,33,NA,3,NA,6,NA,0.3
2026-06-14T1000,3663A,124.117,50.4279,大兴安岭地区,红旗社区,,22,14,10,3,7,68,68,32,32,6,8,6,6,0.3,0.3
2026-06-14T1000,1600A,124.33,40.0625,丹东市,江湾东路,NA,NA,59,30,35,21,NA,NA,45,45,24,18,9,5,0.7,0.4
2026-06-14T1000,1601A,124.4242,40.1513,丹东市,临江后街,,39,39,36,25,19,68,68,35,35,14,16,7,5,0.5,0.5
2026-06-14T1000,1602A,124.3935,40.1461,丹东市,元宝山,,39,37,31,27,18,59,59,40,39,19,14,7,6,0.6,0.5
2026-06-14T1000,1603A,124.3634,40.1093,丹东市,民主桥,颗粒物(PM10),51,51,36,32,22,72,72,41,41,17,18,11,7,0.8,0.6
2026-06-14T1000,3541A,109.5726195,19.51688767,儋州市,第一中学子站,,20,20,17,7,6,50,50,50,50,3,4,2,4,0.3,0.3
2026-06-14T1000,3542A,109.5567,19.5187,儋州市,东坡学校子站,,23,23,17,3,6,55,55,56,56,3,3,3,3,0.4,0.4
2026-06-14T1000,2616A,98.5611,24.4273,德宏傣族景颇族自治州,德宏州监测站,,19,19,7,3,8,30,30,32,29,9,6,5,5,0.5,0.5
2026-06-14T1000,3677A,98.5887,24.4366,德宏傣族景颇族自治州,芒市人民政府综合楼,,38,38,28,12,9,23,23,30,25,13,8,6,7,0.7,0.6
2026-06-14T1000,1901A,104.424,31.1209,德阳市,东山公园,,50,NA,38,35,36,58,58,80,70,10,14,4,4,0.6,0.5
2026-06-14T1000,1902A,104.3827,31.1318,德阳市,西小区,,50,46,53,35,39,57,57,75,65,16,17,7,7,0.9,0.8
2026-06-14T1000,1904A,104.3553,31.1091,德阳市,耐火材料厂,细颗粒物(PM2.5),52,45,55,36,42,66,66,69,61,20,17,3,3,0.5,0.5
2026-06-14T1000,4145A,104.4144,31.1495,德阳市,市林业局,细颗粒物(PM2.5),64,NA,44,42,36,70,70,81,74,14,16,9,9,0.8,0.8
2026-06-14T1000,1622A,116.3034,37.4675,德州市,儿童乐园,,49,27,48,16,22,156,156,105,105,10,13,9,9,0.6,0.7
2026-06-14T1000,1624A,116.2992,37.4449,德州市,监理站,,50,24,47,15,19,158,158,121,121,5,10,12,12,0.4,0.4
2026-06-14T1000,3066A,116.2722,37.438,德州市,九衢泉纯净水厂,,47,27,44,16,19,150,150,97,97,10,20,13,10,0.8,0.7
2026-06-14T1000,3371A,116.3693,37.44,德州市,开发区人民医院,,44,27,47,18,20,140,140,95,95,6,10,8,8,0.5,0.5
2026-06-14T1000,3511A,116.5687,37.3331,德州市,陵城艺术中心,,47,29,52,19,20,149,149,107,107,13,12,11,7,0.3,0.3
2026-06-14T1000,4292A,116.352738,37.420875,德州市,新河东路,,46,29,40,14,17,146,146,101,101,10,16,10,10,0.6,0.7
2026-06-14T1000,2621A,99.7054,27.8319,迪庆藏族自治州,迪庆州站,,16,13,13,11,7,50,50,50,45,8,8,7,7,0.4,0.4
2026-06-14T1000,3180A,99.7122,27.8129,迪庆藏族自治州,质量技术监督局,,22,16,13,15,6,55,55,57,53,9,9,10,9,0.3,0.3
2026-06-14T1000,4257A,104.6092,35.5962,定西市,将台街,,34,32,37,9,15,106,106,68,68,12,15,5,4,0.2,0.2
2026-06-14T1000,4309A,104.6159,35.5701,定西市,正龙路62号,,46,46,42,11,13,103,103,82,82,9,9,5,4,0.2,0.2
2026-06-14T1000,4071A,114.9883,38.5232,定州市,交通局,,36,25,45,18,18,115,115,92,92,9,10,2,3,0.3,0.4
2026-06-14T1000,4072A,115.0045,38.5136,定州市,第五中学,,39,39,43,8,19,106,106,83,83,9,9,3,4,0.3,0.4
2026-06-14T1000,1390A,113.7943,23.0132,东莞市,东城石井,,22,22,13,9,6,58,58,45,45,11,16,2,2,0.4,0.4
2026-06-14T1000,1391A,113.7384,22.9659,东莞市,南城西平,,22,22,12,9,2,62,62,56,56,11,12,1,2,0.7,0.6
2026-06-14T1000,3319A,113.7283,23.041,东莞市,万江金泰,,27,27,14,10,6,54,54,36,36,16,16,5,5,0.7,0.6
2026-06-14T1000,4129A,113.8666,23.1062,东莞市,裕兴路,,24,24,22,9,8,63,63,49,49,9,21,7,8,0.6,0.6
2026-06-14T1000,4130A,114.0076,22.9739,东莞市,教育路1号,,18,16,14,10,8,55,55,46,46,14,17,5,5,0.6,0.6
2026-06-14T1000,4131A,113.7981,22.8124,东莞市,长怡路1号,NA,NA,31,19,14,5,NA,NA,44,NA,8,11,4,4,0.6,0.5
2026-06-14T1000,1666A,118.6612,37.4313,东营市,市环保局,,46,NA,37,32,13,135,135,135,134,9,12,3,4,0.4,0.4
2026-06-14T1000,3036A,118.6903,37.4337,东营市,开发区管委会,细颗粒物(PM2.5),58,39,43,39,13,128,128,135,133,13,14,7,8,0.5,0.4
2026-06-14T1000,3365A,118.5721,37.5654,东营市,垦利区民丰路,,43,34,42,26,14,136,136,124,123,9,11,7,7,0.5,0.5
2026-06-14T1000,3498A,118.5063,37.8606,东营市,河口城区,,48,22,37,18,10,152,152,147,142,6,8,6,8,0.6,0.5
2026-06-14T1000,3646A,118.4979,37.4623,东营市,胜利站,,42,32,39,28,15,132,132,123,121,9,9,7,8,0.6,0.6
2026-06-14T1000,3734A,118.5753,37.4405,东营市,理想之城,,48,NA,38,33,13,129,129,121,118,10,13,8,9,0.4,0.4
2026-06-14T1000,1591A,110.0024,39.8127,鄂尔多斯市,综合楼,,41,41,37,7,13,83,83,70,68,20,20,12,9,0.6,0.6
2026-06-14T1000,1592A,109.9485,39.8259,鄂尔多斯市,巴音孟克林场办事处,,34,34,35,3,11,83,83,72,72,19,17,9,5,0.6,0.5
2026-06-14T1000,1593A,109.7734,39.5987,鄂尔多斯市,康泽苑,颗粒物(PM10),51,51,41,3,9,84,84,43,43,17,10,12,6,0.4,0.2
2026-06-14T1000,1594A,109.8121,39.5987,鄂尔多斯市,华泰汽车城,,31,31,29,3,9,63,63,23,23,16,19,16,11,0.6,0.5
2026-06-14T1000,1595A,109.9734,39.7884,鄂尔多斯市,奥林花园,颗粒物(PM10),55,56,39,3,10,67,67,48,48,26,21,9,5,0.5,0.3
2026-06-14T1000,2436A,114.894,30.3989,鄂州市,市政府,,32,25,29,22,14,81,81,55,55,12,13,4,4,0.5,0.5
2026-06-14T1000,2437A,114.8986,30.3714,鄂州市,赵家坝,,23,7,24,3,12,73,73,45,45,13,11,13,6,0.6,0.7
2026-06-14T1000,3654A,114.8093,30.4091,鄂州市,精准医疗中心,,29,29,25,14,18,76,76,47,47,15,19,4,4,0.7,0.9
2026-06-14T1000,2454A,109.4978,30.2979,恩施土家族苗族自治州,湖北民院,,22,22,22,8,12,39,39,26,24,5,3,4,4,0.4,0.4
2026-06-14T1000,3549A,109.5061,30.3771,恩施土家族苗族自治州,龙凤新区,,20,17,16,14,12,35,35,33,18,7,5,6,6,0.5,0.4
2026-06-14T1000,2499A,108.3411,21.6159,防城港市,沙万,,35,35,27,13,8,64,64,66,65,6,6,3,3,0.6,0.6
2026-06-14T1000,2500A,108.3515,21.7733,防城港市,防城档案局,,29,29,23,14,10,52,52,56,53,6,5,5,5,0.5,0.5
2026-06-14T1000,2501A,108.3506,21.6414,防城港市,大海花园,,30,30,25,18,9,68,68,70,67,4,5,5,5,0.7,0.6
2026-06-14T1000,1371A,113.1293,23.0065,佛山市,湾梁,NA,NA,NA,20,NA,10,NA,NA,72,NA,NA,16,NA,NA,NA,NA
2026-06-14T1000,1372A,113.1082,23.0477,佛山市,华材职中,,26,24,17,18,10,42,42,37,37,11,9,6,6,0.3,0.3
2026-06-14T1000,1373A,113.1439,23.045,佛山市,南海气象局,,23,23,21,15,10,45,45,36,36,12,17,/,/,/,/
2026-06-14T1000,1374A,113.2879,22.8094,佛山市,顺德苏岗,,23,NA,11,16,10,49,49,28,28,9,10,/,/,0.7,0.6
2026-06-14T1000,1376A,112.8384,22.8678,佛山市,高明孔堂,,28,28,17,17,7,47,47,51,49,7,5,/,/,/,/
2026-06-14T1000,1377A,112.8835,23.1584,佛山市,三水监测站,,29,29,22,18,14,14,14,15,11,23,17,6,5,0.5,0.4
2026-06-14T1000,1378A,112.8668,23.185,佛山市,三水云东海,,33,33,26,13,7,18,18,20,16,18,14,/,/,/,/
2026-06-14T1000,3625A,113.2568,22.7629,佛山市,容桂街道办,,28,24,16,19,13,43,43,26,26,16,19,/,/,/,/
2026-06-14T1000,1282A,119.2681,26.0506,福州市,师大,,31,31,23,20,15,44,44,47,42,15,12,4,4,0.4,0.4
2026-06-14T1000,1283A,119.2983,26.1028,福州市,五四北路,,24,24,23,14,17,52,52,35,35,16,18,4,4,0.4,0.3
2026-06-14T1000,1284A,119.2648,26.0769,福州市,杨桥西路,,25,NA,21,17,17,48,48,36,34,14,15,3,3,/,/
2026-06-14T1000,3048A,119.5799,26.0937,福州市,九龙,,32,23,16,22,8,49,49,47,47,10,6,6,6,0.2,0.2
2026-06-14T1000,3526A,119.5188,25.9666,福州市,吴航,,15,6,17,3,11,46,46,67,59,9,9,6,6,0.5,0.5
2026-06-14T1000,4104A,119.3106,26.0648,福州市,路通桥巷6号,,39,31,27,27,18,38,38,47,39,17,12,/,/,/,/
2026-06-14T1000,1755A,123.7974,41.8494,抚顺市,望花区,颗粒物(PM10),58,60,46,11,14,120,120,66,66,11,22,9,11,0.4,0.5
2026-06-14T1000,1756A,123.9161,41.8827,抚顺市,顺城区,,41,39,36,12,23,131,131,57,57,13,24,11,11,0.6,0.7
2026-06-14T1000,1757A,124.0437,41.8615,抚顺市,东洲区,,47,47,34,10,20,134,134,74,74,10,14,13,11,0.4,0.5
2026-06-14T1000,1758A,123.9246,41.8638,抚顺市,新抚区,,46,46,38,12,24,141,141,57,57,11,21,9,8,0.6,0.7
2026-06-14T1000,1759A,124.0972,41.8961,抚顺市,大伙房水库,,40,31,31,10,21,128,128,72,72,10,16,10,10,0.5,0.6
2026-06-14T1000,1760A,123.708,41.8386,抚顺市,沈抚新城,,38,38,40,12,24,114,114,55,55,23,34,13,11,0.7,0.8
2026-06-14T1000,2377A,116.3544,27.9833,抚州市,市站,,15,13,21,3,8,48,48,37,37,1,4,3,4,0.9,1
2026-06-14T1000,2378A,116.3562,27.9631,抚州市,血防站,,18,12,22,3,8,57,57,40,40,4,8,5,6,0.6,0.7
2026-06-14T1000,2379A,116.3561,28.0007,抚州市,采茶剧团,,19,18,20,3,8,60,60,43,43,7,9,10,9,0.6,0.7
2026-06-14T1000,2380A,116.3854,27.9648,抚州市,医学分院,,20,20,25,3,10,58,58,42,42,1,5,10,7,0.7,0.8
2026-06-14T1000,2207A,121.6095,41.9978,阜新市,工业园区,,32,25,31,22,30,93,93,75,75,13,20,9,9,0.4,0.5
2026-06-14T1000,2208A,121.6567,42.0188,阜新市,长青街,,46,46,33,32,34,85,85,69,69,14,16,14,9,0.6,0.6
2026-06-14T1000,2209A,121.6672,42.07,阜新市,农业园区,细颗粒物(PM2.5),62,45,39,41,31,98,98,81,81,12,16,17,8,0.9,0.8
2026-06-14T1000,2211A,121.6343,42.0455,阜新市,玉龙新城,细颗粒物(PM2.5),52,NA,35,36,29,86,86,61,61,14,19,16,7,0.8,0.7
2026-06-14T1000,2301A,115.8276,32.8929,阜阳市,市监测站,,40,40,31,13,17,125,125,78,78,11,16,7,6,0.4,0.4
2026-06-14T1000,2303A,115.8551,32.8606,阜阳市,开发区,,39,36,24,11,17,124,124,80,80,9,11,5,4,0.5,0.4
2026-06-14T1000,2875A,115.783962,32.889217,阜阳市,阜阳职业技术学院,,41,17,27,10,16,130,130,95,95,7,6,8,7,0.4,0.3
2026-06-14T1000,3468A,115.79,32.8614,阜阳市,市规划展馆,颗粒物(PM10),65,71,33,12,18,128,128,81,81,11,11,8,7,0.5,0.4
2026-06-14T1000,3469A,115.835101,32.918568,阜阳市,枣园社区,,39,26,28,13,18,122,122,81,81,9,11,8,7,0.5,0.4
2026-06-14T1000,2669A,102.9097,34.9841,甘南藏族自治州,州政府,,47,47,38,13,15,65,65,41,41,22,14,6,5,0.4,0.2
2026-06-14T1000,3380A,102.8915,34.9618,甘南藏族自治州,甘肃民族师范学院,颗粒物(PM10),56,58,46,25,16,65,65,44,44,28,25,3,3,0.4,0.3
2026-06-14T1000,2570A,101.96,30.048,甘孜藏族自治州,水桥子,,19,19,11,3,5,40,40,45,37,18,17,7,7,0.2,0.2
2026-06-14T1000,3065A,101.9534,29.9976,甘孜藏族自治州,州环保局,,18,18,12,6,6,53,53,49,34,16,15,5,5,0.2,0.2
2026-06-14T1000,2363A,114.9368,25.8663,赣州市,地委,,19,14,20,3,8,58,58,46,45,2,6,3,2,1.0,0.7
2026-06-14T1000,2364A,114.946,25.8483,赣州市,气象台,,16,11,22,3,12,49,49,41,39,8,10,4,3,0.5,0.2
2026-06-14T1000,2365A,114.932,25.8332,赣州市,市图书馆,,19,10,16,3,8,59,59,47,47,4,7,3,4,1.1,0.8
2026-06-14T1000,2366A,114.8905,25.8472,赣州市,华坚鞋城,,16,12,25,3,8,50,50,42,41,8,9,1,1,0.4,0.2
2026-06-14T1000,3109A,115.0094,25.8614,赣州市,赣县区卫计委,,15,6,17,3,9,46,46,39,39,6,9,2,2,0.5,0.4
2026-06-14T1000,2684A,106.2753,36.0057,固原市,监测站,,39,35,28,6,8,122,122,102,101,8,13,8,7,0.3,0.3
2026-06-14T1000,2685A,106.2384,36.0189,固原市,新区,,41,41,28,3,8,129,129,113,113,10,10,7,6,0.3,0.3
2026-06-14T1000,2544A,106.6307,30.4577,广安市,市委,,49,35,35,34,29,71,71,62,62,11,12,6,6,0.5,0.4
2026-06-14T1000,2545A,106.6266,30.4662,广安市,友谊中学,,40,31,37,28,25,72,72,66,66,10,12,8,8,0.6,0.5
2026-06-14T1000,2547A,106.6386,30.4551,广安市,广电花园,,49,38,33,34,31,72,72,57,57,10,12,8,8,0.5,0.5
2026-06-14T1000,2902A,106.6347,30.4868,广安市,北辰小学,,45,42,39,31,28,73,73,62,62,11,13,5,7,0.5,0.5
2026-06-14T1000,2524A,105.8211,32.4444,广元市,老城,细颗粒物(PM2.5),56,56,39,38,27,68,68,73,63,19,10,8,6,0.9,0.8
2026-06-14T1000,2526A,105.8629,32.429,广元市,监测站,细颗粒物(PM2.5),62,61,48,41,29,67,67,63,54,21,13,18,9,1.0,0.7
2026-06-14T1000,3617A,105.8047,32.4167,广元市,经开区,,49,47,39,34,27,64,64,79,64,23,11,6,7,0.8,0.6
2026-06-14T1000,1345A,113.2346,23.1423,广州市,广雅中学,,25,25,20,14,11,36,36,30,30,18,18,3,3,0.6,0.6
2026-06-14T1000,1346A,113.2611,23.105,广州市,市五中,,24,24,21,14,12,45,45,30,30,16,22,3,4,/,/
2026-06-14T1000,1348A,113.3477,23.0916,广州市,广东商学院,,21,21,20,12,11,42,42,16,16,15,23,5,5,0.6,0.6
2026-06-14T1000,1349A,113.4332,23.105,广州市,市八十六中,,22,22,15,12,8,34,34,16,16,18,26,7,6,/,/
2026-06-14T1000,1350A,113.3506,22.9488,广州市,番禺中学,,19,19,12,9,6,41,41,28,28,17,18,6,5,0.6,0.5
2026-06-14T1000,1351A,113.2147,23.3918,广州市,花都师范,,26,26,23,14,12,35,35,29,29,14,16,4,4,0.3,0.3
2026-06-14T1000,1352A,113.2599,23.1329,广州市,市监测站,,24,24,21,14,10,45,45,33,33,15,19,3,3,/,/
2026-06-14T1000,1353A,113.5618,23.3119,广州市,九龙镇镇龙,,24,24,20,14,10,40,40,17,17,15,23,6,6,0.5,0.5
2026-06-14T1000,1354A,113.2764,23.1544,广州市,麓湖,,23,23,18,14,10,44,44,30,30,13,17,6,6,0.6,0.6
2026-06-14T1000,2846A,113.3209,23.1323,广州市,体育西,,27,27,21,11,10,46,46,33,33,18,25,4,4,0.5,0.5
2026-06-14T1000,3298A,113.5718,23.5493,广州市,从化街口,,15,15,20,8,15,40,40,21,21,12,18,6,6,0.4,0.5
2026-06-14T1000,3299A,113.3463,23.369,广州市,白云竹料,,29,29,19,12,9,44,44,31,31,14,22,2,2,0.5,0.5
2026-06-14T1000,3300A,113.2981,23.2365,广州市,白云嘉禾,,26,26,19,13,10,44,44,30,30,15,22,10,10,/,/
2026-06-14T1000,3301A,113.4256,23.1716,广州市,黄埔科学城,,28,28,17,11,8,42,42,14,14,12,22,7,8,0.4,0.4
2026-06-14T1000,3302A,113.3942,23.0485,广州市,番禺大学城,,16,13,9,11,7,47,47,31,31,16,20,5,6,0.3,0.3
2026-06-14T1000,3303A,113.4923,22.8169,广州市,南沙黄阁,,33,32,28,23,10,36,36,28,28,24,19,7,7,/,/
2026-06-14T1000,3304A,113.534,22.7893,广州市,南沙街,,20,18,18,14,7,43,43,27,27,17,15,8,7,0.5,0.4
2026-06-14T1000,3443A,113.2905,23.5541,广州市,花都梯面,,32,32,22,14,10,33,33,18,18,14,20,10,9,/,/
2026-06-14T1000,3445A,113.786,23.7479,广州市,从化良口,,17,17,13,10,9,52,52,47,47,8,11,5,4,/,/
2026-06-14T1000,3446A,113.805,23.2614,广州市,增城荔城,,30,30,18,13,9,40,40,20,20,17,21,8,7,0.8,0.7
2026-06-14T1000,2506A,109.604387,23.066791,贵港市,江南子站,NA,NA,12,12,3,7,53,53,56,55,NA,5,6,3,NA,0.5
2026-06-14T1000,2508A,109.5669,23.1065,贵港市,荷城子站,,16,12,11,11,8,38,38,53,50,17,9,6,5,0.7,0.5
2026-06-14T1000,3405A,109.5886,23.1172,贵港市,新世纪学校,,20,NA,11,14,8,35,35,53,50,10,8,/,/,0.5,0.4
2026-06-14T1000,4260A,109.5933,23.095,贵港市,中山路155-3号,,24,24,19,11,7,40,40,56,54,14,9,/,/,0.5,0.4
2026-06-14T1000,1439A,106.6863,26.6035,贵阳市,马鞍山,,42,39,21,29,13,26,26,8,8,24,12,10,8,/,/
2026-06-14T1000,1441A,106.6241,26.6266,贵阳市,鉴湖路,,48,48,39,27,17,60,60,15,15,23,20,9,8,0.5,0.6
2026-06-14T1000,1442A,106.7468,26.6344,贵阳市,燕子冲,,44,44,36,30,17,34,34,12,12,19,16,12,8,0.9,0.7
2026-06-14T1000,1443A,106.6556,26.4362,贵阳市,碧云窝,,46,46,35,25,13,65,65,19,19,11,10,24,5,/,/
2026-06-14T1000,1445A,106.6963,26.6063,贵阳市,红边门,,46,46,32,23,18,33,33,7,7,20,19,9,5,/,/
2026-06-14T1000,1446A,106.7162383,26.56964667,贵阳市,新华路,颗粒物(PM10),53,53,40,20,15,48,48,20,20,18,23,12,9,0.7,0.5
2026-06-14T1000,1447A,106.6742,26.542,贵阳市,太慈桥,,44,44,24,29,12,40,40,8,8,27,14,7,3,/,/
2026-06-14T1000,4230A,106.688212,26.56952,贵阳市,花果园大街66号,,44,44,33,23,17,37,37,12,12,27,25,4,2,/,/
2026-06-14T1000,4231A,106.687268,26.516892,贵阳市,漓江路57号,,41,41,27,24,16,50,50,11,11,19,22,12,3,0.6,0.6
2026-06-14T1000,1864A,110.3091,25.2705,桂林市,龙隐路小学,,12,9,21,3,9,38,38,20,20,7,9,4,5,0.5,0.5
2026-06-14T1000,1865A,110.2849361,25.22909545,桂林市,八中,,19,19,20,3,6,29,29,20,20,15,13,5,6,0.8,0.9
2026-06-14T1000,3531A,110.296,25.1254,桂林市,旅游学院,,30,30,24,11,9,21,21,19,19,6,7,23,9,0.4,0.4
2026-06-14T1000,4222A,110.1835,25.2444,桂林市,环湖路276号,,24,24,12,10,11,24,24,26,25,13,8,28,18,0.5,0.4
2026-06-14T1000,4301A,110.2803,25.2773,桂林市,信义路13号,,24,24,23,7,10,21,21,17,17,14,11,9,11,0.7,0.6
2026-06-14T1000,2674A,100.2262,34.4854,果洛藏族自治州,玛沁县大武镇,,27,17,22,3,8,86,86,92,90,2,2,12,13,0.3,0.3
2026-06-14T1000,1130A,126.5557,45.8109,哈尔滨市,松北商大,,17,12,13,9,11,52,52,17,17,17,24,5,5,0.4,0.3
2026-06-14T1000,1132A,126.6162,45.719,哈尔滨市,南岗学府路,,22,20,24,3,5,70,70,29,28,22,23,6,5,0.4,0.4
2026-06-14T1000,1133A,126.6894,45.7733,哈尔滨市,太平宏伟公园,,24,24,25,3,8,43,43,18,15,30,28,6,5,0.3,0.2
2026-06-14T1000,1134A,126.6361,45.7672,哈尔滨市,道外承德广场,,33,33,32,8,8,46,46,21,21,33,26,5,4,0.5,0.4
2026-06-14T1000,1136A,126.644,45.7261,哈尔滨市,动力和平路,,24,18,20,9,5,75,75,28,27,19,22,1,3,0.3,0.2
2026-06-14T1000,1137A,126.5933,45.7479,哈尔滨市,道里建国路,,25,22,20,3,10,80,80,32,32,20,24,5,4,0.6,0.3
2026-06-14T1000,1138A,126.6127,45.6119,哈尔滨市,平房东轻厂,,17,16,24,6,9,52,52,23,23,26,32,6,5,0.7,0.5
2026-06-14T1000,1139A,126.5875,45.9827,哈尔滨市,呼兰师专,,28,28,20,9,4,54,54,25,25,15,24,6,6,0.2,0.2
2026-06-14T1000,1140A,126.6299,45.6799,哈尔滨市,省农科院,,21,21,23,3,6,64,64,28,28,22,25,5,5,0.2,0.1
2026-06-14T1000,4282A,126.6769,45.7379,哈尔滨市,华山路1号,,25,9,15,3,4,79,79,39,39,15,18,5,5,0.2,0.2
2026-06-14T1000,4283A,126.9717,45.5356,哈尔滨市,解放大街52号,,23,21,24,3,4,72,72,44,44,8,25,6,6,0.2,0.2
2026-06-14T1000,2688A,93.5124,42.8176,哈密市,地区监测站,,32,19,21,7,10,101,101,106,103,5,4,7,5,0.3,0.1
2026-06-14T1000,2689A,93.5014,42.8312,哈密市,哈密师范学校,,33,29,28,8,11,103,103,103,98,7,8,7,6,0.1,0
2026-06-14T1000,2671A,100.9016,36.9464,海北藏族自治州,海晏县西海镇,,46,24,27,8,12,147,147,113,113,2,4,10,8,0.4,0.4
2026-06-14T1000,3867A,102.074,36.5056,海东市,平安区公安局北苑,颗粒物(PM10),62,66,33,28,18,70,70,87,79,33,8,26,10,1.1,0.6
2026-06-14T1000,4163A,102.0984,36.5119,海东市,滨河路,,43,43,37,19,19,52,52,31,29,36,44,19,9,1.1,0.8
2026-06-14T1000,1410A,110.3189,20.0596,海口市,海南大学,,33,33,17,22,9,67,67,58,58,6,7,5,5,0.3,0.4
2026-06-14T1000,1411A,110.2827,20.0051,海口市,秀英海南医院,,38,NA,16,26,11,68,68,50,50,6,10,5,5,0.3,0.3
2026-06-14T1000,1412A,110.3391,19.9979,海口市,海南师范大学,,24,24,20,10,10,64,64,48,48,6,8,3,3,0.4,0.4
2026-06-14T1000,1413A,110.3303,20.0359,海口市,龙华路环保局宿舍,,22,18,17,12,9,68,68,56,56,6,7,/,/,0.0,0.2
2026-06-14T1000,3539A,110.5111,19.9737,海口市,桂林洋子站,,20,18,20,9,11,62,62,50,50,4,6,/,/,/,/
2026-06-14T1000,4134A,110.1952,20.0451,海口市,长滨二路9号,,28,28,18,13,9,60,60,48,48,8,8,/,/,/,/
2026-06-14T1000,2673A,100.6158,36.2985,海南藏族自治州,共和县恰卜恰镇,,38,27,27,14,13,120,120,103,103,7,4,8,10,0.4,0.4
2026-06-14T1000,2676A,97.373,37.376,海西蒙古族藏族自治州,德令哈市,,44,11,18,7,7,139,139,127,127,1,1,15,15,0.4,0.3
2026-06-14T1000,1049A,114.492,36.5712,邯郸市,矿院,,45,33,30,20,20,143,143,133,127,6,6,6,3,0.6,0.3
2026-06-14T1000,1050A,114.4839,36.6136,邯郸市,丛台公园,,44,44,29,22,16,134,134,132,125,6,6,6,5,0.4,0.3
2026-06-14T1000,3458A,114.7893,36.5592,邯郸市,香泉濮院小区,,41,31,26,24,16,131,131,113,109,9,10,3,3,0.1,0.1
2026-06-14T1000,3580A,114.1998,36.4439,邯郸市,峰峰矿区临水派出所,,49,44,37,32,24,156,156,142,140,14,9,14,9,0.9,0.4
2026-06-14T1000,4068A,114.5209,36.7697,邯郸市,建安街268号,,36,30,38,12,15,114,114,98,97,6,8,1,3,0.3,0.3
2026-06-14T1000,4069A,114.5488,36.6177,邯郸市,丛台东路558号,,42,40,35,16,15,132,132,120,116,6,8,4,4,0.5,0.3
2026-06-14T1000,2635A,107.0155,33.0707,汉中市,市监测站,细颗粒物(PM2.5),70,54,44,45,31,80,80,46,46,13,11,15,6,0.8,0.5
2026-06-14T1000,2636A,107.0083,33.114,汉中市,鑫源开发区,NA,NA,38,41,28,31,75,75,49,49,12,14,8,7,NA,0.7
2026-06-14T1000,2637A,107.0072,33.0323,汉中市,南郑大河坎水厂,细颗粒物(PM2.5),66,51,39,43,29,60,60,30,30,19,13,8,5,1.0,0.8
2026-06-14T1000,1223A,120.2073,30.2111,杭州市,滨江,,26,24,34,18,24,45,45,46,42,17,21,5,5,0.5,0.4
2026-06-14T1000,1224A,120.0625,30.2737,杭州市,西溪,,28,24,29,19,23,59,59,40,40,12,14,3,4,0.8,0.8
2026-06-14T1000,1226A,120.3417,30.315,杭州市,下沙,,28,NA,23,19,22,60,60,61,58,14,23,4,4,0.7,0.7
2026-06-14T1000,1227A,120.1252,30.2465,杭州市,卧龙桥,,35,25,29,24,25,54,54,35,34,8,13,9,9,0.5,0.5
2026-06-14T1000,1228A,120.1902,30.2691,杭州市,浙江农大,,29,NA,25,20,25,49,49,45,43,19,26,6,6,0.3,0.3
2026-06-14T1000,1230A,120.1195,30.3121,杭州市,和睦小学,NA,NA,NA,26,22,26,NA,NA,29,27,15,16,7,7,0.5,0.6
2026-06-14T1000,1231A,120.3076,30.4146,杭州市,临平镇,,33,27,33,23,22,60,60,68,62,12,18,6,6,0.4,0.4
2026-06-14T1000,1232A,120.2753,30.1839,杭州市,城厢镇,,29,22,28,20,21,54,54,50,49,17,21,5,5,0.6,0.5
2026-06-14T1000,1233A,120.0883,30.1808,杭州市,云栖,,29,22,30,20,22,48,48,29,28,11,18,8,8,0.7,0.6
2026-06-14T1000,3557A,119.9463,30.0496,杭州市,镇二中,,20,14,23,14,21,45,45,33,33,20,24,5,5,0.6,0.6
2026-06-14T1000,3558A,119.7184,30.2367,杭州市,市府大楼,,22,12,18,10,17,70,70,44,44,7,10,7,7,0.6,0.6
2026-06-14T1000,3656A,120.1554,30.2863,杭州市,消防大队,,32,24,31,22,25,51,51,50,47,12,18,7,6,0.5,0.4
2026-06-14T1000,1270A,117.1957,31.7845,合肥市,明珠广场,,31,22,20,14,14,99,99,72,72,9,9,8,8,0.5,0.5
2026-06-14T1000,1271A,117.307,31.8765,合肥市,三里街,,29,19,22,11,13,92,92,70,70,9,14,8,9,0.5,0.5
2026-06-14T1000,1272A,117.2587,31.8703,合肥市,琥珀山庄,,30,19,21,9,12,94,94,79,79,5,7,7,7,0.7,0.7
2026-06-14T1000,1275A,117.2593,31.9376,合肥市,庐阳区,,31,17,21,11,14,99,99,70,70,10,17,7,8,0.6,0.6
2026-06-14T1000,1276A,117.345251,31.861615,合肥市,瑶海区,,31,22,22,10,12,98,98,74,74,7,14,8,9,0.6,0.6
2026-06-14T1000,1277A,117.3033,31.7967,合肥市,包河区,,30,14,23,8,11,94,94,48,48,11,19,9,9,0.4,0.5
2026-06-14T1000,1278A,117.278,31.7392,合肥市,滨湖新区,,30,19,19,9,12,95,95,71,71,12,11,10,11,0.4,0.4
2026-06-14T1000,1279A,117.1324,31.8395,合肥市,高新区,,35,34,25,14,13,109,109,76,76,9,11,8,7,0.4,0.4
2026-06-14T1000,3464A,117.3802,31.9148,合肥市,高教基地,,31,19,22,16,11,97,97,63,63,6,11,5,5,0.5,0.4
2026-06-14T1000,4098A,117.2518,31.8404,合肥市,中国科学技术大学,,32,17,17,7,11,102,102,81,81,7,9,9,9,0.4,0.5
2026-06-14T1000,3614A,79.9241,37.0878,和田地区,地区环保局,NA,NA,22,203,NA,NA,109,109,104,104,2,3,5,6,0.2,0.2
2026-06-14T1000,3615A,79.9132,37.1137,和田地区,市环保局,,35,21,185,13,49,112,112,108,108,2,2,1,2,0.3,0.3
2026-06-14T1000,2517A,108.0496,24.6957,河池市,市环保站,,16,11,19,11,13,44,44,38,36,6,8,5,6,0.8,0.8
2026-06-14T1000,4302A,108.0901,24.6945,河池市,上任中路54号,,20,20,24,14,13,22,22,35,30,17,10,3,5,0.8,0.7
2026-06-14T1000,1697A,114.6962,23.7538,河源市,东埔,,18,12,13,12,11,35,35,24,24,11,12,5,4,0.7,0.7
2026-06-14T1000,1698A,114.6895,23.7232,河源市,老城,,20,NA,19,14,15,32,32,22,22,13,16,6,6,0.9,0.8
2026-06-14T1000,3374A,115.5562,35.089,菏泽市,定陶老年大学,,42,31,38,14,14,133,133,89,89,10,15,4,4,0.4,0.4
2026-06-14T1000,4114A,115.4239,35.2593,菏泽市,黄河路600号,,48,48,44,20,17,125,125,79,79,6,8,6,5,0.3,0.3
2026-06-14T1000,4115A,115.5025,35.2727,菏泽市,菏泽市人社局,,39,28,35,14,22,122,122,81,81,11,13,8,7,0.2,0.2
2026-06-14T1000,4184A,115.479691,35.244011,菏泽市,永昌路1号,,42,35,39,13,16,134,134,86,86,7,10,8,6,0.1,0
2026-06-14T1000,4193A,115.471542,35.280012,菏泽市,长城路999号,,39,35,40,21,21,124,124,81,81,8,10,10,9,0.3,0.3
2026-06-14T1000,2514A,111.5264,24.4178,贺州市,环保小区,,13,9,18,3,9,40,40,37,37,12,10,8,8,0.4,0.4
2026-06-14T1000,2515A,111.561,24.4074,贺州市,政协大楼,,12,NA,13,3,10,37,37,39,39,23,13,13,12,0.6,0.6
2026-06-14T1000,3534A,111.4744,24.455,贺州市,西湾,NA,NA,9,23,3,11,28,28,30,29,17,13,NA,10,0.4,0.4
2026-06-14T1000,2385A,114.17,35.9019,鹤壁市,市监测站,颗粒物(PM10),58,61,53,32,29,138,138,116,116,10,10,10,5,0.7,0.6
2026-06-14T1000,2386A,114.2953,35.7512,鹤壁市,市交警支队,颗粒物(PM10),52,52,55,28,25,125,125,104,104,12,13,4,6,0.4,0.5
2026-06-14T1000,2387A,114.2877,35.7302,鹤壁市,迎宾馆,颗粒物(PM10),53,54,53,19,24,128,128,108,108,9,12,6,8,0.7,0.5
2026-06-14T1000,3474A,114.2616,35.6824,鹤壁市,大新区,颗粒物(PM10),54,55,49,32,26,132,132,112,112,12,16,6,5,0.5,0.4
2026-06-14T1000,3596A,114.1573,35.9607,鹤壁市,南山宾馆,细颗粒物(PM2.5),98,62,51,59,41,132,132,117,117,9,9,9,9,0.8,0.6
2026-06-14T1000,2244A,130.2537,47.3416,鹤岗市,哈啤分公司,,19,13,16,3,5,60,60,52,52,2,4,4,5,0.1,0.1
2026-06-14T1000,2245A,130.2683,47.3087,鹤岗市,斯达机电,,20,9,22,3,5,63,63,51,51,3,5,4,4,0.2,0.2
2026-06-14T1000,2246A,130.3114,47.3388,鹤岗市,东山纸板厂,,21,21,44,6,9,55,55,37,37,4,9,4,5,0.5,0.6
2026-06-14T1000,2263A,127.4832,50.2524,黑河市,交通局,,26,26,20,9,6,48,48,34,34,21,8,21,5,0.2,0.2
2026-06-14T1000,2264A,127.5146,50.2339,黑河市,环保局,,25,25,26,3,9,55,55,37,37,6,6,6,7,0.2,0.2
2026-06-14T1000,1074A,115.6839,37.754,衡水市,电机北厂,,45,37,53,24,22,141,141,106,106,11,11,2,3,0.4,0.4
2026-06-14T1000,1075A,115.6303,37.7318,衡水市,市监测站,,48,36,49,17,17,151,151,101,101,6,14,5,4,0.7,0.7
2026-06-14T1000,3188A,115.6684,37.7216,衡水市,市城管局,,45,38,57,15,22,144,144,102,102,8,11,6,4,0.4,0.3
2026-06-14T1000,3459A,115.599,37.5491,衡水市,地表水厂,,47,30,52,11,20,148,148,79,79,11,19,7,8,0.2,0.3
2026-06-14T1000,2457A,112.6209,26.9268,衡阳市,衡阳化工总厂,NA,NA,27,15,10,8,70,70,42,42,7,10,8,4,NA,0.8
2026-06-14T1000,2458A,112.621,26.8957,衡阳市,珠晖区环保局,,23,16,13,7,7,72,72,51,51,10,12,6,5,0.7,0.8
2026-06-14T1000,2459A,112.628,26.8654,衡阳市,市委党校,,24,24,13,8,8,76,76,50,50,3,9,9,8,0.6,0.9
2026-06-14T1000,2460A,112.6007,26.8977,衡阳市,市监测站,,26,16,15,3,9,81,81,55,55,7,11,7,7,0.7,0.8
2026-06-14T1000,2461A,112.5658,26.9013,衡阳市,真空机电公司,,26,14,13,9,9,82,82,53,53,4,8,7,6,0.7,0.8
2026-06-14T1000,3399A,112.6703,26.8817,衡阳市,师范学院,,22,21,15,15,10,70,70,52,52,6,8,8,8,0.6,0.6
2026-06-14T1000,3038A,103.3757,23.3679,红河哈尼族彝族自治州,州图书馆,,26,20,10,18,7,34,34,27,25,8,5,38,10,0.4,0.3
2026-06-14T1000,4154A,103.401,23.3561,红河哈尼族彝族自治州,蒙自市朝阳路,,13,10,11,9,5,40,40,28,27,6,4,15,7,0.3,0.3
2026-06-14T1000,1090A,111.6506,40.7517,呼和浩特市,呼市一监,,28,19,16,3,7,88,88,63,63,10,10,8,8,0.4,0.3
2026-06-14T1000,1094A,111.7516,40.8369,呼和浩特市,如意水处理厂,,30,10,16,3,9,95,95,57,57,5,11,7,8,0.5,0.5
2026-06-14T1000,1095A,111.727798,40.806187,呼和浩特市,二十九中,,26,22,18,12,13,82,82,56,56,10,11,9,10,0.6,0.4
2026-06-14T1000,1097A,111.717,40.7617,呼和浩特市,化肥厂生活区,,26,13,17,3,12,81,81,58,58,9,13,9,10,0.5,0.4
2026-06-14T1000,3699A,111.6519,40.8389,呼和浩特市,海东办,,25,14,14,3,4,80,80,53,53,10,13,5,6,0.4,0.4
2026-06-14T1000,4275A,111.591512,40.827312,呼和浩特市,成吉思汗西街8号,,25,19,20,3,6,78,78,54,54,15,20,4,6,0.3,0.2
2026-06-14T1000,4276A,111.6597,40.8077,呼和浩特市,公园东路75号,,30,17,16,3,6,95,95,73,73,12,13,9,10,0.5,0.4
2026-06-14T1000,4277A,111.5427,40.7846,呼和浩特市,金海路35号,,28,28,24,3,8,66,66,54,53,20,16,8,6,0.3,0.3
2026-06-14T1000,3061A,119.7511,49.1576,呼伦贝尔市,国华电力东,,25,21,32,8,12,80,80,62,62,4,7,4,4,0.3,0.3
2026-06-14T1000,4279A,119.7569,49.2222,呼伦贝尔市,伊敏大街东7号,,33,33,30,7,14,71,71,56,56,8,10,4,6,0.4,0.4
2026-06-14T1000,1250A,120.075,30.867,湖州市,城西水厂,,26,23,32,18,24,62,62,76,69,24,17,5,5,0.6,0.5
2026-06-14T1000,2873A,120.083,30.8929,湖州市,仁皇山新区,,23,19,29,16,21,63,63,70,63,19,18,5,5,0.5,0.5
2026-06-14T1000,2907A,120.1846,30.8592,湖州市,吴兴区站,,23,NA,23,16,22,73,73,69,67,5,10,5,6,0.6,0.6
2026-06-14T1000,3562A,120.4146,30.8538,湖州市,南浔区站,,25,NA,29,14,19,78,78,73,71,6,13,6,7,0.5,0.5
2026-06-14T1000,1607A,120.904878,40.721091,葫芦岛市,龙港区,,36,24,27,22,24,115,115,103,103,7,8,9,9,0.5,0.5
2026-06-14T1000,1608A,120.8382,40.7521,葫芦岛市,化工街,NA,NA,NA,27,NA,23,NA,NA,90,90,10,12,7,9,NA,0.3
2026-06-14T1000,1609A,120.8339,40.7078,葫芦岛市,新区,,34,27,30,23,23,106,106,95,95,7,7,5,4,0.5,0.5
2026-06-14T1000,1610A,120.8697,40.7679,葫芦岛市,东城区,,43,30,30,30,29,105,105,90,90,9,11,6,7,0.5,0.5
2026-06-14T1000,2483A,109.9297,27.5383,怀化市,河西地税局,,15,15,11,8,7,31,31,18,18,3,5,1,2,/,/
2026-06-14T1000,2484A,109.9783,27.5342,怀化市,市四医院,,19,16,12,13,10,33,33,20,20,5,8,6,5,0.4,0.4
2026-06-14T1000,2485A,109.9971,27.5579,怀化市,监测楼,,19,19,15,13,11,37,37,26,26,7,8,6,7,0.5,0.5
2026-06-14T1000,1210A,119.0566,33.5991,淮安市,钵池山,,28,22,32,18,19,88,88,83,83,10,12,5,7,0.8,0.8
2026-06-14T1000,1211A,119.0083,33.578,淮安市,北京南路,,33,22,35,16,17,104,104,98,98,7,11,6,8,0.7,0.7
2026-06-14T1000,1212A,118.9938,33.6083,淮安市,市监测站,,35,NA,25,15,18,112,112,104,104,12,14,6,7,0.7,0.7
2026-06-14T1000,1213A,119.135,33.5038,淮安市,楚州区监测站,,33,12,35,12,20,103,103,90,90,11,17,6,7,0.4,0.4
2026-06-14T1000,3426A,118.8757,33.2897,淮安市,新华书店,,32,22,34,10,18,101,101,80,80,10,15,7,9,0.7,0.7
2026-06-14T1000,4092A,119.119691,33.550006,淮安市,枚皋中路89号,,33,21,34,11,20,105,105,96,96,10,13,7,9,0.8,0.8
2026-06-14T1000,4206A,119.028838,33.631911,淮安市,承德北路606号,,28,22,37,16,19,89,89,84,84,9,12,6,8,0.6,0.7
2026-06-14T1000,2282A,116.8005,33.9749,淮北市,监测站,,41,32,38,25,21,129,129,101,101,9,10,8,7,0.4,0.3
2026-06-14T1000,2283A,116.8094,33.9008,淮北市,烈山区政府,,48,41,45,33,19,131,131,90,90,12,13,7,5,0.5,0.5
2026-06-14T1000,4017A,116.7926,33.9534,淮北市,市博物馆,,43,34,38,22,20,136,136,100,100,4,5,6,5,0.7,0.6
2026-06-14T1000,4100A,116.8322,33.9884,淮北市,杜集区第一实验学校,,42,42,46,14,16,132,132,93,93,6,8,7,5,0.6,0.5
2026-06-14T1000,2277A,116.8304,32.7726,淮南市,潘集区政府,,37,26,32,12,21,118,118,77,77,12,13,10,8,0.4,0.4
2026-06-14T1000,2279A,116.8569,32.5949,淮南市,谢家集区政府,,40,NA,22,28,19,120,120,87,87,13,14,9,8,0.5,0.3
2026-06-14T1000,2280A,116.8279,32.6333,淮南市,八公山区政府,,42,41,31,29,18,126,126,85,85,10,10,10,7,0.4,0.2
2026-06-14T1000,2894A,117.0561,32.6536,淮南市,经济技术开发区消防队,,38,29,32,20,23,119,119,79,79,9,12,10,8,0.4,0.4
2026-06-14T1000,3329A,117.011,32.5891,淮南市,山南新区,,49,NA,29,34,22,122,122,89,89,9,9,12,10,0.5,0.3
2026-06-14T1000,4209A,117.003137,32.644456,淮南市,国庆中路369号,,35,27,32,23,19,110,110,82,82,12,12,10,8,0.4,0.2
2026-06-14T1000,2446A,114.9021,30.474,黄冈市,职工中心,,24,18,19,10,9,76,76,51,51,3,4,7,7,0.7,0.7
2026-06-14T1000,2929A,114.8858,30.4519,黄冈市,红卫路,,26,20,21,10,13,82,82,57,57,4,5,5,5,0.6,0.6
2026-06-14T1000,3398A,114.9134,30.4446,黄冈市,市林业局,,28,17,20,8,12,87,87,57,57,5,8,5,4,0.4,0.4
2026-06-14T1000,2672A,102.02,35.5101,黄南藏族自治州,同仁县隆务镇,,38,38,28,18,13,84,84,106,99,9,2,10,10,0.3,0.2
2026-06-14T1000,2295A,118.2905,29.6965,黄山市,延安路89号,,19,6,20,3,12,60,60,42,42,3,7,5,5,0.3,0.4
2026-06-14T1000,2297A,118.1369,30.2755,黄山市,黄山区政府5号楼,,18,11,18,3,6,56,56,30,30,5,4,3,3,0.4,0.4
2026-06-14T1000,4210A,118.335445,29.720283,黄山市,滨江东路7-2号,,19,15,23,3,8,59,59,40,40,3,6,/,/,/,/
2026-06-14T1000,2423A,115.0547,30.2332,黄石市,沈家营,,45,45,36,17,16,69,69,37,37,15,10,8,5,0.3,0.4
2026-06-14T1000,2426A,114.899,30.211,黄石市,铁山,,32,24,22,22,14,87,87,40,40,2,11,8,6,0.5,0.4
2026-06-14T1000,2427A,115.0259,30.2108,黄石市,团城山,,42,42,31,22,16,66,66,41,41,13,8,4,4,0.5,0.5
2026-06-14T1000,3149A,115.0174,30.1591,黄石市,笔架山北路,,40,40,39,15,13,93,93,57,57,3,6,2,4,0.4,0.4
2026-06-14T1000,4185A,115.078022,30.21118,黄石市,磁湖东路29号,,38,38,34,21,17,70,70,46,46,21,16,10,5,0.2,0.4
2026-06-14T1000,1392A,114.4181,23.0528,惠州市,河南岸金山湖子站,,21,21,16,13,9,45,45,38,38,13,14,7,6,0.6,0.6
2026-06-14T1000,1393A,114.4055,23.0824,惠州市,下埔横江三路子站,,26,26,19,13,10,46,46,30,30,11,14,4,3,0.8,0.8
2026-06-14T1000,1395A,114.4645,22.7832,惠州市,惠阳区承修路船湖子站,,15,NA,12,3,8,48,48,35,35,11,12,5,4,0.7,0.7
2026-06-14T1000,1396A,114.5316,22.7423,惠州市,大亚湾管委会子站,,15,13,19,7,9,45,45,22,22,13,18,4,5,0.5,0.5
2026-06-14T1000,3314A,114.4334,22.8134,惠州市,惠阳秋长,,17,7,17,3,7,53,53,30,30,9,17,/,/,/,/
2026-06-14T1000,3452A,114.6521,22.7755,惠州市,大亚湾霞涌,,15,11,14,3,6,48,48,44,44,12,9,/,/,/,/
2026-06-14T1000,4300A,114.4089,23.1147,惠州市,文华一路1号,NA,NA,20,17,12,10,NA,NA,12,NA,11,17,/,/,/,/
2026-06-14T1000,2240A,130.9618,45.2926,鸡西市,环保局,,30,NA,19,21,14,36,36,44,39,18,11,10,9,0.4,0.3
2026-06-14T1000,2243A,130.9294,45.2959,鸡西市,第一中学,,18,18,20,11,12,38,38,38,32,14,12,9,8,0.3,0.3
2026-06-14T1000,3707A,131.0069,45.2988,鸡西市,欧美日汽修厂,,26,23,20,18,12,31,31,39,35,21,11,9,8,0.5,0.3
2026-06-14T1000,2367A,114.9753,27.0803,吉安市,红声器材厂,,25,25,28,3,11,52,52,41,40,11,16,8,8,0.5,0.5
2026-06-14T1000,2369A,114.9903,27.1313,吉安市,市环境监测站,,20,20,27,3,13,48,48,37,36,8,11,11,12,/,/
2026-06-14T1000,2370A,115.009527,27.096792,吉安市,青原区法院,,17,16,31,3,15,54,54,42,42,11,14,8,9,0.5,0.5
2026-06-14T1000,1772A,126.54,43.8622,吉林市,哈达湾,,32,32,58,14,34,80,80,39,39,16,51,8,11,0.4,0.5
2026-06-14T1000,1773A,126.5843,43.8358,吉林市,东局子,,50,36,55,35,50,71,71,33,33,12,39,4,5,0.6,0.7
2026-06-14T1000,1774A,126.5051,43.8243,吉林市,电力学院,,37,32,67,19,31,116,116,44,44,23,43,6,8,0.8,0.8
2026-06-14T1000,1775A,126.6133,43.8971,吉林市,江北,,27,23,60,15,58,85,85,38,38,8,41,6,8,0.5,0.6
2026-06-14T1000,1776A,126.5549,43.8304,吉林市,江南公园,,38,38,60,21,36,88,88,37,37,16,44,6,8,0.3,0.4
2026-06-14T1000,2868A,126.4737,43.953,吉林市,九站,,35,29,61,14,35,111,111,33,33,7,56,3,17,0.4,0.5
2026-06-14T1000,1299A,116.9866,36.6118,济南市,科干所,,47,31,33,23,18,148,148,110,110,11,12,5,5,0.5,0.5
2026-06-14T1000,1300A,116.9379,36.6652,济南市,农科所,,45,37,37,18,18,142,142,101,101,9,12,4,4,0.2,0.2
2026-06-14T1000,1301A,117.1265,36.6736,济南市,开发区,,42,39,39,15,18,132,132,97,97,9,10,6,6,0.5,0.4
2026-06-14T1000,1303A,117.0616,36.6865,济南市,省种子仓库,颗粒物(PM10),55,56,44,14,19,149,149,108,108,11,12,6,5,0.4,0.3
2026-06-14T1000,1304A,116.9495185,36.644937,济南市,机床二厂,,43,39,41,16,18,135,135,106,106,10,12,7,6,0.5,0.4
2026-06-14T1000,1305A,117.0496,36.6629,济南市,市监测站,NA,NA,NA,39,NA,18,NA,NA,157,101,NA,11,NA,4,NA,0.2
2026-06-14T1000,1306A,116.7674,36.5458,济南市,长清党校,,42,37,41,6,16,133,133,97,96,9,13,6,5,0.3,0.2
2026-06-14T1000,1961A,117.5323,36.6865,济南市,东山小学,颗粒物(PM10),51,51,52,16,20,147,147,102,102,12,17,8,4,0.4,0.3
2026-06-14T1000,3059A,117.7181,36.205,济南市,泰兴公司,,48,48,47,25,19,140,140,101,100,9,16,15,14,0.3,0.3
2026-06-14T1000,3064A,117.6861,36.2172,济南市,莱芜战役纪念馆,颗粒物(PM10),51,51,44,24,19,144,144,114,112,9,13,11,10,0.3,0.2
2026-06-14T1000,3494A,117.1673,36.9782,济南市,济阳区政府,颗粒物(PM10),57,59,55,26,25,128,128,88,88,12,17,10,8,0.4,0.3
2026-06-14T1000,3495A,117.1168,36.6299,济南市,锦屏中学,,34,32,38,12,17,106,106,72,72,6,8,8,8,0.4,0.5
2026-06-14T1000,4108A,117.7107,36.2385,济南市,山财大街5号,NA,NA,NA,44,27,19,NA,NA,115,106,NA,12,NA,8,NA,0.4
2026-06-14T1000,4109A,116.9744,36.6889,济南市,无影山路12号,,45,34,35,17,18,143,143,104,104,11,13,5,3,0.6,0.6
2026-06-14T1000,1653A,116.6229,35.4288,济宁市,火炬城,,37,33,39,7,12,118,118,94,94,10,13,7,6,0.5,0.5
2026-06-14T1000,3500A,116.5808,35.3703,济宁市,北湖一中,,43,36,42,23,17,135,135,100,100,9,11,7,5,0.4,0.3
2026-06-14T1000,3501A,116.8251,35.5592,济宁市,服务中心,颗粒物(PM10),51,51,43,22,17,141,141,103,103,10,10,5,3,0.4,0.3
2026-06-14T1000,3678A,116.5907,35.4054,济宁市,市第七中学,,45,45,44,16,15,136,136,105,105,6,8,8,6,0.3,0.2
2026-06-14T1000,4111A,116.6075,35.4566,济宁市,任和路,,42,40,40,15,16,133,133,105,105,4,6,4,4,0.5,0.4
2026-06-14T1000,4112A,116.5648,35.3921,济宁市,文体南路1号,,42,40,43,17,12,132,132,99,99,14,16,7,5,0.2,0.2
2026-06-14T1000,4122A,112.6071,35.1015,济源市,市委党校,颗粒物(PM10),71,79,50,24,19,110,110,65,65,16,16,23,12,0.8,0.5
2026-06-14T1000,4123A,112.596,35.0702,济源市,沁园中路1号,颗粒物(PM10),54,55,42,30,23,121,121,74,74,14,22,14,8,0.7,0.8
2026-06-14T1000,2255A,130.2749,46.8028,佳木斯市,佳纺,,19,8,18,8,10,60,60,33,33,4,14,2,2,0.1,0.1
2026-06-14T1000,2257A,130.3258,46.7975,佳木斯市,环保局,,20,20,19,3,9,57,57,29,29,7,14,4,4,0.6,0.3
2026-06-14T1000,4285A,130.363,46.806,佳木斯市,顺和街,,19,11,15,3,7,60,60,42,42,5,9,1,1,0.1,0.1
2026-06-14T1000,4286A,130.3952,46.8268,佳木斯市,长安路196号,,24,24,25,7,14,58,58,39,39,11,17,5,5,0.1,0.1
2026-06-14T1000,1252A,120.7439,30.778,嘉兴市,清河小学,,26,8,17,3,7,82,82,87,86,7,9,5,5,0.8,0.7
2026-06-14T1000,1253A,120.7261,30.7477,嘉兴市,嘉兴学院,,27,16,22,3,11,85,85,88,86,16,14,4,4,0.4,0.4
2026-06-14T1000,2872A,120.7845,30.7524,嘉兴市,南湖区残联,,31,NA,11,3,7,97,97,100,100,6,8,6,6,0.6,0.5
2026-06-14T1000,3407A,120.6915,30.7741,嘉兴市,秀洲住建,,26,7,14,6,9,82,82,85,83,11,13,6,7,0.5,0.4
2026-06-14T1000,1945A,98.291,39.7705,嘉峪关市,气象局,,35,34,37,10,13,109,109,103,103,14,12,32,10,0.8,0.4
2026-06-14T1000,2884A,98.2672,39.7978,嘉峪关市,酒钢宾馆,,41,41,36,16,17,116,116,101,101,5,12,19,18,0.5,0.7
2026-06-14T1000,3248A,98.2644,39.7723,嘉峪关市,雄关区,,35,35,32,10,13,111,111,99,99,10,10,26,11,0.5,0.5
2026-06-14T1000,1383A,113.1063,22.6058,江门市,北街,,31,31,20,13,8,44,44,30,30,5,6,/,/,/,/
2026-06-14T1000,1384A,113.073,22.5835,江门市,西区,,28,28,20,11,8,50,50,41,41,9,13,/,/,/,/
2026-06-14T1000,1385A,113.0218,22.531,江门市,圭峰西,,34,34,23,11,9,54,54,43,43,6,8,/,/,/,/
2026-06-14T1000,1386A,113.0826,22.5947,江门市,东湖,,24,24,18,12,9,51,51,41,41,9,12,7,6,0.4,0.4
2026-06-14T1000,3311A,113.1077,22.5647,江门市,江海富民,,47,47,37,15,9,48,48,34,34,12,14,/,/,0.4,0.4
2026-06-14T1000,3449A,113.0496,22.4669,江门市,新会银湖,,19,NA,21,13,8,49,49,30,30,17,15,1,1,0.6,0.5
2026-06-14T1000,3335A,113.3137,35.2643,焦作市,马村街道办,,40,NA,63,27,20,127,127,100,100,9,11,8,9,0.6,0.5
2026-06-14T1000,3336A,113.2464,35.2374,焦作市,焦作技师学院,颗粒物(PM10),52,52,37,26,21,120,120,96,96,10,11,10,9,0.6,0.5
2026-06-14T1000,3477A,113.1656,35.2536,焦作市,中站许衡医院,,39,NA,41,22,19,123,123,107,107,7,8,9,9,0.5,0.4
2026-06-14T1000,3981A,113.2456,35.18,焦作市,原李万街道办,,48,40,44,33,20,123,123,97,97,10,10,16,11,0.6,0.5
2026-06-14T1000,4264A,113.234,35.219,焦作市,新安路1731号,,43,41,43,30,19,132,132,108,108,8,9,11,11,0.9,0.8
2026-06-14T1000,4295A,113.2722,35.2121,焦作市,人民路3066号,,48,NA,43,33,23,118,118,94,94,16,14,8,6,0.7,0.5
2026-06-14T1000,1708A,116.3701,23.5345,揭阳市,新兴,,26,26,28,7,14,25,25,27,25,20,16,6,7,0.4,0.5
2026-06-14T1000,1709A,116.3261,23.5442,揭阳市,西马,,35,35,28,10,14,26,26,29,26,21,14,6,6,0.6,0.6
2026-06-14T1000,1710A,116.361,23.5627,揭阳市,东兴,,32,32,28,15,19,20,20,21,18,23,18,3,4,/,/
2026-06-14T1000,1711A,116.4151,23.5295,揭阳市,渔湖,,27,27,31,3,16,28,28,15,15,13,16,4,4,/,/
2026-06-14T1000,3320A,116.4028,23.5699,揭阳市,曲溪,,28,28,26,7,20,26,26,15,14,10,13,2,2,0.6,0.8
2026-06-14T1000,1944A,102.1691,38.5166,金昌市,天庆家园,颗粒物(PM10),56,58,49,15,17,99,99,74,74,15,14,4,12,0.3,0.3
2026-06-14T1000,4022A,102.1648,38.5369,金昌市,金川区人防中心,,39,39,42,18,16,101,101,83,83,10,14,6,10,0.3,0.4
2026-06-14T1000,4239A,102.193042,38.531887,金昌市,长春路96号,,44,44,40,12,16,102,102,89,89,5,6,5,7,0.1,0.2
2026-06-14T1000,1262A,119.6478,29.0773,金华市,十五中,NA,NA,NA,25,NA,17,NA,NA,40,38,NA,22,NA,2,0.9,0.6
2026-06-14T1000,1263A,119.6859,29.1032,金华市,监测站,,19,11,23,7,14,59,59,36,36,13,29,4,4,0.6,0.6
2026-06-14T1000,3659A,119.656,29.1132,金华市,气象局,,19,15,24,12,16,58,58,35,35,11,29,2,3,0.5,0.4
2026-06-14T1000,1767A,121.1114,41.0879,锦州市,南山,,40,NA,26,28,27,54,54,81,75,16,12,5,4,0.4,0.4
2026-06-14T1000,1768A,121.060361,40.842794,锦州市,开发区,,46,NA,33,32,28,123,123,109,109,6,10,6,6,0.4,0.5
2026-06-14T1000,1769A,121.1836,41.1118,锦州市,百股街道,,42,NA,26,29,30,64,64,81,71,18,14,7,5,0.4,0.5
2026-06-14T1000,1770A,121.1176,41.1224,锦州市,天安街道,,39,NA,31,27,29,63,63,95,88,20,15,6,5,0.4,0.4
2026-06-14T1000,1771A,121.1303,41.1385,锦州市,北湖公园,,45,45,31,28,27,57,57,85,78,21,12,5,4,0.4,0.4
2026-06-14T1000,2160A,112.8496,35.5051,晋城市,自来水公司,颗粒物(PM10),75,84,47,18,11,142,142,78,78,15,14,11,6,1.3,0.5
2026-06-14T1000,2162A,112.8509,35.4886,晋城市,市环保局,,46,46,43,7,11,140,140,79,79,15,14,11,6,1.2,0.4
2026-06-14T1000,3620A,112.8258,35.4804,晋城市,泽州一中,颗粒物(PM10),57,59,40,20,12,141,141,85,85,21,18,8,6,1.1,0.5
2026-06-14T1000,4078A,112.8246,35.5152,晋城市,前书院路,颗粒物(PM10),63,67,39,24,15,126,126,79,79,20,15,15,8,1.6,0.4
2026-06-14T1000,4079A,112.8864,35.4773,晋城市,祥云街666号,颗粒物(PM10),54,55,33,12,17,137,137,86,86,17,14,11,7,1.1,0.5
2026-06-14T1000,2174A,112.6992,37.6984,晋中市,榆次区政府,颗粒物(PM10),55,56,44,30,26,111,111,112,103,21,14,14,9,1.2,0.8
2026-06-14T1000,2865A,112.7195,37.683,晋中市,榆次三中,颗粒物(PM10),53,53,43,23,27,127,127,114,108,16,11,11,9,0.8,0.6
2026-06-14T1000,4080A,112.7375,37.7215,晋中市,广安街188号,颗粒物(PM10),52,52,44,19,24,101,101,105,96,21,15,19,9,0.9,0.4
2026-06-14T1000,4200A,112.7478,37.6954,晋中市,迎宾街26号,颗粒物(PM10),56,58,43,25,24,116,116,103,97,20,14,10,7,0.7,0.4
2026-06-14T1000,2439A,112.2012,31.048,荆门市,竹园小学,颗粒物(PM10),53,53,41,27,25,91,91,64,64,10,12,4,5,0.7,0.7
2026-06-14T1000,2440A,112.1968,30.9892,荆门市,掇刀,,35,33,33,24,26,86,86,61,61,8,11,7,9,0.7,0.6
2026-06-14T1000,3012A,112.1849,31.0361,荆门市,西山林语,,39,35,33,27,24,85,85,52,52,8,9,8,8,0.5,0.5
2026-06-14T1000,3547A,112.1631,31.0134,荆门市,龙泉中学南校,,35,30,32,24,22,108,108,75,75,4,4,6,7,0.5,0.6
2026-06-14T1000,4124A,112.2213,31.0654,荆门市,新台西路6号,,40,37,38,28,28,96,96,56,56,7,12,3,3,0.5,0.5
2026-06-14T1000,1844A,112.2493,30.3198,荆州市,市图书馆,,35,33,29,24,22,97,97,61,61,8,13,6,6,0.4,0.4
2026-06-14T1000,1845A,112.2009,30.3543,荆州市,市委党校,,39,30,29,27,22,76,76,49,49,10,14,10,9,0.5,0.5
2026-06-14T1000,3194A,112.2749,30.3124,荆州市,管委会,,39,35,33,27,23,88,88,56,56,4,9,9,9,0.4,0.5
2026-06-14T1000,4268A,112.1722,30.3366,荆州市,学苑路85号,NA,NA,NA,23,NA,23,NA,NA,142,40,NA,12,NA,7,NA,0.2
2026-06-14T1000,2343A,117.2114,29.2931,景德镇市,老干部活动中心,,15,8,9,3,8,46,46,32,32,4,8,5,4,0.5,0.5
2026-06-14T1000,2344A,117.1893,29.2789,景德镇市,兽医站,,16,11,20,3,7,49,49,38,37,4,6,4,4,0.6,0.5
2026-06-14T1000,2346A,117.246,29.2958,景德镇市,陶研所,,14,10,9,3,5,44,44,30,30,3,4,3,3,0.6,0.6
2026-06-14T1000,4289A,117.154766,29.256967,景德镇市,青少年活动中心,,13,6,10,3,6,41,41,33,32,4,7,4,4,/,/
2026-06-14T1000,1803A,115.9873,29.6816,九江市,十里,,31,11,21,3,16,97,97,69,69,10,16,1,2,0.8,0.8
2026-06-14T1000,1804A,115.9583,29.7047,九江市,茅山头,,33,21,16,9,18,104,104,87,87,13,15,4,3,0.5,0.5
2026-06-14T1000,1805A,115.9877,29.7295,九江市,西园,,27,14,13,8,17,85,85,70,70,22,20,4,5,0.6,0.6
2026-06-14T1000,1808A,115.9112,29.6038,九江市,综合工业园,,28,11,14,3,13,87,87,52,52,18,33,2,3,0.5,0.6
2026-06-14T1000,3190A,116.0254,29.6995,九江市,外国语学校,,27,22,19,3,17,85,85,65,65,10,14,7,8,0.6,0.6
2026-06-14T1000,4253A,116.010205,29.659402,九江市,莲花大道8号,,27,18,13,8,11,84,84,50,50,8,7,3,4,0.6,0.5
2026-06-14T1000,4240A,98.495752,39.733935,酒泉市,玉门东路5号,,41,41,32,15,16,107,107,90,90,7,11,6,7,0.1,0.2
2026-06-14T1000,4241A,98.5099,39.7506,酒泉市,北大街108号,,46,46,36,12,14,107,107,93,93,5,10,9,11,0.2,0.2
2026-06-14T1000,2698A,76.0071,39.466,喀什地区,巡警大队,,44,44,52,12,17,84,84,98,93,18,14,6,5,0.4,0.3
2026-06-14T1000,2699A,75.9756,39.4693,喀什地区,吾办,,41,41,41,9,14,91,91,95,94,6,8,8,6,0.5,0.5
2026-06-14T1000,4027A,75.9485,39.4688,喀什地区,老干局,,42,42,53,3,8,87,87,97,94,7,7,3,3,0.4,0.4
2026-06-14T1000,1824A,114.3389,34.778,开封市,肿瘤医院,,49,43,39,34,25,111,111,77,77,12,16,7,7,0.7,0.6
2026-06-14T1000,1826A,114.2884,34.7966,开封市,世纪星幼儿园,,46,46,37,21,23,109,109,79,79,10,11,8,7,0.6,0.5
2026-06-14T1000,3147A,114.3434,34.8101,开封市,龙亭公园,颗粒物(PM10),57,59,44,23,20,115,115,81,81,14,16,7,7,0.7,0.7
2026-06-14T1000,3210A,114.3645,34.7955,开封市,汴京公园,颗粒物(PM10),53,54,37,24,23,118,118,80,80,9,14,8,8,0.5,0.4
2026-06-14T1000,3473A,114.2485,34.8306,开封市,技师学院,颗粒物(PM10),53,53,38,26,19,119,119,89,89,11,12,10,10,0.5,0.4
2026-06-14T1000,3592A,114.4518,34.7503,开封市,祥符区生态环境局,,42,NA,36,29,24,116,116,77,77,13,21,10,10,0.5,0.4
2026-06-14T1000,1951A,84.886,45.6029,克拉玛依市,长征新村,,36,36,17,16,9,100,100,94,91,5,4,3,3,0.2,0.2
2026-06-14T1000,1952A,84.8894,45.5827,克拉玛依市,南林小区,,28,25,20,3,3,87,87,66,66,5,8,4,4,0.3,0.4
2026-06-14T1000,1954A,84.896,44.3328,克拉玛依市,独山子区,,31,31,19,3,4,88,88,100,95,6,5,7,7,0.3,0.3
2026-06-14T1000,1955A,85.6888,46.0909,克拉玛依市,乌尔禾区商贸楼,,35,25,28,24,13,58,58,70,63,9,6,5,6,0.2,0.2
2026-06-14T1000,3612A,85.1045,45.6895,克拉玛依市,白碱滩区新站,,35,14,11,3,5,111,111,101,100,2,2,6,6,0,0
2026-06-14T1000,2697A,76.1457,39.7143,克孜勒苏柯尔克孜自治州,市人民政府,,35,35,32,9,11,105,105,101,100,6,6,6,6,0.1,0.1
2026-06-14T1000,3665A,76.1654,39.7157,克孜勒苏柯尔克孜自治州,克州文化中心,颗粒物(PM10),55,56,36,22,13,109,109,106,102,4,4,10,7,0.2,0.2
2026-06-14T1000,1450A,102.8203,24.889,昆明市,呈贡新区,,15,15,16,9,7,48,48,52,52,16,10,4,5,0.6,0.5
2026-06-14T1000,1452A,102.7253,25.0904,昆明市,龙泉镇,,16,10,15,9,8,51,51,59,59,11,11,5,6,0.4,0.4
2026-06-14T1000,1453A,102.7267,25.0378,昆明市,东风东路,,17,17,16,10,8,40,40,60,60,27,14,3,2,0.4,0.3
2026-06-14T1000,1454A,102.6744,25.0671,昆明市,金鼎山,,27,27,20,8,9,45,45,62,62,22,12,3,4,0.5,0.5
2026-06-14T1000,1455A,102.6643,25.0401,昆明市,碧鸡广场,,20,19,19,14,11,42,42,58,58,21,12,1,2,0.5,0.5
2026-06-14T1000,3179A,102.7491,25.012,昆明市,官渡区博物馆,,19,16,19,13,8,48,48,48,48,20,14,3,4,0.4,0.4
2026-06-14T1000,3375A,102.8016,24.8336,昆明市,青年创业园,,20,NA,11,14,7,56,56,48,48,8,9,4,6,0.4,0.4
2026-06-14T1000,3550A,102.8,24.9787,昆明市,昆明学院,,37,37,20,12,8,51,51,65,64,24,11,5,5,0.5,0.5
2026-06-14T1000,3551A,102.5969,24.6738,昆明市,晋宁区生态环境分局,,20,NA,15,13,7,62,62,46,46,7,4,3,3,0.4,0.3
2026-06-14T1000,3552A,102.6673,24.9861,昆明市,云天化总部,,20,20,14,10,5,48,48,56,56,17,12,4,5,0.5,0.4
2026-06-14T1000,1456A,91.132,29.6515,拉萨市,八廓街,,29,16,15,8,9,92,92,98,96,6,6,4,5,0.2,0.2
2026-06-14T1000,1457A,91.1221,29.6748,拉萨市,市环保局,,31,15,15,6,6,98,98,106,101,9,7,8,7,0.5,0.4
2026-06-14T1000,1458A,91.0874,29.6476,拉萨市,区监测站,,33,11,12,3,6,103,103,113,108,8,8,5,5,0.2,0.2
2026-06-14T1000,1459A,91.1774,29.6541,拉萨市,西藏大学,,33,11,14,7,8,105,105,110,107,10,9,6,6,0.4,0.4
2026-06-14T1000,1460A,90.9798,29.6586,拉萨市,区辐射站,NA,NA,13,15,3,8,104,104,112,108,NA,11,7,6,0.3,0.3
2026-06-14T1000,1461A,91.0831,29.6292,拉萨市,拉萨火车站,,33,11,12,3,7,104,104,113,110,8,6,4,4,0.3,0.2
2026-06-14T1000,2520A,109.2203,23.7252,来宾市,来宾技工学校,,16,10,18,7,9,49,49,38,38,9,5,6,7,0.8,0.8
2026-06-14T1000,3535A,109.1781,23.7293,来宾市,兴宾区政府,,15,14,16,6,8,48,48,37,37,2,6,5,5,0.7,0.7
2026-06-14T1000,4002A,109.2312,23.7428,来宾市,中南小学,,16,15,18,8,9,51,51,37,37,8,8,6,5,0.5,0.6
2026-06-14T1000,1479A,103.8309,36.0467,兰州市,铁路设计院,,50,50,49,18,23,74,74,55,55,40,42,7,8,0.8,0.7
2026-06-14T1000,3241A,103.7439,36.0841,兰州市,百合公园,颗粒物(PM10),68,74,48,22,20,57,57,33,33,57,40,9,10,0.5,0.7
2026-06-14T1000,3242A,103.9613,35.9985,兰州市,和平,,42,42,39,15,20,98,98,102,102,11,8,12,12,0.4,0.3
2026-06-14T1000,4236A,103.629272,36.093822,兰州市,庄浪东路808号,颗粒物(PM10),66,72,46,32,21,66,66,70,63,37,29,31,11,0.6,0.4
2026-06-14T1000,4237A,103.7251,36.104344,兰州市,安宁西路88号,颗粒物(PM10),69,76,53,24,23,86,86,39,39,45,33,22,13,0.5,0.4
2026-06-14T1000,4238A,103.846982,36.067567,兰州市,北滨河东路1号,颗粒物(PM10),53,54,48,26,19,42,42,72,64,62,31,11,14,0.6,0.4
2026-06-14T1000,1067A,116.6712,39.5109,廊坊市,药材公司,,40,40,37,20,23,117,117,84,84,11,14,3,4,0.5,0.5
2026-06-14T1000,1068A,116.7215,39.5592,廊坊市,开发区,,39,33,37,22,22,123,123,87,87,8,13,3,3,0.4,0.3
2026-06-14T1000,1070A,116.7246,39.5273,廊坊市,北华航天学院,,39,24,32,18,20,123,123,88,88,8,11,3,2,0.4,0.3
2026-06-14T1000,2919A,116.7022,39.5454,廊坊市,河北工业大学,,40,NA,32,23,23,125,125,86,86,8,14,1,2,0.4,0.3
2026-06-14T1000,2536A,103.7629,29.5844,乐山市,牛耳桥,,33,32,27,22,17,105,105,80,80,12,14,7,5,0.5,0.5
2026-06-14T1000,2537A,103.7501,29.6002,乐山市,市第三水厂,,36,32,26,25,18,103,103,80,80,14,16,5,4,0.6,0.6
2026-06-14T1000,2538A,103.7571,29.5664,乐山市,市监测站,,33,32,27,19,15,105,105,92,92,10,11,4,3,0.5,0.5
2026-06-14T1000,3361A,103.7313,29.563,乐山市,理工大学,,36,32,27,25,16,110,110,88,88,9,11,4,4,0.6,0.6
2026-06-14T1000,2599A,100.2497,26.8802,丽江市,丽江古城,,19,15,13,13,10,44,44,34,34,8,9,7,7,0.5,0.5
2026-06-14T1000,2600A,100.2203,26.8906,丽江市,市中心,,25,21,12,17,9,39,39,32,32,8,9,5,6,0.6,0.5
2026-06-14T1000,1267A,119.9141,28.4513,丽水市,监测站大楼,,22,8,9,3,5,70,70,49,49,13,15,4,4,0.3,0.3
2026-06-14T1000,1268A,119.93,28.4589,丽水市,莲都小学,,25,6,11,3,4,78,78,51,51,6,12,/,/,/,/
2026-06-14T1000,1269A,119.8794,28.4232,丽水市,余庄前,,22,6,14,3,5,68,68,32,32,8,12,5,5,0.4,0.3
2026-06-14T1000,1173A,119.1759,34.5885,连云港市,市环境监测站,,42,7,42,3,27,132,132,98,98,13,14,7,10,0.4,0.5
2026-06-14T1000,3000A,119.3577,34.6971,连云港市,德源药业,,37,NA,54,3,30,116,116,88,88,11,17,4,7,0.4,0.5
2026-06-14T1000,3007A,119.178,34.8442,连云港市,新城一中,,41,39,61,3,24,131,131,86,86,7,19,5,5,0.6,0.7
2026-06-14T1000,3008A,119.3607,34.7519,连云港市,胡沟管理处,,38,12,38,3,23,119,119,111,111,14,15,10,11,0.4,0.5
2026-06-14T1000,3009A,119.1478,34.5913,连云港市,矿山设计院,,39,14,44,3,25,124,124,90,90,5,12,4,5,0.2,0.3
2026-06-14T1000,3434A,119.2414,34.6539,连云港市,工贸学校,,42,7,38,6,24,133,133,111,111,2,7,3,6,0.5,0.5
2026-06-14T1000,3664A,119.4171,34.734,连云港市,连云街道,,40,6,49,3,22,128,128,111,111,5,22,8,12,0.3,0.4
2026-06-14T1000,2573A,102.2629,27.8981,凉山彝族自治州,西昌市政府,,33,NA,12,23,11,54,54,38,38,8,7,5,4,0.4,0.4
2026-06-14T1000,2574A,102.2686,27.885,凉山彝族自治州,凉山州政府,,30,27,15,21,12,48,48,40,39,11,7,6,5,0.5,0.4
2026-06-14T1000,4229A,102.2342,27.8859,凉山彝族自治州,凯乐南路30号,,32,25,17,22,13,39,39,25,23,17,15,8,5,0.5,0.5
2026-06-14T1000,2212A,123.1978,41.2036,辽阳市,宏伟区,,40,23,25,22,13,127,127,114,112,7,8,7,7,0.5,0.5
2026-06-14T1000,2213A,123.1684,41.2497,辽阳市,新华园,,40,27,29,24,15,127,127,115,113,9,11,10,9,0.5,0.5
2026-06-14T1000,2214A,123.2355,41.2663,辽阳市,滨河路,,39,NA,26,27,15,114,114,100,99,10,13,7,7,0.6,0.6
2026-06-14T1000,4083A,123.153,41.2874,辽阳市,铁西路150号,,40,28,30,24,15,127,127,117,116,8,9,7,7,0.3,0.2
2026-06-14T1000,2227A,125.1359,42.8845,辽源市,环保局,,37,36,24,18,26,117,117,60,60,17,24,9,8,0.7,0.7
2026-06-14T1000,4085A,125.0998,42.9134,辽源市,安宁大街333号,颗粒物(PM10),51,51,32,23,27,90,90,51,51,21,23,10,8,0.5,0.5
2026-06-14T1000,1625A,115.9789,36.4372,聊城市,区政府,细颗粒物(PM2.5),74,NA,39,47,20,140,140,107,107,12,7,16,9,0.5,0.4
2026-06-14T1000,3200A,115.9772,36.4986,聊城市,监控中心,,46,41,40,32,18,143,143,98,98,9,9,13,9,0.5,0.3
2026-06-14T1000,3513A,116.0443,36.436,聊城市,九州社区,颗粒物(PM10),60,64,48,32,20,147,147,109,109,11,7,9,5,0.4,0.3
2026-06-14T1000,4018A,116.0564,36.4609,聊城市,星美广场,细颗粒物(PM2.5),54,50,46,37,22,149,149,107,107,10,8,10,8,0.4,0.2
2026-06-14T1000,4113A,116.0091,36.4495,聊城市,利民路,细颗粒物(PM2.5),60,NA,31,40,20,147,147,111,111,10,8,15,11,0.4,0.3
2026-06-14T1000,2632A,94.3683,29.6373,林芝市,林芝监测站,,17,8,9,3,5,53,53,73,64,7,4,3,3,0.4,0.4
2026-06-14T1000,2633A,94.3616,29.6634,林芝市,林芝人民医院,,17,16,11,3,6,54,54,75,66,9,5,3,3,0.4,0.2
2026-06-14T1000,2603A,100.0779,23.8981,临沧市,市环保局,,24,24,18,10,10,36,36,27,27,8,7,5,6,0.6,0.6
2026-06-14T1000,2604A,100.0894,23.882,临沧市,市气象局,,25,25,15,13,12,35,35,31,31,8,6,8,8,0.5,0.4
2026-06-14T1000,1733A,111.5552,36.0791,临汾市,临钢医院,颗粒物(PM10),68,75,64,25,18,116,116,70,70,23,20,18,10,1.0,0.8
2026-06-14T1000,1734A,111.4984,36.0734,临汾市,技工学校,NA,NA,67,65,29,22,110,110,67,67,22,21,15,8,NA,0.6
2026-06-14T1000,1736A,111.5017,36.0857,临汾市,市委,颗粒物(PM10),65,70,77,24,17,116,116,70,70,21,21,19,12,1.0,0.8
2026-06-14T1000,3018A,111.5048,36.1015,临汾市,唐尧大酒店,颗粒物(PM10),69,76,75,27,18,115,115,63,63,17,17,19,12,0.9,0.7
2026-06-14T1000,4244A,111.4879,36.053,临汾市,启星学校,颗粒物(PM10),62,66,65,17,19,112,112,67,67,23,22,18,11,0.8,0.6
2026-06-14T1000,4271A,103.2464,35.6123,临夏回族自治州,滨河东路1号,颗粒物(PM10),53,53,56,26,19,52,52,47,47,25,19,13,14,0.4,0.3
2026-06-14T1000,4310A,103.207136,35.599807,临夏回族自治州,新华街21号,颗粒物(PM10),68,75,50,30,22,63,63,57,55,18,10,12,12,0.7,0.6
2026-06-14T1000,1618A,118.3429,35.0532,临沂市,沂河小区,颗粒物(PM10),51,51,51,28,21,128,128,88,88,9,18,14,16,0.3,0.3
2026-06-14T1000,1619A,118.2962,35.0568,临沂市,鲁南制药厂,,43,39,45,23,16,137,137,90,90,12,15,13,16,0.5,0.5
2026-06-14T1000,1620A,118.2793,34.9976,临沂市,新光毛纺厂,,46,46,45,27,20,135,135,80,80,15,18,13,17,0.4,0.4
2026-06-14T1000,1621A,118.3955,35.0889,临沂市,河东保险公司,,42,39,46,29,22,126,126,88,88,12,24,14,15,0.1,0.2
2026-06-14T1000,3370A,118.3563,35.0215,临沂市,十里堡居委,,42,36,44,23,20,133,133,89,89,18,20,13,17,0.5,0.5
2026-06-14T1000,3496A,118.359,35.1067,临沂市,南坊新区,,44,44,48,27,19,119,119,91,91,17,15,12,15,0.1,0.2
2026-06-14T1000,3860A,118.3915,35.0297,临沂市,皇山花园小区,,45,39,46,31,21,139,139,95,95,12,13,14,17,0.4,0.4
2026-06-14T1000,1870A,109.4854,24.3898,柳州市,柳东小学,,19,19,19,10,10,34,34,24,24,7,6,7,6,0.8,0.6
2026-06-14T1000,1871A,109.4109,24.3304,柳州市,环保监测站,,16,16,22,8,11,38,38,26,26,10,10,11,9,1.0,0.8
2026-06-14T1000,1872A,109.3886,24.3408,柳州市,河西水厂,,11,11,22,3,12,33,33,19,19,8,10,8,9,0.6,0.6
2026-06-14T1000,1873A,109.4263,24.2951,柳州市,市四中,,13,13,19,3,11,29,29,27,25,14,9,7,9,1.0,0.7
2026-06-14T1000,1874A,109.396,24.3658,柳州市,市九中,,18,18,21,3,9,33,33,22,22,11,12,6,7,0.7,0.7
2026-06-14T1000,1875A,109.4912,24.3164,柳州市,古亭山,,19,19,21,11,10,25,25,24,23,16,7,7,5,0.8,0.6
2026-06-14T1000,3402A,109.5422,24.3994,柳州市,市二中,,16,16,20,8,9,40,40,30,30,2,2,14,10,0.6,0.6
2026-06-14T1000,2307A,116.5078,31.7369,六安市,监测大楼,,33,15,13,9,19,105,105,75,75,10,7,4,3,0.4,0.4
2026-06-14T1000,2308A,116.4738,31.7642,六安市,皖西学院,,34,21,15,18,19,108,108,79,79,6,5,6,5,0.3,0.3
2026-06-14T1000,2309A,116.4997,31.7904,六安市,朝阳厂,,34,16,11,15,20,106,106,74,74,11,11,8,7,0.3,0.3
2026-06-14T1000,2310A,116.5566,31.7885,六安市,开发区,,35,NA,7,14,20,110,110,77,77,7,17,5,6,0.2,0.2
2026-06-14T1000,2577A,104.8293,26.592,六盘水市,黄土坡,,25,19,22,10,14,79,79,41,41,11,12,8,5,0.5,0.3
2026-06-14T1000,2579A,104.8481,26.5898,六盘水市,民中,,22,21,19,7,13,69,69,38,38,15,17,3,3,0.5,0.5
2026-06-14T1000,2580A,104.9541,26.5506,六盘水市,双水,,39,39,25,21,12,47,47,18,18,22,15,14,6,1.0,0.4
2026-06-14T1000,4151A,104.8899,26.5685,六盘水市,钟山大道中段564号,,29,29,32,18,15,62,62,23,23,14,17,15,7,1.5,1
2026-06-14T1000,2336A,117.022,25.1031,龙岩市,龙岩市监测站,,12,12,20,6,14,34,34,49,42,9,7,4,5,0.4,0.4
2026-06-14T1000,2337A,117.0257,25.0662,龙岩市,闽西职业技术学院,,11,6,22,3,15,35,35,44,39,8,8,4,6,0.4,0.5
2026-06-14T1000,2338A,117.0195,25.0306,龙岩市,龙岩学院,,12,8,23,8,12,36,36,40,38,6,6,4,5,/,/
2026-06-14T1000,2885A,104.9344,33.3827,陇南市,滨江中学,,48,48,47,22,15,64,64,66,65,18,10,10,8,0.5,0.4
2026-06-14T1000,3247A,104.9551,33.3709,陇南市,市总工会,,35,35,30,17,13,70,70,81,73,16,6,9,7,0.3,0.2
2026-06-14T1000,2488A,111.9984,27.7346,娄底市,市监测站,细颗粒物(PM2.5),100,75,22,60,20,22,22,15,15,16,15,18,7,1.7,0.7
2026-06-14T1000,2491A,111.9888,27.7035,娄底市,市政府,细颗粒物(PM2.5),60,NA,14,40,12,29,29,20,20,11,7,7,4,1.3,0.5
2026-06-14T1000,4127A,111.9812,27.7591,娄底市,涟钢职大,,39,39,17,13,10,28,28,24,24,9,7,10,4,1.2,1
2026-06-14T1000,4128A,112.0303,27.7457,娄底市,娄底体校,细颗粒物(PM2.5),88,68,25,54,18,19,19,23,22,14,8,10,2,1.3,0.5
2026-06-14T1000,1894A,105.4427,28.9063,泸州市,小市上码头,颗粒物(PM10),60,63,31,34,15,77,77,64,60,16,13,12,9,0.5,0.3
2026-06-14T1000,1895A,105.4241,28.8573,泸州市,兰田宪桥,颗粒物(PM10),62,66,40,39,21,75,75,48,48,15,17,11,7,0.4,0.3
2026-06-14T1000,1896A,105.4378,28.8833,泸州市,市环监站,,48,48,25,30,13,73,73,58,57,16,16,12,8,0.7,0.5
2026-06-14T1000,4272A,105.3689,28.7783,泸州市,纳溪中医医院,,44,44,33,25,21,64,64,32,32,14,15,8,6,0.8,0.6
2026-06-14T1000,2183A,111.1447,37.5212,吕梁市,环保局,,47,47,43,3,10,79,79,54,54,12,17,15,6,0.2,0.2
2026-06-14T1000,2185A,111.1285,37.5338,吕梁市,自来水公司,颗粒物(PM10),53,53,50,3,12,73,73,28,28,16,23,16,7,0.3,0.3
2026-06-14T1000,2867A,111.1225,37.5093,吕梁市,马茂庄小学,,49,49,46,3,10,80,80,50,50,11,22,15,5,0.2,0.3
2026-06-14T1000,1812A,112.3934,34.6517,洛阳市,市委党校,,50,50,34,29,16,118,118,77,77,16,12,10,11,0.5,0.4
2026-06-14T1000,1815A,112.494,34.6883,洛阳市,河南林校,颗粒物(PM10),58,61,38,29,20,131,131,90,90,22,16,14,12,0.6,0.5
2026-06-14T1000,1816A,112.3843,34.623,洛阳市,开发区管委会,,46,46,31,28,16,137,137,82,82,13,11,14,12,0.5,0.4
2026-06-14T1000,1817A,112.4263,34.6249,洛阳市,市委新办公区,,46,37,30,32,17,125,125,76,76,14,11,15,13,0.3,0.2
2026-06-14T1000,3340A,112.6005,34.6323,洛阳市,伊滨,颗粒物(PM10),57,59,38,21,17,131,131,70,70,18,16,15,11,0.6,0.5
2026-06-14T1000,3341A,112.495,34.6338,洛阳市,中移产业园,颗粒物(PM10),51,51,32,28,16,123,123,86,86,16,12,13,11,0.7,0.5
2026-06-14T1000,3593A,112.5736,34.8993,洛阳市,吉利监测站,颗粒物(PM10),57,59,40,23,21,122,122,71,71,13,19,13,11,0.4,0.3
2026-06-14T1000,3635A,112.3678,34.6623,洛阳市,河科大西苑校区,颗粒物(PM10),62,66,38,40,19,131,131,81,81,18,13,14,13,1.0,0.9
2026-06-14T1000,3636A,112.4387,34.678,洛阳市,英才小学,颗粒物(PM10),58,60,36,30,19,131,131,89,89,15,10,14,11,0.6,0.5
2026-06-14T1000,4214A,112.460027,34.694929,洛阳市,春都路1号院,颗粒物(PM10),53,54,34,28,18,133,133,87,87,15,13,12,10,0.5,0.3
2026-06-14T1000,2399A,114.051,33.5721,漯河市,三五一五工厂,,46,NA,34,32,23,119,119,65,65,11,16,7,6,0.4,0.4
2026-06-14T1000,2400A,114.0055,33.5698,漯河市,漯河大学,,40,29,25,26,24,125,125,70,70,10,15,7,7,0.4,0.4
2026-06-14T1000,2401A,114.0134,33.5826,漯河市,市水利局,,40,31,31,19,21,125,125,73,73,11,14,6,6,0.3,0.3
2026-06-14T1000,2402A,114.0261,33.5697,漯河市,市广电局,,39,27,27,19,19,124,124,72,72,11,16,6,6,0.5,0.5
2026-06-14T1000,3478A,113.9691,33.568,漯河市,市图书馆,细颗粒物(PM2.5),62,46,36,41,23,120,120,67,67,13,16,8,9,0.5,0.5
2026-06-14T1000,4250A,114.089259,33.588274,漯河市,韶山路11号,,42,42,37,23,21,110,110,63,63,11,13,10,8,0.3,0.3
2026-06-14T1000,1798A,118.5084,31.6838,马鞍山市,湖东路四小,,31,22,25,14,16,98,98,80,80,6,10,6,8,0.5,0.5
2026-06-14T1000,1799A,118.5019,31.6449,马鞍山市,开发区,NA,NA,32,24,16,17,NA,NA,75,75,NA,11,NA,7,NA,0.5
2026-06-14T1000,3633A,118.4914,31.681,马鞍山市,雨山,,37,37,22,25,15,92,92,82,82,12,8,7,4,1.0,0.6
2026-06-14T1000,4191A,118.527362,31.722269,马鞍山市,慈湖高新区,,31,21,29,15,17,98,98,84,84,7,12,5,6,0.4,0.3
2026-06-14T1000,1686A,111.0285,21.469,茂名市,电白南海,,27,27,26,9,9,50,50,48,47,6,6,5,5,0.8,0.8
2026-06-14T1000,1687A,110.9294,21.6533,茂名市,茂石化七小,,41,41,28,24,15,32,32,26,24,17,14,8,11,0.7,0.5
2026-06-14T1000,1688A,110.9108,21.6688,茂名市,健康路,,30,22,17,21,14,36,36,28,28,14,13,6,10,0.8,0.7
2026-06-14T1000,1689A,110.8592,21.6826,茂名市,高岭,,34,34,31,23,15,23,23,18,17,16,14,4,7,/,/
2026-06-14T1000,3450A,111.0101,21.5165,茂名市,电白水东,,35,NA,16,24,11,47,47,38,38,8,9,2,2,/,/
2026-06-14T1000,2540A,103.8414,30.0871,眉山市,气象局,细颗粒物(PM2.5),64,45,33,42,22,44,44,18,18,46,34,9,8,0.7,0.6
2026-06-14T1000,3148A,103.829,30.0563,眉山市,区人社局,颗粒物(PM10),56,58,47,30,18,65,65,45,45,46,33,13,8,0.6,0.5
2026-06-14T1000,4148A,103.8836,30.0695,眉山市,眉职院,颗粒物(PM10),57,59,35,36,17,64,64,46,46,33,22,9,7,0.7,0.6
2026-06-14T1000,1690A,116.1248,24.3307,梅州市,梅江月梅,,18,18,30,3,16,27,27,17,17,8,10,/,/,/,/
2026-06-14T1000,1691A,116.0798,24.2719,梅州市,梅县新城,,10,10,23,3,16,24,24,19,19,10,12,8,8,0.5,0.6
2026-06-14T1000,3315A,116.1234,24.2994,梅州市,梅龙,,10,6,21,3,15,29,29,21,21,8,11,6,7,0.7,0.7
2026-06-14T1000,1878A,104.7775,31.4741,绵阳市,富乐山,细颗粒物(PM2.5),52,NA,38,36,27,97,97,93,89,10,12,10,10,0.9,0.8
2026-06-14T1000,1880A,104.6698,31.4668,绵阳市,高新区自来水公司,,46,44,41,32,27,85,85,91,88,14,10,10,10,0.8,0.7
2026-06-14T1000,3491A,104.6899,31.5324,绵阳市,西科大附属小学,,48,48,41,29,29,88,88,90,85,10,14,6,6,0.3,0.2
2026-06-14T1000,3492A,104.5647,31.5343,绵阳市,安州区旅游局,,46,44,46,32,29,82,82,81,77,9,10,5,8,0.5,0.5
2026-06-14T1000,4146A,104.7092,31.4972,绵阳市,科技城新区公安局,,43,38,47,30,27,96,96,100,96,12,11,10,10,0.6,0.6
2026-06-14T1000,4226A,104.765114,31.453094,绵阳市,绵阳市气象局,,43,42,42,30,27,75,75,93,86,27,13,8,9,0.6,0.5
2026-06-14T1000,1784A,129.61,44.561,牡丹江市,环保大楼,,23,13,19,7,9,72,72,43,43,7,9,4,5,0.3,0.3
2026-06-14T1000,1787A,129.6364,44.6075,牡丹江市,机车工厂,,34,34,27,14,16,66,66,35,35,8,12,4,6,0.2,0.3
2026-06-14T1000,1788A,129.6386,44.5462,牡丹江市,第一中学,,23,NA,22,10,10,72,72,41,41,5,8,5,5,0.2,0.3
2026-06-14T1000,4287A,129.5992,44.5964,牡丹江市,东晓云街98号,,26,26,25,8,14,67,67,36,36,6,10,5,5,0.2,0.3
2026-06-14T1000,2531A,105.0703,29.61,内江市,市监测站,细颗粒物(PM2.5),56,NA,26,38,23,97,97,65,65,12,14,13,12,0.6,0.6
2026-06-14T1000,2533A,105.0657,29.5807,内江市,内江二中,,46,33,28,32,21,102,102,90,90,9,10,10,9,0.6,0.6
2026-06-14T1000,2534A,105.0407,29.5828,内江市,内江日报社,,50,38,25,35,23,115,115,98,98,10,13,13,12,0.4,0.4
2026-06-14T1000,4147A,105.0433,29.6105,内江市,玉峰路西段888号,细颗粒物(PM2.5),56,41,28,38,24,99,99,65,65,12,14,14,13,0.7,0.6
2026-06-14T1000,2628A,92.0653,31.4846,那曲市,那曲监测站,,29,27,15,10,8,92,92,96,87,11,6,6,5,0.4,0.4
2026-06-14T1000,4243A,92.0515,31.4787,那曲市,那曲市委宣传部,,31,18,10,3,5,97,97,102,96,10,6,5,6,0.4,0.4
2026-06-14T1000,1291A,115.8887,28.7006,南昌市,省林业公司,,22,NA,3,13,6,70,70,56,56,4,6,5,4,0.6,0.5
2026-06-14T1000,1292A,115.813,28.7443,南昌市,林科所,,26,NA,2,18,5,70,70,61,61,2,7,7,7,0.6,0.5
2026-06-14T1000,1294A,115.8518,28.687,南昌市,建工学校,,22,18,5,14,6,69,69,57,57,7,7,7,7,0.8,0.7
2026-06-14T1000,1295A,115.8926,28.6425,南昌市,象湖,,26,NA,1,18,7,65,65,59,59,11,12,7,7,0.6,0.5
2026-06-14T1000,3046A,115.9084,28.6062,南昌市,机电学校,,30,22,9,21,7,72,72,64,64,9,11,6,6,0.5,0.6
2026-06-14T1000,3690A,115.9718,28.7032,南昌市,外国语学校,,36,NA,6,25,6,49,49,56,55,14,4,11,11,0.8,0.7
2026-06-14T1000,4106A,115.7923,28.6873,南昌市,工业二路,,26,26,9,15,7,64,64,62,62,6,4,5,5,0.6,0.5
2026-06-14T1000,4192A,115.931587,28.686774,南昌市,南京东路235号,,28,NA,10,19,6,65,65,63,63,10,10,4,3,0.9,0.7
2026-06-14T1000,1906A,106.0791,30.8022,南充市,南充市委,,48,44,36,33,25,65,65,36,36,13,14,7,6,0.3,0.3
2026-06-14T1000,1907A,106.1038,30.8215,南充市,南充炼油厂,,42,37,43,29,28,68,68,56,54,8,10,7,7,0.5,0.5
2026-06-14T1000,4227A,106.108336,30.788436,南充市,梨树横街98号,,46,42,37,32,26,65,65,60,58,13,13,9,8,0.6,0.6
2026-06-14T1000,4304A,106.1172,30.843,南充市,清泉寺北路188号,,48,48,44,30,28,62,62,65,59,7,10,8,8,0.4,0.4
2026-06-14T1000,4305A,106.067,30.7616,南充市,同庆路1号,,48,46,37,33,26,63,63,58,52,20,15,10,7,0.5,0.4
2026-06-14T1000,1151A,118.8033,32.1085,南京市,迈皋桥,,39,28,20,27,14,88,88,102,93,22,11,6,6,0.5,0.4
2026-06-14T1000,1152A,118.7487,32.057,南京市,草场门,,33,27,19,23,13,102,102,115,110,21,12,5,5,0.6,0.5
2026-06-14T1000,1154A,118.770105,32.004342,南京市,中华门,,29,17,16,14,11,90,90,89,87,7,6,6,6,0.4,0.4
2026-06-14T1000,1155A,118.8059,32.0329,南京市,瑞金路,,30,24,22,15,13,94,94,96,92,16,14,4,4,0.4,0.4
2026-06-14T1000,1156A,118.7946,32.0774,南京市,玄武湖,,35,33,24,24,11,73,73,84,77,20,11,7,7,0.4,0.3
2026-06-14T1000,1157A,118.6415,32.0964,南京市,浦口,,43,43,24,30,11,88,88,82,81,18,17,6,5,0.6,0.4
2026-06-14T1000,1158A,118.730129,32.000956,南京市,奥体中心,,31,27,22,13,11,97,97,98,95,12,13,6,7,0.2,0.3
2026-06-14T1000,1159A,118.9072,32.1047,南京市,仙林大学城,,30,27,26,17,14,94,94,98,90,17,10,6,7,0.7,0.6
2026-06-14T1000,3422A,118.8443,31.919,南京市,江宁彩虹桥,,33,24,24,12,11,103,103,104,99,9,8,4,4,0.4,0.3
2026-06-14T1000,3427A,118.8497,32.3599,南京市,六合雄州,,42,42,28,24,13,102,102,82,82,8,11,4,5,0.5,0.4
2026-06-14T1000,4086A,118.7641,32.0841,南京市,新模范马路66号,,32,29,23,16,10,101,101,109,103,15,8,4,4,0.5,0.4
2026-06-14T1000,4249A,118.8707617,31.34017673,南京市,汶溪路181号,,24,19,12,12,14,76,76,70,68,6,6,5,6,0.2,0.2
2026-06-14T1000,4312A,119.019,31.6512,南京市,中山西路1号,,29,22,18,13,14,90,90,86,83,9,11,4,4,0.5,0.5
2026-06-14T1000,1401A,108.3098,22.788,南宁市,二十一中,,20,20,21,13,12,27,27,32,26,13,7,3,5,0.6,0.6
2026-06-14T1000,1402A,108.3135,22.8529,南宁市,北湖,,18,NA,25,12,15,33,33,25,24,14,13,12,4,0.6,0.6
2026-06-14T1000,1403A,108.3205,22.8222,南宁市,市监测站,,13,12,22,9,11,33,33,33,27,15,9,8,4,0.6,0.6
2026-06-14T1000,1404A,108.3828,22.8038,南宁市,大自然花园,,16,16,19,11,12,30,30,30,26,14,9,4,3,0.6,0.5
2026-06-14T1000,1406A,108.2397,22.8462,南宁市,区农职院,NA,NA,NA,26,9,15,42,42,32,31,7,10,3,4,0.8,0.7
2026-06-14T1000,1407A,108.3285,22.7356,南宁市,英华嘉园,,44,44,27,29,13,18,18,38,31,23,13,7,4,0.6,0.5
2026-06-14T1000,3401A,108.4829,22.762,南宁市,红星社区,,20,16,22,14,12,27,27,37,29,10,8,5,5,0.5,0.5
2026-06-14T1000,4132A,108.2927,23.1477,南宁市,起凤路9号,,16,16,19,9,11,43,43,45,42,8,12,4,5,0.6,0.6
2026-06-14T1000,4221A,108.2177,22.7774,南宁市,乐贤路16号,,22,22,26,13,14,36,36,18,18,11,15,13,5,0.6,0.6
2026-06-14T1000,2332A,118.1682,26.6371,南平市,南平市监测站,,14,14,14,9,9,18,18,39,37,18,8,4,4,0.7,0.5
2026-06-14T1000,2334A,118.1757,26.6276,南平市,南平七中,,14,14,14,7,8,29,29,32,32,13,9,2,2,0.6,0.5
2026-06-14T1000,1168A,120.9056,31.9669,南通市,狼山街道,,33,6,16,3,10,104,104,111,107,7,16,4,5,0.8,0.8
2026-06-14T1000,1170A,120.8635,32.0231,南通市,城中,,31,6,23,3,10,98,98,109,104,11,18,2,3,0.5,0.4
2026-06-14T1000,1171A,120.9376,31.9301,南通市,星湖花园,,32,6,19,3,11,102,102,107,103,6,13,3,4,0.5,0.5
2026-06-14T1000,1172A,120.8053,32.046,南通市,紫琅学院,,29,6,20,3,10,92,92,106,102,6,14,4,6,0.5,0.5
2026-06-14T1000,3291A,121.0631,32.0644,南通市,通州监测站,,35,6,21,3,10,110,110,120,115,4,10,6,6,0.6,0.6
2026-06-14T1000,3432A,120.9348,31.9874,南通市,环境教育馆,,31,6,24,3,11,98,98,107,103,9,16,5,5,0.4,0.5
2026-06-14T1000,4091A,120.8692,31.9885,南通市,洪江路,,33,6,17,3,11,103,103,111,108,7,15,2,3,0.6,0.6
2026-06-14T1000,2404A,112.5338,33.0086,南阳市,瓦房庄,,39,39,31,21,16,92,92,72,72,7,6,6,5,0.7,0.6
2026-06-14T1000,2405A,112.5002,32.9734,南阳市,汉画馆,,49,49,39,25,16,89,89,65,65,14,14,7,6,0.5,0.4
2026-06-14T1000,2406A,112.5778,33.0144,南阳市,气象站,,49,49,30,19,16,96,96,74,74,7,8,8,7,0.4,0.3
2026-06-14T1000,2407A,112.548,32.9687,南阳市,理工学院,,37,37,32,18,19,88,88,65,65,17,15,7,7,0.4,0.3
2026-06-14T1000,4008A,112.5233,32.9921,南阳市,卧龙区政府,,35,35,32,22,18,92,92,69,69,11,10,6,6,0.7,0.6
2026-06-14T1000,1234A,121.8352,29.9111,宁波市,区环保大楼,,29,16,15,8,7,90,90,121,111,24,11,6,6,0.7,0.6
2026-06-14T1000,1235A,121.5595,29.8208,宁波市,万里学院,,34,11,16,3,6,106,106,113,110,7,10,8,8,0.5,0.5
2026-06-14T1000,1236A,121.713,29.9564,宁波市,龙赛医院,,35,18,17,7,8,109,109,112,110,11,9,4,4,0.4,0.3
2026-06-14T1000,1240A,121.5855,29.8635,宁波市,太古小学,,29,14,15,8,6,92,92,105,97,15,12,3,3,0.4,0.3
2026-06-14T1000,1241A,121.5239,29.8673,宁波市,市环境监测中心,,30,13,20,8,7,93,93,104,100,12,13,4,4,0.3,0.2
2026-06-14T1000,2871A,121.6156,29.9015,宁波市,万里国际学校,,30,14,7,10,7,93,93,115,107,14,6,6,5,0.4,0.4
2026-06-14T1000,3710A,121.5593,29.8976,宁波市,白沙活动中心,,30,12,14,7,6,96,96,110,104,12,9,6,6,0.4,0.4
2026-06-14T1000,4095A,121.8962,29.7529,宁波市,中科路88号,,38,9,16,3,6,120,120,136,131,6,3,6,6,0.2,0.2
2026-06-14T1000,2341A,119.5387,26.6611,宁德市,宁德市监测站,,13,6,10,3,6,36,36,46,41,25,17,4,4,0.8,0.8
2026-06-14T1000,3209A,119.5231,26.6562,宁德市,宁德一中,,17,NA,10,7,8,53,53,42,42,9,9,6,6,0.9,0.8
2026-06-14T1000,2618A,98.859,25.8541,怒江傈僳族自治州,州监测站,,16,14,17,11,8,24,24,26,25,5,6,4,5,0.3,0.3
2026-06-14T1000,2619A,98.8607,25.8168,怒江傈僳族自治州,泸水一中,,15,15,16,8,11,15,15,20,18,12,9,4,4,0.6,0.5
2026-06-14T1000,1888A,101.6891,26.571,攀枝花市,弄弄坪,,35,35,33,13,11,49,49,55,51,17,12,5,3,0.5,0.5
2026-06-14T1000,1889A,101.577,26.5914,攀枝花市,河门口,,34,34,29,21,15,41,41,39,37,22,16,39,18,1.6,1.4
2026-06-14T1000,1891A,101.7365,26.4986,攀枝花市,仁和,,39,39,20,26,13,52,52,52,52,10,8,8,8,0.5,0.5
2026-06-14T1000,2835A,101.7222,26.567,攀枝花市,四十中小,,18,18,28,12,10,57,57,62,61,11,8,11,12,0.8,0.7
2026-06-14T1000,1604A,122.0303,41.1489,盘锦市,开发区,NA,NA,28,31,NA,29,124,124,71,71,8,10,8,8,0.4,0.2
2026-06-14T1000,1605A,122.0486,41.0883,盘锦市,兴隆台,NA,NA,35,28,NA,43,94,94,62,62,19,20,7,7,0.8,0.6
2026-06-14T1000,1606A,121.8297,41.1026,盘锦市,新生街道,细颗粒物(PM2.5),120,NA,25,81,53,96,96,61,61,16,14,8,6,0.5,0.4
2026-06-14T1000,1832A,113.3257,33.7423,平顶山市,新华旅馆,,35,25,34,24,19,112,112,83,83,8,13,3,3,0.8,0.7
2026-06-14T1000,1833A,113.2917,33.737,平顶山市,规划设计院,,34,33,29,22,17,106,106,85,85,11,12,6,4,0.5,0.4
2026-06-14T1000,1834A,113.182,33.7738,平顶山市,平顶山工学院,,35,32,25,23,21,112,112,86,86,10,9,5,5,0.6,0.5
2026-06-14T1000,3594A,112.8736,33.9068,平顶山市,石龙区,,47,47,34,21,19,111,111,71,71,13,11,8,5,0.7,0.5
2026-06-14T1000,4116A,113.284,33.7139,平顶山市,姚电大道23号,,37,37,37,24,20,113,113,82,82,7,14,8,7,0.7,0.7
2026-06-14T1000,2656A,106.6633,35.5338,平凉市,聚贤嘉苑,,49,49,43,15,12,113,113,81,81,18,18,10,10,0.6,0.5
2026-06-14T1000,2657A,106.7021,35.5307,平凉市,博物馆,,46,46,42,12,11,103,103,80,80,23,17,10,6,0.5,0.4
2026-06-14T1000,2348A,113.8384,27.6436,萍乡市,中医院,,21,21,15,13,6,46,46,36,36,15,16,8,5,0.8,0.5
2026-06-14T1000,2350A,113.8677,27.6438,萍乡市,市环保局,,20,20,18,9,9,54,54,38,38,9,10,10,10,0.7,0.5
2026-06-14T1000,2351A,113.8663,27.6202,萍乡市,安源区政府,,31,31,17,10,10,52,52,37,37,10,13,9,7,0.7,0.6
2026-06-14T1000,4107A,113.8686,27.6668,萍乡市,联洪村委会,,17,14,13,3,6,54,54,35,35,8,11,6,6,0.7,0.6
2026-06-14T1000,2319A,119.0142,25.4324,莆田市,荔城区仓后路,,32,30,25,22,15,41,41,62,51,20,12,/,/,/,/
2026-06-14T1000,2320A,119.0016,25.4553,莆田市,莆田市监测站,,25,25,23,16,12,48,48,54,46,11,9,4,4,0.5,0.4
2026-06-14T1000,2321A,119.112,25.4561,莆田市,涵江区六中,,17,17,17,6,12,40,40,63,52,12,10,/,/,0.7,0.7
2026-06-14T1000,2322A,119.1014,25.3215,莆田市,秀屿区政府,,15,12,14,3,8,48,48,76,63,8,6,6,5,0.5,0.6
2026-06-14T1000,2392A,115.0312,35.7636,濮阳市,环保局,,45,45,35,26,16,125,125,111,107,12,10,7,5,0.6,0.4
2026-06-14T1000,3021A,115,35.7667,濮阳市,濮水河管理处,,42,42,35,20,17,124,124,102,97,16,15,7,6,0.6,0.5
2026-06-14T1000,4118A,115.0552,35.7816,濮阳市,中原东路68号,颗粒物(PM10),56,58,42,22,15,126,126,110,107,12,10,7,4,0.5,0.4
2026-06-14T1000,4216A,115.0923632,35.76857718,濮阳市,任丘路479号,,44,44,41,25,18,131,131,NA,NA,12,9,7,4,1.0,0.4
2026-06-14T1000,2601A,100.9801,22.7634,普洱市,市环保局,,25,25,24,13,10,47,47,43,43,14,4,5,5,0.7,0.6
2026-06-14T1000,2602A,100.9763,22.8237,普洱市,普洱第二中学,,18,17,20,6,7,56,56,43,43,6,4,4,4,0.7,0.6
2026-06-14T1000,3345A,131.0413,45.7795,七台河市,中波台,,20,9,8,3,5,62,62,47,47,6,10,4,4,0.3,0.3
2026-06-14T1000,3637A,131.0136,45.7688,七台河市,人民广场,,23,23,16,6,5,69,69,58,58,5,10,6,7,0.3,0.3
2026-06-14T1000,3684A,130.8639,45.8144,七台河市,新建矿广场,,24,24,30,3,8,53,53,34,34,13,15,14,8,0.1,0.1
2026-06-14T1000,1779A,123.9307,47.3641,齐齐哈尔市,安居小区,,25,25,21,3,4,70,70,53,53,6,10,4,3,0.5,0.4
2026-06-14T1000,1780A,123.9497,47.3389,齐齐哈尔市,中心广场,NA,NA,14,16,3,6,65,65,51,51,9,14,NA,2,0.3,0.3
2026-06-14T1000,1781A,123.9483,47.3229,齐齐哈尔市,农牧车辆厂,,22,17,19,3,3,69,69,55,55,6,9,8,9,0.2,0.2
2026-06-14T1000,1783A,123.9442,47.2994,齐齐哈尔市,市环境监测站,,21,16,18,3,4,67,67,53,53,7,9,3,3,0.4,0.4
2026-06-14T1000,3662A,123.6341,47.2079,齐齐哈尔市,富区青少年活动中心,,23,11,17,3,3,71,71,54,54,7,13,3,3,0.1,0.1
2026-06-14T1000,2591A,107.9765,26.5724,黔东南苗族侗族自治州,市环境监测站,,32,29,19,22,14,32,32,20,20,10,11,2,2,0.4,0.4
2026-06-14T1000,2881A,107.8909,26.531,黔东南苗族侗族自治州,凯里学院,,23,NA,14,16,16,23,23,19,19,9,11,1,1,0.6,0.5
2026-06-14T1000,2593A,107.5223,26.2371,黔南布依族苗族自治州,小围寨,,25,NA,14,17,11,24,24,10,10,8,8,4,4,0.6,0.5
2026-06-14T1000,3538A,107.5175,26.2977,黔南布依族苗族自治州,沙坝,,22,19,16,15,9,30,30,6,6,5,5,3,4,0.5,0.5
2026-06-14T1000,2589A,104.9022,25.0943,黔西南布依族苗族自治州,场坝街,,26,NA,21,18,16,62,62,70,68,12,9,1,2,0.3,0.2
2026-06-14T1000,2590A,104.8812,25.0994,黔西南布依族苗族自治州,坪东大道,,28,NA,24,19,15,64,64,61,60,7,9,5,6,0.3,0.3
2026-06-14T1000,2502A,108.6238,21.9667,钦州市,市环保站,,44,44,27,14,9,60,60,63,62,9,8,3,2,0.6,0.7
2026-06-14T1000,2503A,108.655,21.9481,钦州市,沙埠小学,,36,36,29,11,12,61,61,65,63,8,7,2,3,0.6,0.6
2026-06-14T1000,2504A,108.5989,21.7435,钦州市,港区一小,,26,26,30,12,12,53,53,59,58,6,8,2,2,0.6,0.6
2026-06-14T1000,3404A,108.5959,21.9634,钦州市,北职校,,32,32,23,17,9,58,58,67,64,8,6,4,4,0.7,0.6
2026-06-14T1000,1046A,119.5247,39.9346,秦皇岛市,建设大厦,,40,34,52,15,21,127,127,116,116,13,16,4,5,0.3,0.3
2026-06-14T1000,3132A,119.5979,39.938,秦皇岛市,文明里,,46,46,49,24,23,118,118,114,114,13,15,5,5,0.3,0.3
2026-06-14T1000,4066A,119.7458,39.9952,秦皇岛市,南园路157号,,37,33,41,24,22,117,117,92,92,2,12,7,8,0.3,0.3
2026-06-14T1000,4067A,119.5131,39.8858,秦皇岛市,翠岛大街1号,,39,28,32,18,19,124,124,116,116,10,11,9,10,0.3,0.3
2026-06-14T1000,4198A,119.509013,39.825305,秦皇岛市,北戴河轮滑馆,NA,NA,36,45,11,21,126,126,NA,NA,7,8,NA,8,0.3,0.3
2026-06-14T1000,1310A,120.404,36.0625,青岛市,市南区东部子站,,43,29,36,6,32,137,137,123,118,4,8,6,6,0.2,0.3
2026-06-14T1000,1311A,120.362344,36.10282,青岛市,四方区子站,,49,22,44,3,33,155,155,151,142,6,9,6,8,0.6,0.7
2026-06-14T1000,1312A,120.294373,36.054183,青岛市,市南区西部子站,,50,19,39,3,29,160,160,148,145,7,13,4,6,0.5,0.6
2026-06-14T1000,1313A,120.4581,36.0858,青岛市,崂山区子站,,47,27,41,3,32,150,150,140,130,9,12,6,7,0.3,0.3
2026-06-14T1000,1315A,120.3945,36.3083,青岛市,城阳区子站,,45,22,54,3,30,143,143,142,135,10,16,7,9,0.3,0.5
2026-06-14T1000,3642A,120.3454,36.0735,青岛市,市北区南部,,47,14,39,3,31,150,150,147,136,7,14,2,4,0.6,0.7
2026-06-14T1000,3643A,120.3897,36.18,青岛市,李沧区北部,,39,17,48,3,35,123,123,123,114,8,12,6,7,0.4,0.6
2026-06-14T1000,4110A,120.5222,36.4089,青岛市,盟旺路653号,,45,17,36,6,26,143,143,135,134,6,6,6,6,0.6,0.7
2026-06-14T1000,4290A,120.196923,35.954556,青岛市,珠江路669号,,47,19,40,3,27,150,150,151,140,6,11,4,5,0.3,0.4
2026-06-14T1000,4291A,120.0424,35.8656,青岛市,黄岛区人民政府广场,,46,22,35,3,24,146,146,121,118,9,10,9,9,0.5,0.6
2026-06-14T1000,1703A,113.0218,23.7086,清远市,凤城街办,,38,37,24,26,17,28,28,16,16,26,22,/,/,/,/
2026-06-14T1000,3025A,113.0479,23.6343,清远市,技师学院,,31,31,23,20,14,28,28,19,19,11,14,5,5,0.5,0.5
2026-06-14T1000,3318A,112.9898,23.7403,清远市,清新太和,,30,30,22,16,14,42,42,36,36,13,15,9,6,0.5,0.5
2026-06-14T1000,3455A,113.076,23.72,清远市,清城东城,,42,42,24,28,15,33,33,20,20,19,16,/,/,/,/
2026-06-14T1000,2661A,107.6325,35.7357,庆阳市,庆阳五中,,47,46,39,13,11,149,149,109,109,11,12,6,6,0.4,0.3
2026-06-14T1000,2662A,107.6361,35.7067,庆阳市,市环保局,,47,44,38,19,11,148,148,122,122,10,12,7,6,0.4,0.4
2026-06-14T1000,1916A,103.7897,25.5036,曲靖市,环境监测站,,29,NA,17,20,9,61,61,62,62,30,12,7,7,0.5,0.5
2026-06-14T1000,1917A,103.8013,25.5357,曲靖市,烟厂办公区,,22,17,16,3,7,69,69,66,66,12,7,2,3,0.5,0.5
2026-06-14T1000,3376A,103.7926,25.4651,曲靖市,南苑二区,,29,26,18,20,10,50,50,45,40,30,19,4,4,0.5,0.4
2026-06-14T1000,3377A,103.7442,25.5259,曲靖市,曲靖师范学院,,30,25,17,21,11,46,46,39,39,48,31,4,5,0.6,0.5
2026-06-14T1000,1264A,118.8694,28.94,衢州市,环保大楼,,18,18,22,12,17,50,50,42,42,14,19,/,/,/,/
2026-06-14T1000,1266A,118.8622,28.9809,衢州市,衢州学院,,18,NA,18,12,17,49,49,42,42,16,20,3,3,0.4,0.4
2026-06-14T1000,4097A,118.9646,28.9832,衢州市,衢州三中,,22,21,23,15,16,50,50,43,43,15,21,5,5,0.5,0.5
2026-06-14T1000,1611A,118.5818,24.9116,泉州市,涂山街,,13,11,21,9,14,40,40,59,48,11,12,3,3,0.5,0.5
2026-06-14T1000,1612A,118.597,24.8976,泉州市,津头埔,NA,NA,NA,22,5,13,35,35,55,45,12,13,2,2,0.6,0.7
2026-06-14T1000,1613A,118.6669,24.9422,泉州市,万安,,13,10,19,3,10,39,39,58,47,9,12,3,3,0.4,0.4
2026-06-14T1000,4105A,118.6355,24.9148,泉州市,霞新路6号,,11,11,15,3,11,35,35,57,44,15,15,/,/,0.4,0.5
2026-06-14T1000,2626A,88.8873,29.2723,日喀则市,日喀则监测站,,30,19,10,3,3,93,93,94,90,6,4,7,7,0.4,0.3
2026-06-14T1000,3726A,88.8775,29.2425,日喀则市,林业技术推广中心,,31,11,12,3,2,97,97,95,92,3,2,9,8,0.4,0.3
2026-06-14T1000,1659A,119.4711,35.421,日照市,监测站,,44,7,49,3,25,139,139,93,93,12,25,8,11,0.4,0.7
2026-06-14T1000,1660A,119.523,35.4216,日照市,市政府广场,,45,12,53,3,26,142,142,100,100,9,25,12,15,0.6,0.8
2026-06-14T1000,1661A,119.5511,35.4113,日照市,港务局,,47,14,56,3,32,149,149,102,102,6,20,5,8,0.6,0.8
2026-06-14T1000,3507A,119.5326,35.4627,日照市,职业技术学院,,47,17,62,3,30,149,149,99,99,6,20,7,9,0.5,0.8
2026-06-14T1000,3604A,119.3267,35.1043,日照市,岚山环保分局,,45,12,55,3,21,144,144,102,102,13,25,9,12,0.6,0.9
2026-06-14T1000,1835A,111.1922,34.7752,三门峡市,市政府,,40,40,35,15,15,109,109,69,69,8,17,15,10,0.4,0.4
2026-06-14T1000,1836A,111.1588,34.794,三门峡市,开发区,,36,34,37,16,15,114,114,71,71,11,14,10,8,0.6,0.6
2026-06-14T1000,3039A,111.1911,34.7829,三门峡市,三门峡市第一小学,颗粒物(PM10),53,54,40,23,16,115,115,72,72,9,17,16,12,0.3,0.2
2026-06-14T1000,3598A,111.1031,34.719,三门峡市,富达温泉假日酒店,,40,40,46,17,19,102,102,58,58,19,20,11,12,0.6,0.6
2026-06-14T1000,2324A,117.621,26.2626,三明市,三钢,,14,14,27,9,20,22,22,21,20,18,18,5,5,1.2,1
2026-06-14T1000,2325A,117.6352,26.2714,三明市,三明二中,,18,18,34,8,24,25,25,22,21,15,16,4,3,1.3,1.1
2026-06-14T1000,2326A,117.6028,26.2377,三明市,三元区政府,,18,NA,30,12,29,25,25,17,17,13,17,5,5,1.1,1.1
2026-06-14T1000,1877A,109.4962,18.2682,三亚市,河西子站,细颗粒物(PM2.5),64,NA,21,42,12,72,72,73,70,10,6,3,3,0.5,0.5
2026-06-14T1000,3540A,109.7348,18.3443,三亚市,君悦子站,,25,19,17,8,8,79,79,60,60,4,5,2,2,0.4,0.4
2026-06-14T1000,4135A,109.1714,18.3739,三亚市,城东小学站,,30,30,24,9,11,68,68,57,56,4,5,/,/,/,/
2026-06-14T1000,2624A,91.7592,29.234,山南市,山南监测站,,24,24,9,3,3,74,74,101,90,17,4,9,8,0.3,0.2
2026-06-14T1000,2625A,91.7701,29.2436,山南市,山南人民医院,,29,29,14,3,4,73,73,105,94,16,3,8,7,0.3,0.1
2026-06-14T1000,1674A,116.6795,23.3666,汕头市,金平子站,,16,NA,10,3,5,50,50,46,46,7,8,3,3,0.5,0.6
2026-06-14T1000,1675A,116.7248,23.3632,汕头市,龙湖子站,,15,7,12,3,6,48,48,44,44,3,5,6,6,/,/
2026-06-14T1000,1676A,116.7257,23.2774,汕头市,濠江子站,,17,6,14,3,6,52,52,44,44,6,11,8,8,/,/
2026-06-14T1000,1677A,116.7518,23.4712,汕头市,澄海子站,,15,13,15,3,8,45,45,40,39,6,7,3,4,0.6,0.6
2026-06-14T1000,1678A,116.6088,23.2539,汕头市,潮阳子站,NA,NA,NA,12,5,7,54,54,47,47,3,7,6,6,0.5,0.6
2026-06-14T1000,3444A,116.4539,23.2684,汕头市,潮南峡山,,14,6,12,3,5,44,44,44,44,5,7,6,7,0.8,0.8
2026-06-14T1000,3624A,116.4069,23.2533,汕头市,潮南子站,,12,6,14,3,7,38,38,43,43,9,8,5,6,/,/
2026-06-14T1000,1693A,115.3653,22.7751,汕尾市,市环保局,,40,40,28,11,8,60,60,51,51,4,6,5,5,0.6,0.5
2026-06-14T1000,1695A,115.362,22.7926,汕尾市,新城中学,,26,26,21,10,7,63,63,56,56,3,5,6,6,0.5,0.5
2026-06-14T1000,2645A,109.9155,33.8714,商洛市,监测站,,33,33,28,19,15,84,84,50,50,12,14,8,8,0.7,0.6
2026-06-14T1000,3045A,109.9647,33.8486,商洛市,商州区中学,,47,47,31,20,15,81,81,67,64,13,12,10,9,0.8,0.8
2026-06-14T1000,2408A,115.6701,34.4283,商丘市,环境监测站,,39,36,33,26,18,124,124,91,91,5,7,4,4,0.4,0.4
2026-06-14T1000,2409A,115.6458,34.4047,商丘市,粮食局,,38,32,26,16,17,121,121,87,87,4,5,6,6,0.4,0.3
2026-06-14T1000,3171A,115.6069,34.4465,商丘市,梁园区档案局,,38,29,30,21,16,119,119,87,87,6,9,2,2,0.2,0.2
2026-06-14T1000,4119A,115.6701,34.3767,商丘市,北海东路185号,,39,24,30,21,18,122,122,82,82,8,14,4,4,0.4,0.4
2026-06-14T1000,4120A,115.6172,34.3704,商丘市,中山大街3号,,39,24,36,17,17,124,124,80,80,4,10,7,7,0.4,0.4
2026-06-14T1000,1141A,121.401,31.2382,上海市,普陀,,35,12,15,10,12,112,112,118,116,15,13,5,5,0.2,0.2
2026-06-14T1000,1142A,121.4774,31.2043,上海市,十五厂,,35,16,19,11,13,109,109,120,116,11,8,6,6,0.7,0.5
2026-06-14T1000,1143A,121.4673,31.3011,上海市,虹口,,33,11,17,9,12,103,103,112,109,9,6,3,4,0.6,0.6
2026-06-14T1000,1147A,121.4253,31.226,上海市,静安监测站,,34,10,14,8,11,107,107,113,110,14,12,8,8,0.5,0.5
2026-06-14T1000,1148A,121.7029,31.1905,上海市,浦东川沙,,37,6,16,3,12,116,116,125,122,16,9,6,7,0.8,0.8
2026-06-14T1000,1149A,121.5339,31.229,上海市,浦东新区监测站,,28,13,16,12,12,87,87,113,107,17,6,6,6,0.4,0.4
2026-06-14T1000,1150A,121.5776,31.2038,上海市,浦东张江,,34,10,15,8,12,106,106,130,124,18,7,6,6,0.1,0.2
2026-06-14T1000,3265A,121.4242,31.3303,上海市,宝山庙行,,33,11,17,11,12,104,104,117,113,12,6,9,9,0.3,0.3
2026-06-14T1000,3266A,121.8789,31.4662,上海市,崇明上实东滩,,48,8,15,6,12,152,152,136,135,5,9,8,8,0.3,0.3
2026-06-14T1000,3268A,121.316,31.2839,上海市,嘉定南翔,,33,7,14,7,11,104,104,108,106,12,12,5,5,0.3,0.3
2026-06-14T1000,3269A,121.3357,30.7455,上海市,金山新城,,34,NA,11,3,9,108,108,114,111,4,5,3,4,0.6,0.6
2026-06-14T1000,3270A,121.4996,31.0741,上海市,闵行浦江,,31,11,16,11,12,99,99,111,108,12,8,5,6,0.2,0.2
2026-06-14T1000,3271A,121.2886,31.1663,上海市,青浦徐泾,,33,11,18,9,13,104,104,106,105,5,5,5,6,0.3,0.3
2026-06-14T1000,3272A,121.2193,31.0382,上海市,松江图书馆,,32,20,24,13,15,102,102,113,110,13,10,7,7,0.4,0.3
2026-06-14T1000,3273A,121.3904,31.206,上海市,长宁仙霞,,33,NA,15,10,12,103,103,112,110,11,10,5,6,0.2,0.2
2026-06-14T1000,3274A,121.7964,31.0507,上海市,浦东惠南,,35,NA,15,3,11,111,111,138,132,19,9,7,8,0.4,0.6
2026-06-14T1000,3544A,121.4891,30.925,上海市,奉贤南桥新城,,36,10,14,9,10,114,114,122,120,5,5,6,7,0.4,0.4
2026-06-14T1000,4183A,121.417401,31.16637,上海市,冠生园路458号,,30,13,16,10,13,94,94,104,102,14,11,5,6,0.6,0.6
2026-06-14T1000,4205A,121.541914,31.268301,上海市,宁武路151号,,30,16,25,10,14,94,94,111,105,29,16,7,7,0.3,0.2
2026-06-14T1000,2382A,117.9758,28.4439,上饶市,市监测站,颗粒物(PM10),92,108,26,24,11,48,48,40,39,15,15,9,8,/,/
2026-06-14T1000,2383A,117.9521,28.4637,上饶市,凤凰光学,,23,NA,16,16,8,46,46,39,36,14,14,12,10,0.6,0.5
2026-06-14T1000,3685A,117.897,28.4316,上饶市,双创科技城,,26,20,14,18,9,42,42,36,32,18,18,13,8,0.4,0.4
2026-06-14T1000,4211A,118.190438,28.444845,上饶市,裕丰大道,,13,10,15,3,11,39,39,31,31,9,13,6,7,0.5,0.5
2026-06-14T1000,1669A,113.5821,24.7733,韶关市,市八中,,13,13,19,8,12,32,32,30,30,11,16,5,32,0.6,0.7
2026-06-14T1000,1671A,113.5916,24.7973,韶关市,园林处,,11,7,15,3,10,33,33,28,28,12,18,8,25,/,/
2026-06-14T1000,1673A,113.5971,24.6864,韶关市,曲江监测站,,24,24,16,16,10,27,27,30,28,20,15,7,10,1.0,0.7
2026-06-14T1000,2809A,113.6668,24.7756,韶关市,大学路288号,,26,21,21,18,14,33,33,29,29,12,14,9,14,/,/
2026-06-14T1000,3622A,113.5556,24.8082,韶关市,碧湖山庄,,11,7,15,3,9,33,33,27,27,10,14,2,3,0.6,0.6
2026-06-14T1000,2464A,111.5277,27.2442,邵阳市,市化工厂,NA,NA,20,11,12,11,54,54,42,42,4,5,NA,7,0.3,0.5
2026-06-14T1000,2466A,111.4327,27.2276,邵阳市,市环保局,,15,15,8,10,12,36,36,37,37,4,6,4,3,0.5,0.6
2026-06-14T1000,4218A,111.446,27.2472,邵阳市,北塔二期4-26地块,,15,15,13,3,7,34,34,32,32,4,7,4,4,0.3,0.4
2026-06-14T1000,4219A,111.4739,27.2282,邵阳市,邵水西路287号,,15,13,12,10,12,40,40,40,39,4,6,4,4,0.2,0.3
2026-06-14T1000,1247A,120.6053,29.9927,绍兴市,城东开发委,,22,9,17,3,11,69,69,67,65,11,11,8,8,0.3,0.3
2026-06-14T1000,2921A,120.5482,30.0003,绍兴市,树下王站,NA,NA,10,18,6,14,73,73,71,69,NA,9,7,7,0.3,0.3
2026-06-14T1000,3408A,120.5685,29.936,绍兴市,绍兴中专,,25,8,17,3,10,79,79,63,63,8,10,6,5,0.4,0.4
2026-06-14T1000,3409A,120.4905,30.086,绍兴市,柯桥区政府,,23,NA,19,14,14,71,71,71,71,8,10,4,5,0.5,0.4
2026-06-14T1000,3410A,120.8751,30.0249,绍兴市,重华小学,,22,6,17,3,13,70,70,66,66,11,11,8,8,0.5,0.5
2026-06-14T1000,3411A,120.837,30.0137,绍兴市,上虞中学,,23,6,18,6,13,72,72,71,71,9,7,6,6,0.5,0.4
2026-06-14T1000,3560A,120.4715,30.0414,绍兴市,柯桥妇保,,25,10,20,7,12,78,78,76,76,10,13,6,5,0.4,0.4
2026-06-14T1000,3658A,120.6156,30.0762,绍兴市,袍江中学,,24,NA,15,8,13,74,74,74,72,9,10,6,6,0.4,0.4
2026-06-14T1000,1356A,114.0948,22.5506,深圳市,通心岭子站,NA,NA,27,14,NA,6,56,56,47,47,7,13,2,2,0.5,0.5
2026-06-14T1000,1357A,114.1153,22.5713,深圳市,洪湖,,28,28,16,11,8,56,56,47,47,5,12,5,5,0.3,0.3
2026-06-14T1000,1358A,113.9823,22.5398,深圳市,华侨城,,29,29,18,16,6,49,49,53,53,15,10,/,/,/,/
2026-06-14T1000,1359A,113.9181,22.517,深圳市,南海子站,,32,32,16,11,7,56,56,51,51,8,13,5,5,0.8,0.7
2026-06-14T1000,1360A,114.2345,22.565,深圳市,盐田,,27,27,18,11,6,54,54,38,38,6,21,5,6,0.2,0.3
2026-06-14T1000,1363A,114.4911,22.5381,深圳市,南澳,,18,13,15,3,4,56,56,53,53,6,6,/,/,/,/
2026-06-14T1000,1364A,114.41,22.6346,深圳市,葵涌,,17,17,13,10,6,52,52,34,34,5,11,6,6,0.6,0.6
2026-06-14T1000,1365A,114.2967,22.5978,深圳市,梅沙,,28,28,18,10,5,19,19,10,10,20,16,/,/,/,/
2026-06-14T1000,1366A,114.0563,22.7353,深圳市,观澜,,25,25,17,11,5,52,52,51,51,12,15,6,6,0.4,0.4
2026-06-14T1000,3305A,114.0614,22.556,深圳市,莲花,,32,32,17,17,8,45,45,40,40,8,10,/,/,/,/
2026-06-14T1000,3306A,114.0144,22.6163,深圳市,民治,,31,31,16,12,6,49,49,52,52,9,9,/,/,/,/
2026-06-14T1000,3307A,114.1756,22.6421,深圳市,横岗,,23,23,14,13,8,57,57,49,49,10,15,/,/,/,/
2026-06-14T1000,3447A,114.344,22.7115,深圳市,坪山,,17,8,11,3,6,52,52,34,34,6,10,6,6,0.6,0.6
2026-06-14T1000,3623A,113.8952,22.586,深圳市,西乡,,27,27,19,9,5,67,67,61,61,7,13,4,6,0.8,0.8
2026-06-14T1000,4220A,114.214113,22.713717,深圳市,黄阁路,,20,20,16,7,6,44,44,35,35,13,18,6,6,0.1,0.1
2026-06-14T1000,1099A,123.5058,41.7084,沈阳市,浑南东路,,29,27,27,15,21,92,92,34,34,31,51,11,8,0.5,0.6
2026-06-14T1000,1100A,123.4238,41.6992,沈阳市,新秀街,,31,20,38,17,20,98,98,33,33,20,43,13,6,0.4,0.5
2026-06-14T1000,1102A,123.5903,41.8412,沈阳市,东陵路,,37,37,36,10,19,108,108,67,62,18,21,8,6,0.8,0.8
2026-06-14T1000,1103A,123.4267,41.8466,沈阳市,陵东街,,27,27,32,12,24,77,77,29,29,17,24,7,7,0.6,0.8
2026-06-14T1000,1104A,123.4116,41.7654,沈阳市,文化路,,33,33,36,15,21,102,102,61,61,17,29,5,5,0.6,0.8
2026-06-14T1000,1105A,123.4673,41.787,沈阳市,小河沿,,34,34,48,12,23,95,95,43,43,18,25,8,4,0.6,0.7
2026-06-14T1000,1106A,123.4019,41.7978,沈阳市,太原街,,35,35,42,16,22,100,100,73,73,13,19,4,4,0.4,0.6
