timepoint,stationcode,longitude,latitude,area,positionname,primarypollutant,aqi,pm10,pm10_24h,pm2_5,pm2_5_24h,o3,o3_24h,o3_8h,o3_8h_24h,no2,no2_24h,so2,so2_24h,co,co_24h
2026-07-11T2300,2568A,102.2503,31.8896,阿坝藏族羌族自治州,马师校,,29,29,21,3,5,27,27,85,66,7,5,3,3,0.5,0.5
2026-07-11T2300,3994A,102.2174,31.9016,阿坝藏族羌族自治州,马尔康中学西区,,17,17,10,6,7,36,36,85,70,5,5,2,2,0.4,0.4
2026-07-11T2300,2695A,80.2899,41.1684,阿克苏地区,电视台,颗粒物(PM10),60,63,44,20,20,112,112,139,134,10,11,5,5,0.4,0.4
2026-07-11T2300,2696A,80.2592,41.1541,阿克苏地区,艺术中心,,41,41,40,19,17,114,114,148,139,15,25,4,4,0.3,0.3
2026-07-11T2300,2205A,105.699,38.8409,阿拉善盟,蒙二幼,,28,17,17,10,9,87,87,87,87,3,4,9,9,0.4,0.4
2026-07-11T2300,2206A,105.7198,38.8508,阿拉善盟,环保局新楼,,29,17,17,8,8,90,90,90,89,3,4,9,9,0.5,0.5
2026-07-11T2300,2708A,88.1266,47.8515,阿勒泰地区,市站,,30,30,27,18,7,52,52,106,97,39,10,7,7,0.4,0.2
2026-07-11T2300,4166A,88.1198,47.7931,阿勒泰地区,阿勒泰路33号,,25,22,23,9,6,80,80,102,100,13,5,7,7,0.3,0.3
2026-07-11T2300,2630A,80.1171,32.4999,阿里地区,阿里监测站,,31,20,10,8,2,97,97,104,103,8,3,6,6,0.3,0.2
2026-07-11T2300,3192A,80.0906,32.5029,阿里地区,阿里藏医院,,31,11,10,3,3,99,99,107,106,2,2,2,2,0.3,0.2
2026-07-11T2300,2644A,109.0088,32.6974,安康市,汉滨区检察院,,24,24,21,8,10,56,56,81,60,5,7,3,3,0.4,0.5
2026-07-11T2300,4054A,109.0324,32.6913,安康市,市邮政管理局,,22,22,22,13,15,54,54,77,59,3,6,3,8,0.6,0.7
2026-07-11T2300,2291A,117.0806,30.5181,安庆市,环科院,,29,29,32,13,19,55,55,109,82,2,8,9,10,0.5,0.6
2026-07-11T2300,2292A,117.0331,30.5118,安庆市,马山宾馆,,30,30,31,11,18,55,55,110,82,3,6,2,3,0.3,0.4
2026-07-11T2300,2294A,116.9897,30.6146,安庆市,安庆大学,,31,31,26,14,17,59,59,105,81,1,4,4,4,0.4,0.5
2026-07-11T2300,3173A,117.0598,30.5351,安庆市,市人大,,35,35,31,11,18,54,54,110,81,2,6,5,6,0.4,0.5
2026-07-11T2300,3123A,105.9408,26.2431,安顺市,凤凰山,,23,23,11,8,7,6,6,57,40,29,6,5,5,0.6,0.4
2026-07-11T2300,3124A,105.9443,26.2567,安顺市,金钟山,,25,19,8,17,9,24,24,64,47,13,4,6,6,0.6,0.4
2026-07-11T2300,3125A,105.8983,26.248,安顺市,娄家坡,,16,NA,6,11,7,22,22,60,45,10,3,6,6,0.4,0.4
2026-07-11T2300,1819A,114.3552,36.1017,安阳市,红庙街,,42,29,26,19,15,134,134,126,126,9,9,3,6,0.6,0.5
2026-07-11T2300,1820A,114.361,36.0681,安阳市,银杏小区,,43,31,30,26,21,135,135,135,135,4,5,3,3,0.1,0.1
2026-07-11T2300,3141A,114.3921,36.0879,安阳市,信访局,NA,NA,40,31,19,19,150,150,148,148,NA,7,3,3,0.5,0.4
2026-07-11T2300,3669A,114.4706,36.0634,安阳市,左辅环卫站,,45,43,33,31,18,97,97,123,118,14,10,3,3,0.4,0.4
2026-07-11T2300,4117A,114.2918,36.0769,安阳市,钢三路198号,,34,32,31,22,16,106,106,123,118,9,6,2,2,0.6,0.5
2026-07-11T2300,1748A,123.0441,41.1201,鞍山市,深沟寺,,15,14,12,10,9,43,43,50,50,3,4,6,6,0.4,0.4
2026-07-11T2300,1749A,123.011,41.0931,鞍山市,太阳城,,19,19,12,11,11,44,44,55,48,2,4,6,6,0.7,0.7
2026-07-11T2300,1750A,123.0483,41.1445,鞍山市,太平,,22,22,18,12,11,40,40,51,46,3,5,6,6,0.5,0.6
2026-07-11T2300,1751A,122.964,41.0968,鞍山市,铁西三道街,,23,23,19,12,10,41,41,57,48,3,6,5,5,0.6,0.8
2026-07-11T2300,1753A,123.0219,41.0822,鞍山市,明达新区,,18,18,17,10,11,44,44,58,49,4,5,2,3,0.4,0.5
2026-07-11T2300,4201A,122.944647,41.082639,鞍山市,兴盛南路290号,,24,24,20,13,12,33,33,50,44,12,10,4,4,1.3,1
2026-07-11T2300,2195A,107.4206,40.7609,巴彦淖尔市,附二中,颗粒物(PM10),52,52,36,21,16,83,83,97,93,6,7,12,12,0.7,0.6
2026-07-11T2300,2196A,107.37,40.7372,巴彦淖尔市,市环保大楼,颗粒物(PM10),63,67,69,22,17,86,86,90,88,5,7,9,10,0.6,0.6
2026-07-11T2300,1956A,86.1476,41.7529,巴音郭楞蒙古自治州,孔雀公园,颗粒物(PM10),110,145,98,50,29,80,80,116,109,30,24,6,6,0.4,0.3
2026-07-11T2300,1957A,86.1971,41.7166,巴音郭楞蒙古自治州,棉纺厂,颗粒物(PM10),103,126,101,39,30,96,96,124,119,12,17,/,/,/,/
2026-07-11T2300,1958A,86.236,41.7172,巴音郭楞蒙古自治州,经济开发区,颗粒物(PM10),70,77,68,31,21,96,96,118,115,10,8,4,4,0.2,0.2
2026-07-11T2300,3181A,106.776805,31.852614,巴中市,市五中,,33,23,20,23,14,28,28,80,61,14,9,8,8,0.7,0.6
2026-07-11T2300,3183A,106.7419,31.8654,巴中市,圣泉水务公司,,29,NA,19,20,13,32,32,80,59,15,9,9,9,0.9,0.8
2026-07-11T2300,3616A,106.7617,31.8343,巴中市,市中心医院,颗粒物(PM10),54,55,29,23,15,24,24,82,61,21,10,7,7,1.0,0.8
2026-07-11T2300,2235A,122.7909,45.608,白城市,洮北区环保局,,22,11,18,7,15,68,68,90,83,6,5,6,5,0.3,0.2
2026-07-11T2300,2236A,122.8741,45.5725,白城市,市环保局,,20,7,14,3,12,64,64,100,92,11,6,2,3,0.4,0.4
2026-07-11T2300,2231A,126.4219,41.9172,白山市,喜丰,,36,36,28,3,9,25,25,33,26,3,9,11,11,0.4,0.5
2026-07-11T2300,2232A,126.4082,41.9416,白山市,环保局,,10,10,13,3,1,25,25,36,28,2,6,11,10,0.4,0.6
2026-07-11T2300,2647A,104.1727,36.5448,白银市,第三小学,,20,8,12,8,14,64,64,89,75,14,11,1,3,0.2,0.1
2026-07-11T2300,2648A,104.1467,36.5482,白银市,动力公司,,22,10,9,9,9,68,68,80,75,8,5,3,3,0.5,0.4
2026-07-11T2300,2512A,106.6102,23.901,百色市,市监测站,,16,16,23,9,8,14,14,77,55,21,10,6,11,0.4,0.5
2026-07-11T2300,2513A,106.6524,23.8842,百色市,市中心血站,,37,37,27,18,13,45,45,71,57,18,10,28,28,0.3,0.2
2026-07-11T2300,4133A,106.6273,23.8798,百色市,龙景西路,,46,33,32,32,15,16,16,77,56,36,13,12,16,0.6,0.5
2026-07-11T2300,2270A,117.396,32.9389,蚌埠市,工人疗养院,,29,29,32,12,15,34,34,104,76,8,11,5,5,0.2,0.2
2026-07-11T2300,2271A,117.3606,32.9428,蚌埠市,百货大楼,,27,27,29,13,15,36,36,107,78,9,10,8,9,0.5,0.6
2026-07-11T2300,2273A,117.4183,32.8909,蚌埠市,蚌埠学院,,20,19,26,14,18,22,22,100,67,16,7,6,6,0.2,0.3
2026-07-11T2300,2274A,117.3534,32.9672,蚌埠市,淮上区政府,,27,27,29,12,17,38,38,115,83,4,8,5,5,0.3,0.3
2026-07-11T2300,2275A,117.3143,32.8977,蚌埠市,高新区,,24,24,27,13,16,36,36,100,76,5,7,8,9,0.3,0.4
2026-07-11T2300,3715A,117.3091,32.9314,蚌埠市,蚌埠田家炳中学,,27,27,32,18,18,38,38,107,82,3,5,7,7,0.4,0.5
2026-07-11T2300,1585A,109.8761,40.6533,包头市,市环境监测站,,30,30,27,19,23,38,38,60,47,25,23,4,6,0.4,0.7
2026-07-11T2300,1587A,109.9992,40.5843,包头市,包头八中,,20,20,34,13,20,51,51,45,NA,16,24,6,7,0.5,0.6
2026-07-11T2300,1589A,109.8641,40.6288,包头市,惠龙物流,,35,NA,29,24,24,43,43,62,58,16,17,2,3,0.4,0.6
2026-07-11T2300,1590A,110.0376,40.5546,包头市,东河鸿龙湾,,20,20,25,14,20,51,51,71,68,9,18,4,6,0.3,0.4
2026-07-11T2300,3283A,109.9154,40.5684,包头市,滨河大厦,,23,17,25,16,25,38,38,63,55,24,20,5,6,0.4,0.5
2026-07-11T2300,3419A,109.9449,40.6259,包头市,包头市委党校,,29,NA,21,20,21,61,61,70,64,16,22,7,9,0.2,0.4
2026-07-11T2300,3683A,109.8332,40.6577,包头市,昆区政府,,23,23,30,9,23,56,56,66,63,18,25,4,8,0.6,1
2026-07-11T2300,1931A,107.0802,34.3129,宝鸡市,竹园沟,,13,11,19,6,12,39,39,56,46,8,5,6,7,0.6,0.9
2026-07-11T2300,1933A,107.1429,34.3549,宝鸡市,监测站,,13,9,21,7,10,39,39,62,53,9,5,6,7,0.3,0.3
2026-07-11T2300,1934A,107.1172,34.3759,宝鸡市,技工学校,,23,23,18,10,12,27,27,68,51,7,3,5,5,0.5,0.5
2026-07-11T2300,1936A,107.2025,34.3518,宝鸡市,文理学院,,17,17,22,8,12,47,47,71,62,12,8,7,8,0.5,0.6
2026-07-11T2300,1937A,107.2396,34.3626,宝鸡市,三迪小学,,18,18,20,8,10,49,49,77,65,12,10,8,8,0.4,0.4
2026-07-11T2300,4155A,107.1721,34.3558,宝鸡市,滨河北路,,14,14,18,8,11,36,36,66,56,8,4,6,6,0.6,0.6
2026-07-11T2300,4308A,107.3898,34.3601,宝鸡市,陈仓区北开路21号,,15,15,23,10,12,43,43,75,61,14,8,4,4,0.4,0.4
2026-07-11T2300,1051A,115.4803,38.8568,保定市,游泳馆,,27,27,36,15,24,64,64,120,94,2,2,7,6,0.2,0.3
2026-07-11T2300,1052A,115.509,38.8895,保定市,华电二区,,32,21,37,13,21,100,100,166,147,4,6,3,3,0.6,0.8
2026-07-11T2300,1053A,115.4588,38.9037,保定市,接待中心,,28,28,54,13,24,73,73,116,96,2,4,1,1,0.4,0.6
2026-07-11T2300,1054A,115.4484,38.8344,保定市,地表水厂,,25,NA,54,17,21,67,67,132,106,5,5,1,2,0.6,0.7
2026-07-11T2300,3581A,115.3136,38.9511,保定市,满城区生态环境分局,,30,NA,28,8,21,96,96,123,112,3,6,3,3,0.1,0.3
2026-07-11T2300,3582A,115.4709,38.7628,保定市,清苑区第二中学,,38,38,64,17,24,80,80,127,101,1,4,5,6,0.3,0.5
2026-07-11T2300,3583A,115.6231,39.0223,保定市,徐水物探局,,29,NA,21,12,21,92,92,110,103,6,10,4,4,0.3,0.5
2026-07-11T2300,4004A,115.4199,38.8665,保定市,双鹰农机,,27,8,31,3,25,84,84,132,110,4,4,2,2,0,0.2
2026-07-11T2300,4034A,115.515,38.8589,保定市,植保所站,,25,15,31,14,18,78,78,137,112,6,7,4,3,0,0.2
2026-07-11T2300,2594A,99.1589,25.1137,保山市,市环境监测站,,14,14,10,8,6,28,28,46,39,13,7,6,6,0.3,0.3
2026-07-11T2300,2595A,99.1616,25.1381,保山市,市环保局,,15,15,10,3,14,26,26,46,40,7,3,5,5,0.3,0.2
2026-07-11T2300,1867A,109.1435,21.4085,北海市,海滩公园,,26,12,22,12,7,81,81,82,82,3,2,1,1,0.4,0.4
2026-07-11T2300,1868A,109.0983,21.466,北海市,新市环保局,,24,15,17,3,7,74,74,79,78,7,6,1,2,0.2,0.2
2026-07-11T2300,1869A,109.1775,21.5232,北海市,北海工业园,,23,NA,20,13,7,72,72,77,72,5,7,1,2,0.4,0.4
2026-07-11T2300,3400A,109.1844,21.4396,北海市,龙潭自来水厂,,23,15,18,6,8,72,72,73,73,4,3,3,2,0.4,0.4
2026-07-11T2300,1001A,116.3611,39.8786,北京市,万寿西宫,,24,6,27,3,22,74,74,89,83,3,8,2,2,0.4,0.6
2026-07-11T2300,1003A,116.4174,39.9289,北京市,东四,,24,NA,28,3,23,75,75,88,82,6,11,3,3,0.5,0.8
2026-07-11T2300,1004A,116.4073,39.8858,北京市,天坛,,21,14,29,8,19,65,65,73,67,4,8,1,1,0.7,1
2026-07-11T2300,1005A,116.4622,39.9364,北京市,农展馆,,20,7,27,3,20,64,64,79,72,9,14,3,2,0.5,0.7
2026-07-11T2300,1006A,116.3399,39.9293,北京市,官园,,25,6,33,3,22,80,80,93,88,8,14,5,5,0.4,0.7
2026-07-11T2300,1007A,116.2879,39.9613,北京市,海淀万柳,,21,6,30,3,18,65,65,78,77,7,12,5,5,0.5,0.7
2026-07-11T2300,1008A,116.6635,40.1349,北京市,顺义新城,,25,13,20,8,15,80,80,85,85,6,6,1,1,0.5,0.7
2026-07-11T2300,1009A,116.6275,40.327,北京市,怀柔镇,,20,6,26,3,18,62,62,78,76,3,6,3,3,0.6,0.7
2026-07-11T2300,1010A,116.2295,40.217,北京市,昌平镇,,21,6,25,3,15,65,65,88,82,4,8,3,3,0.7,1
2026-07-11T2300,1011A,116.3968,39.982,北京市,奥体中心,,22,6,26,3,19,70,70,79,78,7,14,2,2,0.4,0.7
2026-07-11T2300,3418A,116.8336,40.4095,北京市,密云新城,,20,12,22,6,13,62,62,71,62,4,6,3,3,0.5,0.6
2026-07-11T2300,3671A,116.0879,39.9725,北京市,门头沟三家店,,20,6,20,3,16,61,61,81,76,5,7,1,2,0.5,0.6
2026-07-11T2300,3672A,116.1507,39.8246,北京市,丰台云岗,,18,18,29,10,18,50,50,81,64,7,8,2,2,0.7,0.8
2026-07-11T2300,3674A,115.9578,39.7602,北京市,房山燕山,,36,34,28,25,17,63,63,94,90,10,6,1,1,0.6,0.6
2026-07-11T2300,3675A,116.4669,39.7734,北京市,大兴旧宫,,20,14,20,14,16,48,48,77,67,14,11,3,1,0.6,0.9
2026-07-11T2300,3694A,115.9859,40.4562,北京市,延庆石河营,,16,8,14,3,11,51,51,78,71,5,6,2,2,0.4,0.6
2026-07-11T2300,3695A,116.6151,40.3052,北京市,怀柔新城,,20,6,24,3,17,61,61,68,67,2,4,3,2,0.7,0.8
2026-07-11T2300,3696A,116.2542,39.8764,北京市,丰台小屯,,20,6,30,3,20,61,61,80,79,4,4,2,2,0.7,0.9
2026-07-11T2300,3697A,116.8399,40.3843,北京市,密云镇,,16,13,20,11,16,50,50,64,62,5,8,2,1,0.5,0.6
2026-07-11T2300,4057A,115.9423,40.4431,北京市,延庆百泉,,21,6,14,3,10,67,67,86,82,4,4,1,1,0.5,0.7
2026-07-11T2300,4058A,116.6598,39.9164,北京市,通州新华,,26,12,26,10,20,83,83,84,84,9,10,3,2,0.5,0.8
2026-07-11T2300,4182A,116.1942,39.9158,北京市,石景山八角,,23,6,27,3,20,71,71,103,93,2,5,1,3,0.6,0.8
2026-07-11T2300,4194A,117.078628,40.151726,北京市,平谷新城,,26,13,16,10,13,83,83,88,88,2,3,1,1,0.5,0.6
2026-07-11T2300,1761A,123.8274146,41.31234549,本溪市,大峪,,20,16,10,14,6,48,48,50,50,1,2,5,5,0.3,0.3
2026-07-11T2300,1763A,123.7169,41.3094,本溪市,彩屯,,25,24,19,17,6,19,19,30,20,21,18,5,5,2.1,2.3
2026-07-11T2300,1764A,123.7672166,41.28649327,本溪市,东明,,15,14,13,10,5,44,44,58,42,3,3,6,6,0.4,0.4
2026-07-11T2300,1765A,123.799345,41.266614,本溪市,新立屯,,18,16,9,12,4,44,44,57,45,3,3,8,8,0.4,0.5
2026-07-11T2300,1766A,123.829144,41.336777,本溪市,威宁,,20,14,12,14,6,41,41,36,36,2,3,8,8,0.3,0.4
2026-07-11T2300,2587A,105.287,27.3133,毕节市,八中,,25,25,21,16,14,57,57,105,94,14,10,7,8,0.6,0.5
2026-07-11T2300,2588A,105.3079,27.2987,毕节市,师专,,25,25,19,15,12,60,60,100,90,12,10,7,7,0.5,0.4
2026-07-11T2300,4263A,105.3688,27.3598,毕节市,工业大道,,26,18,12,18,8,35,35,102,86,26,10,7,6,/,/
2026-07-11T2300,1629A,117.9961,37.3604,滨州市,第二水厂,,36,36,46,14,34,69,69,155,105,11,8,4,4,0.5,0.7
2026-07-11T2300,1630A,117.9789,37.3931,滨州市,北中新校,,31,31,42,11,26,70,70,162,109,17,14,4,4,0.4,0.6
2026-07-11T2300,3514A,117.9379,37.3959,滨州市,中海酒店,,31,31,36,12,23,71,71,159,117,18,12,12,8,0.5,0.5
2026-07-11T2300,3515A,117.9381509,37.35547456,滨州市,开发区一中,,39,39,49,14,28,61,61,143,101,12,8,12,8,0.7,0.7
2026-07-11T2300,3516A,118.0914,37.6938,滨州市,金海六路,,32,32,50,9,29,60,60,164,112,14,11,6,5,0.1,0.4
2026-07-11T2300,4028A,117.9955,37.3752,滨州市,滨州市西街道办事处,,34,34,39,12,24,67,67,158,105,11,9,3,4,0.3,0.6
2026-07-11T2300,2311A,115.8071,33.8399,亳州市,污水处理厂,,36,36,27,17,13,64,64,146,105,11,12,10,3,0.3,0.3
2026-07-11T2300,2312A,115.7789,33.8519,亳州市,三国揽胜宫,颗粒物(PM10),55,56,31,19,14,65,65,143,108,7,7,5,4,0.3,0.3
2026-07-11T2300,3332A,115.7631,33.803,亳州市,亳州学院,,26,26,17,18,14,68,68,149,111,7,9,3,2,0.3,0.3
2026-07-11T2300,2693A,82.0482,44.8553,博尔塔拉蒙古自治州,市党校,,38,38,46,12,10,118,118,131,130,8,4,3,3,0.0,0.1
2026-07-11T2300,2694A,82.0805,44.8966,博尔塔拉蒙古自治州,市环保局,NA,NA,27,42,20,10,NA,NA,130,130,NA,9,NA,3,NA,0.2
2026-07-11T2300,1071A,116.8733,38.2922,沧州市,沧县城建局,,43,NA,29,30,26,87,87,125,111,10,8,7,5,0.3,0.4
2026-07-11T2300,1072A,116.8462,38.3189,沧州市,电视转播站,,50,50,42,28,25,79,79,108,100,16,8,3,3,0.2,0.2
2026-07-11T2300,1073A,116.8588,38.3161,沧州市,市环保局,,47,47,46,27,25,78,78,104,97,12,10,3,3,0.2,0.3
2026-07-11T2300,3324A,116.8011,38.294,沧州市,河北水利电力学院,,42,29,27,29,25,101,101,139,126,12,10,3,2,0.2,0.2
2026-07-11T2300,2622A,97.1813,31.1289,昌都市,昌都监测站,,17,NA,7,3,3,52,52,69,60,6,7,7,7,0.3,0.4
2026-07-11T2300,3719A,97.1707,31.1428,昌都市,昌都会议中心,NA,NA,NA,6,4,3,60,60,80,70,4,4,5,5,0.5,0.5
2026-07-11T2300,2692A,87.2722,44.0298,昌吉回族自治州,新区政务中心,,43,NA,41,30,17,100,100,136,131,13,9,10,10,0.2,0.1
2026-07-11T2300,3613A,87.3069,44.0093,昌吉回族自治州,亚心广场,,46,46,54,20,15,90,90,138,132,31,13,8,8,0.4,0.2
2026-07-11T2300,4164A,87.2057,43.9289,昌吉回族自治州,财政所,颗粒物(PM10),66,72,50,24,13,78,78,141,133,20,11,8,7,0.3,0.2
2026-07-11T2300,1120A,125.2874,43.9024,长春市,客车厂,,13,9,12,9,12,26,26,84,33,9,7,4,4,0.5,0.5
2026-07-11T2300,1121A,125.2943,43.8508,长春市,邮电学院,,13,13,11,8,11,31,31,88,41,5,5,6,6,0.4,0.4
2026-07-11T2300,1122A,125.3648,43.8745,长春市,劳动公园,,14,14,11,7,10,27,27,76,30,6,7,5,5,0.4,0.4
2026-07-11T2300,1123A,125.3233,43.8781,长春市,园林处,,11,9,12,3,9,33,33,87,40,6,6,4,4,0.4,0.5
2026-07-11T2300,1124A,125.4604,43.7904,长春市,净月潭,,9,7,10,3,8,27,27,68,28,3,4,6,6,0.1,0.2
2026-07-11T2300,1126A,125.38,43.8422,长春市,经开区环卫处,,11,11,13,3,9,24,24,69,25,5,7,2,3,0.3,0.4
2026-07-11T2300,1127A,125.234,43.7761,长春市,高新区管委会,,10,6,11,6,9,29,29,72,34,4,5,4,4,0.3,0.3
2026-07-11T2300,1128A,125.1695,43.83,长春市,岱山公园,,16,13,12,11,12,23,23,70,26,10,10,1,2,0.4,0.4
2026-07-11T2300,4281A,125.334645,43.916281,长春市,北亚泰大街1068号,,15,10,13,10,12,20,20,76,27,12,11,2,3,0.6,0.6
2026-07-11T2300,1335A,113.082,28.2421,长沙市,经开区环保局,,32,30,31,22,19,88,88,106,98,15,11,3,5,0.6,0.5
2026-07-11T2300,1336A,112.8873,28.2202,长沙市,高开区环保局,,43,43,30,21,19,87,87,114,99,11,5,3,4,0.6,0.6
2026-07-11T2300,1337A,113.0785,28.2012,长沙市,马坡岭,,37,37,31,22,21,103,103,109,103,14,9,8,7,0.4,0.3
2026-07-11T2300,1338A,112.9448,28.1894,长沙市,湖南师范大学,,34,31,30,22,17,107,107,116,103,5,4,8,9,0.3,0.2
2026-07-11T2300,1339A,113.0177,28.1322,长沙市,雨花区环保局,,36,35,31,25,20,99,99,106,97,12,9,6,6,0.7,0.6
2026-07-11T2300,1340A,112.9795,28.2593,长沙市,伍家岭,,44,44,33,26,20,94,94,109,100,14,9,6,5,0.4,0.3
2026-07-11T2300,1341A,113.002,28.1944,长沙市,火车新站,,38,38,32,22,16,90,90,104,93,15,9,6,6,0.5,0.4
2026-07-11T2300,1342A,112.9846,28.1177,长沙市,天心区环保局,颗粒物(PM10),54,55,64,24,18,112,112,114,106,11,9,4,4,0.1,0
2026-07-11T2300,1343A,112.8906,28.1307,长沙市,湖南中医药大学,,42,39,35,29,21,95,95,117,99,16,16,8,7,0.4,0.4
2026-07-11T2300,1727A,113.1146,36.1547,长治市,清华站,,38,24,19,16,12,120,120,112,112,4,4,7,7,0.4,0.4
2026-07-11T2300,1730A,113.0887,36.2126,长治市,审计局,,38,28,22,15,13,120,120,113,113,2,2,8,8,0.6,0.5
2026-07-11T2300,1731A,113.0845,36.1856,长治市,长治八中,,36,30,27,15,11,114,114,107,107,5,4,10,10,0.6,0.6
2026-07-11T2300,2845A,113.1561,36.1912,长治市,德盛苑,,34,28,22,16,13,107,107,110,110,8,6,10,10,0.6,0.6
2026-07-11T2300,3568A,113.0603,36.0464,长治市,向阳小学,,41,41,28,17,14,101,101,105,105,14,6,5,5,0.4,0.3
2026-07-11T2300,3569A,112.8788,36.315,长治市,屯留一中,,36,36,28,20,16,67,67,103,95,8,4,9,10,1.3,1.4
2026-07-11T2300,4189A,113.113092,36.199482,长治市,英华南巷50号,,38,33,26,23,14,120,120,113,113,3,3,9,9,0.9,0.9
2026-07-11T2300,4190A,113.23666,36.33435,长治市,学府街1号,,30,30,26,10,14,95,95,103,103,6,7,5,6,0.4,0.4
2026-07-11T2300,1854A,111.696,28.9725,常德市,市二中,,30,22,19,19,15,96,96,106,91,5,6,6,6,1.1,1.1
2026-07-11T2300,3138A,111.7152,29.0288,常德市,武陵区永安,,32,30,24,22,16,90,90,106,94,4,6,7,6,0.4,0.5
2026-07-11T2300,3139A,111.6891,28.9881,常德市,鼎城区玉霞,,28,24,22,19,15,83,83,90,80,6,8,6,7,1.1,0.9
2026-07-11T2300,3140A,111.6651,29.0526,常德市,武陵区长庚,,36,36,24,21,18,68,68,110,98,8,7,7,9,0.7,0.6
2026-07-11T2300,1196A,119.9524,31.7586,常州市,市监测站,,37,37,36,13,11,30,30,56,37,1,7,12,13,0.2,0.3
2026-07-11T2300,1200A,119.9351,31.703,常州市,武进监测站,,33,33,30,10,10,30,30,56,37,5,10,27,19,0.3,0.4
2026-07-11T2300,3002A,119.9701,31.813,常州市,行政中心,,34,34,31,14,12,28,28,55,37,6,8,7,6,0.4,0.3
2026-07-11T2300,3003A,120.0434,31.7726,常州市,经开区,,41,41,35,9,10,33,33,54,37,6,10,8,8,0.5,0.6
2026-07-11T2300,3010A,119.8919,31.7892,常州市,钟楼,,33,33,32,17,12,30,30,60,42,7,10,8,7,0.4,0.4
2026-07-11T2300,3429A,119.8595,31.706,常州市,武进经发区,,39,39,36,14,14,29,29,57,36,1,5,4,5,0.5,0.6
2026-07-11T2300,3430A,119.5812,31.7256,常州市,金坛城区,,43,43,34,16,14,27,27,69,43,7,8,7,6,0.5,0.4
2026-07-11T2300,4089A,119.9551,31.863,常州市,崇义南街5-H号,,36,36,31,17,12,23,23,50,32,3,6,6,6,0.8,0.7
2026-07-11T2300,2220A,120.4318,41.588,朝阳市,西梁,,33,33,18,15,8,81,81,71,57,5,7,7,7,0.7,0.7
2026-07-11T2300,2221A,120.452,41.565,朝阳市,河畔小区,,30,24,12,10,11,94,94,82,67,4,6,8,8,0.7,0.7
2026-07-11T2300,2222A,120.4176,41.5648,朝阳市,八里堡,,26,20,15,18,9,72,72,78,55,7,9,5,5,0.7,0.7
2026-07-11T2300,3026A,116.6179,23.6608,潮州市,市政府,NA,NA,53,38,33,24,32,32,68,57,21,12,NA,10,0.6,0.6
2026-07-11T2300,4036A,116.646,23.676,潮州市,金山,,46,34,31,32,22,33,33,58,49,10,7,1,2,0.5,0.4
2026-07-11T2300,2473A,113.0116,25.8228,郴州市,市职中,细颗粒物(PM2.5),54,40,24,37,17,24,24,90,60,21,11,7,7,0.7,0.6
2026-07-11T2300,2475A,113.0381,25.8074,郴州市,市审计局,,43,40,28,30,18,49,49,93,74,7,7,5,7,/,/
2026-07-11T2300,2476A,113.0348,25.7757,郴州市,市环保局,细颗粒物(PM2.5),70,NA,20,45,20,22,22,87,67,31,14,8,8,0.6,0.5
2026-07-11T2300,4252A,113.0138,25.8011,郴州市,好美居路49号,,49,35,24,34,13,32,32,91,67,25,13,6,8,/,/
2026-07-11T2300,1431A,103.9727,30.7242,成都市,金泉两河,,32,32,16,16,10,76,76,118,107,10,8,1,2,0.2,0.2
2026-07-11T2300,1432A,104.1423,30.6765,成都市,十里店,,33,33,27,16,12,74,74,140,123,11,9,4,5,0.6,0.6
2026-07-11T2300,1433A,104.0594,30.5765,成都市,三瓦窑,,28,23,23,18,14,89,89,128,119,12,10,4,5,0.5,0.5
2026-07-11T2300,1434A,104.1122,30.6306,成都市,沙河铺,,30,26,26,21,16,53,53,129,108,17,12,4,4,0.5,0.5
2026-07-11T2300,2880A,104.0219,30.6561,成都市,大石西路,,27,21,24,18,12,85,85,112,106,10,11,3,4,0.6,0.6
2026-07-11T2300,3136A,104.2724,30.559,成都市,龙泉驿区区政府,,25,NA,17,15,15,78,78,140,112,8,9,7,7,0.5,0.5
2026-07-11T2300,3357A,104.0028,30.6891,成都市,金博路,,25,15,12,15,10,78,78,119,110,13,11,7,7,0.6,0.6
2026-07-11T2300,3359A,104.056,30.5228,成都市,华阳,NA,NA,NA,19,34,17,NA,NA,130,128,17,12,2,1,0.7,0.7
2026-07-11T2300,3488A,104.387954,30.746684,成都市,青白江技师分院,,23,NA,24,16,16,64,64,150,114,12,11,5,6,0.6,0.6
2026-07-11T2300,3489A,104.0788,30.4054,成都市,科学城,,28,24,14,13,8,89,89,132,111,11,8,5,5,0.7,0.6
2026-07-11T2300,4011A,103.8505,30.6946,成都市,光华大道三段,,32,NA,18,17,8,101,101,122,117,8,7,4,3,0.4,0.5
2026-07-11T2300,4144A,104.3257,30.6406,成都市,八角井街185号,,24,20,29,12,14,74,74,151,120,13,11,5,5,0.5,0.5
2026-07-11T2300,4224A,104.2433276,30.53529463,成都市,鲸龙路1057号,,27,20,21,15,13,86,86,145,126,14,13,7,7,0.7,0.7
2026-07-11T2300,1062A,117.9531,40.908,承德市,铁路,,21,21,15,6,7,24,24,64,40,18,19,4,4,0.4,0.4
2026-07-11T2300,1063A,117.9397,40.9763,承德市,中国银行,,16,16,14,7,6,26,26,72,45,12,11,1,2,0.6,0.5
2026-07-11T2300,4073A,117.9462,40.95,承德市,杏林街1号,,18,18,15,10,10,28,28,73,49,7,8,3,3,0.5,0.6
2026-07-11T2300,4274A,117.7994,40.9605,承德市,滨河大街98号,,16,16,15,3,5,35,35,69,61,10,6,3,4,0.3,0.4
2026-07-11T2300,2314A,117.4698,30.6617,池州市,池州学院,,24,24,27,12,16,39,39,77,70,12,12,6,5,0.6,0.7
2026-07-11T2300,3237A,117.4918,30.6617,池州市,展览馆,,32,32,32,15,18,40,40,84,75,9,7,7,4,0.5,0.7
2026-07-11T2300,3333A,117.5626,30.695,池州市,第八中学,,34,34,32,14,17,39,39,72,68,5,8,6,4,0.3,0.4
2026-07-11T2300,3334A,117.5037,30.6242,池州市,第十二中学,,26,26,31,12,17,39,39,73,66,6,11,6,4,0.4,0.6
2026-07-11T2300,1744A,118.9229,42.2816,赤峰市,松山一中,,29,23,15,13,13,92,92,104,90,6,10,6,6,0.6,0.6
2026-07-11T2300,1745A,118.9588,42.2733,赤峰市,哈达街,,23,19,19,8,11,73,73,86,73,8,12,12,11,0.6,0.6
2026-07-11T2300,1746A,118.8792,42.2551,赤峰市,天义路,,22,13,12,12,9,69,69,84,72,12,12,6,7,0.5,0.5
2026-07-11T2300,3058A,119.2656,42.0356,赤峰市,银河街,,20,NA,24,14,18,64,64,86,80,9,13,8,10,0.6,0.9
2026-07-11T2300,3286A,118.9359,42.3146,赤峰市,桥北物流园区,,23,23,12,14,10,59,59,93,67,18,13,4,4,0.5,0.5
2026-07-11T2300,2521A,107.3473,22.4137,崇左市,市环保局江州分局,,20,20,20,9,7,31,31,85,70,12,8,2,4,0.6,0.6
2026-07-11T2300,4256A,107.375,22.3736,崇左市,石景林东路7号,,14,NA,21,8,10,44,44,95,75,6,10,3,4,0.4,0.5
2026-07-11T2300,3207A,118.31131,32.3033,滁州市,市政府原办公楼,,35,25,29,24,24,31,31,99,60,3,7,6,10,0.3,0.4
2026-07-11T2300,3331A,118.3268,32.2633,滁州市,图书馆,,32,32,31,18,15,32,32,96,62,2,3,7,7,0.1,0.1
2026-07-11T2300,4101A,118.3196,32.3335,滁州市,银山路666号,,29,28,39,20,18,34,34,106,66,4,7,4,5,0.2,0.3
2026-07-11T2300,4102A,118.3426,32.2979,滁州市,黄山路555号,,29,29,34,17,21,30,30,98,60,7,6,6,7,0.2,0.3
2026-07-11T2300,2606A,101.5379,25.0492,楚雄彝族自治州,市经济开发区,,21,21,11,7,4,31,31,39,37,7,5,1,2,0.6,0.6
2026-07-11T2300,4153A,101.5536,25.0343,楚雄彝族自治州,团结路562号,,15,12,8,10,6,36,36,42,41,6,4,2,2,0.5,0.4
2026-07-11T2300,2549A,107.5087,31.2186,达州市,市环境监测站,,26,26,25,8,9,25,25,78,62,30,22,6,6,0.7,0.6
2026-07-11T2300,2550A,107.4988,31.2132,达州市,凤凰小区,,34,34,27,12,7,24,24,74,62,29,17,4,4,0.4,0.3
2026-07-11T2300,2551A,107.5081,31.1987,达州市,达县机关宾馆,,31,31,34,16,9,10,10,87,59,51,24,4,6,0.4,0.3
2026-07-11T2300,2552A,107.4644,31.2124,达州市,市政中心,,49,49,31,17,8,16,16,91,71,52,20,5,6,0.6,0.3
2026-07-11T2300,2614A,100.2168,25.5818,大理白族自治州,大理市环境监测站,,14,8,5,6,4,44,44,49,48,10,8,4,5,0.5,0.3
2026-07-11T2300,2615A,100.1542,25.7055,大理白族自治州,大理古城,,19,19,14,3,5,33,33,54,47,9,8,6,6,0.5,0.4
2026-07-11T2300,1109A,121.6119,38.974,大连市,甘井子,,24,24,21,13,10,31,31,60,44,8,7,8,7,0.5,0.5
2026-07-11T2300,1110A,121.565,38.9509,大连市,周水子,,21,21,19,13,10,34,34,58,45,10,11,6,6,0.8,0.7
2026-07-11T2300,1111A,121.5637,38.8849,大连市,星海三站,,25,25,21,14,9,28,28,57,44,4,3,6,6,0.8,0.8
2026-07-11T2300,1112A,121.6301,38.9117,大连市,青泥洼桥,,26,26,19,15,10,32,32,58,45,4,4,6,6,0.8,0.8
2026-07-11T2300,1113A,121.6248,38.8643,大连市,傅家庄,,28,28,22,12,9,28,28,54,42,3,4,6,5,0.6,0.5
2026-07-11T2300,1114A,121.5117,38.8636,大连市,七贤岭,NA,NA,22,18,NA,8,NA,NA,56,44,6,6,6,3,0.6,0.6
2026-07-11T2300,1116A,121.7507,39.1339,大连市,金州,,18,17,15,12,9,24,24,51,40,7,5,8,8,0.4,0.4
2026-07-11T2300,1117A,121.7811,39.0495,大连市,开发区,,30,30,24,13,9,28,28,55,44,7,7,6,7,0.4,0.4
2026-07-11T2300,1118A,121.9762,39.0631,大连市,双D港,,25,25,25,6,7,27,27,48,41,3,4,6,6,0.4,0.4
2026-07-11T2300,4082A,121.2548,38.8188,大连市,旅顺,,36,36,19,16,9,18,18,54,39,18,10,5,6,0.3,0.3
2026-07-11T2300,1789A,124.8085,46.0381,大庆市,大同区,,24,17,30,6,15,74,74,107,97,15,9,6,5,0.6,0.6
2026-07-11T2300,1790A,125.1166,46.5255,大庆市,龙凤区,,23,22,30,6,19,71,71,88,82,5,8,3,4,0.1,0.2
2026-07-11T2300,1791A,124.8894,46.4007,大庆市,红岗区,,21,9,26,3,17,66,66,88,82,5,5,8,8,0.6,0.6
2026-07-11T2300,1792A,125.1391,46.578,大庆市,萨尔图区,,24,22,36,12,23,74,74,87,83,6,8,9,6,0.1,0.2
2026-07-11T2300,1793A,124.9026,46.6217,大庆市,让胡路区,,23,18,34,16,23,66,66,81,78,9,7,4,4,0.6,0.7
2026-07-11T2300,3481A,125.127,46.6277,大庆市,萨区政府监测点,,26,11,21,11,24,83,83,100,96,2,2,6,6,0.3,0.4
2026-07-11T2300,1723A,113.2926,40.0759,大同市,云冈宾馆,,18,18,24,8,14,53,53,90,78,18,11,6,6,0.7,0.5
2026-07-11T2300,1724A,113.3437,40.0921,大同市,大同大学,,30,21,23,21,27,51,51,76,69,21,14,6,5,0.9,0.8
2026-07-11T2300,1725A,113.2637,40.129,大同市,安家小村,,25,21,24,17,17,50,50,93,79,17,11,7,7,0.6,0.4
2026-07-11T2300,3282A,113.3399,40.0586,大同市,大同市卫生学校,,36,NA,25,25,27,51,51,57,NA,19,14,4,5,2.0,1.2
2026-07-11T2300,3565A,113.1371,40.1122,大同市,云冈站,,12,11,19,3,16,38,38,76,59,13,13,4,5,0.8,0.8
2026-07-11T2300,3566A,113.1186,40.2556,大同市,图书馆,,17,15,30,6,17,53,53,88,74,10,11,5,6,0.7,0.9
2026-07-11T2300,3567A,113.5931,40.0459,大同市,区一中,,21,16,18,10,14,66,66,86,70,14,13,8,8,0.6,0.6
2026-07-11T2300,4199A,113.2798248,40.09972476,大同市,魏都大道141号,,30,25,27,21,18,38,38,81,69,24,13,5,4,1.1,0.7
2026-07-11T2300,2269A,124.1068,50.4091,大兴安岭地区,科技局,,29,29,24,12,14,15,15,72,51,6,5,5,5,0.2,0.2
2026-07-11T2300,3663A,124.117,50.4279,大兴安岭地区,红旗社区,,13,NA,10,8,11,41,41,78,56,2,6,5,5,0.2,0.3
2026-07-11T2300,1600A,124.33,40.0625,丹东市,江湾东路,,19,17,11,10,8,58,58,51,51,4,4,3,1,0.4,0.4
2026-07-11T2300,1601A,124.4242,40.1513,丹东市,临江后街,,18,18,12,12,7,50,50,44,44,2,2,5,4,0.5,0.4
2026-07-11T2300,1602A,124.3935,40.1461,丹东市,元宝山,,23,23,12,12,8,43,43,39,39,5,5,3,2,0.5,0.5
2026-07-11T2300,1603A,124.3634,40.1093,丹东市,民主桥,,18,18,11,10,6,49,49,43,43,2,2,7,5,0.4,0.4
2026-07-11T2300,3541A,109.5726195,19.51688767,儋州市,第一中学子站,,17,7,12,3,5,52,52,60,57,2,3,2,2,0.5,0.5
2026-07-11T2300,3542A,109.5567,19.5187,儋州市,东坡学校子站,,17,8,17,3,5,53,53,62,60,2,3,3,2,0.5,0.4
2026-07-11T2300,2616A,98.5611,24.4273,德宏傣族景颇族自治州,德宏州监测站,,26,NA,11,18,12,17,17,43,32,9,7,6,6,0.7,0.6
2026-07-11T2300,3677A,98.5887,24.4366,德宏傣族景颇族自治州,芒市人民政府综合楼,,37,37,32,9,7,15,15,35,25,7,7,5,5,0.7,0.6
2026-07-11T2300,1901A,104.424,31.1209,德阳市,东山公园,,25,12,18,9,19,80,80,106,90,6,9,3,5,0.7,0.7
2026-07-11T2300,1902A,104.3827,31.1318,德阳市,西小区,,20,15,29,8,19,64,64,85,77,8,11,9,10,0.9,1.1
2026-07-11T2300,1904A,104.3553,31.1091,德阳市,耐火材料厂,,27,18,26,7,20,86,86,118,104,3,8,3,7,0.4,0.5
2026-07-11T2300,4145A,104.4144,31.1495,德阳市,市林业局,,28,24,22,10,19,87,87,122,106,8,10,11,13,0.7,0.8
2026-07-11T2300,1622A,116.3034,37.4675,德州市,儿童乐园,,43,36,39,16,21,136,136,166,160,10,7,11,11,0.7,0.8
2026-07-11T2300,1624A,116.2992,37.4449,德州市,监理站,,41,36,37,17,20,131,131,163,156,9,7,14,14,0.4,0.4
2026-07-11T2300,3066A,116.2722,37.438,德州市,九衢泉纯净水厂,,41,41,37,18,21,130,130,159,152,18,14,15,9,0.6,0.8
2026-07-11T2300,3371A,116.3693,37.44,德州市,开发区人民医院,,36,36,36,14,21,109,109,152,145,20,12,7,7,0.6,0.6
2026-07-11T2300,3511A,116.5687,37.3331,德州市,陵城艺术中心,,36,29,36,8,19,113,113,152,142,11,10,11,8,0.3,0.4
2026-07-11T2300,4292A,116.352738,37.420875,德州市,新河东路,,39,34,31,15,17,123,123,156,154,16,13,10,10,0.6,0.7
2026-07-11T2300,2621A,99.7054,27.8319,迪庆藏族自治州,迪庆州站,,14,14,16,9,6,20,20,38,28,9,8,9,9,0.7,0.7
2026-07-11T2300,3180A,99.7122,27.8129,迪庆藏族自治州,质量技术监督局,,14,14,14,6,4,25,25,42,32,12,9,7,7,0.3,0.3
2026-07-11T2300,4257A,104.6092,35.5962,定西市,将台街,,30,27,22,14,8,93,93,93,92,6,7,5,5,0.1,0
2026-07-11T2300,4309A,104.6159,35.5701,定西市,正龙路62号,,32,32,26,11,7,90,90,87,87,6,7,5,5,0.3,0.2
2026-07-11T2300,4071A,114.9883,38.5232,定州市,交通局,,32,32,55,21,24,85,85,132,113,10,10,5,5,0.6,0.5
2026-07-11T2300,4072A,115.0045,38.5136,定州市,第五中学,,27,27,41,8,22,75,75,129,111,11,10,3,3,0.4,0.5
2026-07-11T2300,1390A,113.7943,23.0132,东莞市,东城石井,,43,43,30,21,15,136,136,186,161,17,14,4,6,0.6,0.5
2026-07-11T2300,1391A,113.7384,22.9659,东莞市,南城西平,,46,46,30,26,16,107,107,210,180,22,20,7,8,0.9,0.8
2026-07-11T2300,3319A,113.7283,23.041,东莞市,万江金泰,,45,45,33,28,18,113,113,170,148,32,24,9,14,0.9,0.8
2026-07-11T2300,4129A,113.8666,23.1062,东莞市,裕兴路,,47,45,30,28,13,148,148,142,133,31,21,6,6,0.8,0.7
2026-07-11T2300,4130A,114.0076,22.9739,东莞市,教育路1号,,49,49,33,29,18,119,119,171,147,24,28,7,7,0.8,0.8
2026-07-11T2300,4131A,113.7981,22.8124,东莞市,长怡路1号,,30,30,35,13,17,73,73,226,185,14,16,4,5,0.7,0.7
2026-07-11T2300,1666A,118.6612,37.4313,东营市,市环保局,,24,24,35,6,20,30,30,140,85,11,10,9,10,0.4,0.5
2026-07-11T2300,3036A,118.6903,37.4337,东营市,开发区管委会,,29,29,39,7,15,33,33,144,88,13,11,9,9,0.5,0.6
2026-07-11T2300,3365A,118.5721,37.5654,东营市,垦利区民丰路,,27,27,42,6,23,41,41,150,99,11,9,3,4,0.3,0.4
2026-07-11T2300,3498A,118.5063,37.8606,东营市,河口城区,,24,24,40,3,19,46,46,152,101,15,13,8,7,0.6,0.9
2026-07-11T2300,3646A,118.4979,37.4623,东营市,胜利站,,18,18,42,3,19,48,48,165,108,10,11,4,4,0.6,0.8
2026-07-11T2300,3734A,118.5753,37.4405,东营市,理想之城,NA,NA,22,34,6,17,29,29,162,76,NA,22,4,12,0.5,0.6
2026-07-11T2300,1591A,110.0024,39.8127,鄂尔多斯市,综合楼,,27,27,14,18,14,64,64,90,73,14,12,2,2,0.9,0.8
2026-07-11T2300,1592A,109.9485,39.8259,鄂尔多斯市,巴音孟克林场办事处,,29,22,16,20,13,75,75,84,78,10,12,4,4,0.2,0.1
2026-07-11T2300,1593A,109.7734,39.5987,鄂尔多斯市,康泽苑,,32,NA,19,22,15,72,72,82,79,8,7,10,11,0.3,0.3
2026-07-11T2300,1594A,109.8121,39.5987,鄂尔多斯市,华泰汽车城,,22,22,21,15,15,56,56,66,61,12,8,10,10,0.7,0.7
2026-07-11T2300,1595A,109.9734,39.7884,鄂尔多斯市,奥林花园,,24,24,21,12,13,41,41,83,59,21,12,4,4,0.5,0.5
2026-07-11T2300,2436A,114.894,30.3989,鄂州市,市政府,,34,34,37,14,15,66,66,113,90,6,12,2,3,0.4,0.4
2026-07-11T2300,2437A,114.8986,30.3714,鄂州市,赵家坝,,33,33,27,22,14,57,57,121,100,1,8,16,6,0.4,0.5
2026-07-11T2300,3654A,114.8093,30.4091,鄂州市,精准医疗中心,,21,20,30,12,16,66,66,118,92,8,20,3,9,0.3,0.6
2026-07-11T2300,2454A,109.4978,30.2979,恩施土家族苗族自治州,湖北民院,,27,27,19,15,8,48,48,88,74,5,4,5,5,0.5,0.5
2026-07-11T2300,3549A,109.5061,30.3771,恩施土家族苗族自治州,龙凤新区,,23,23,14,12,11,38,38,89,69,5,6,6,6,0.4,0.4
2026-07-11T2300,2499A,108.3411,21.6159,防城港市,沙万,,23,23,28,10,8,51,51,64,63,12,12,2,4,0.6,0.6
2026-07-11T2300,2500A,108.3515,21.7733,防城港市,防城档案局,,22,17,25,15,13,46,46,70,60,6,9,9,6,0.6,0.6
2026-07-11T2300,2501A,108.3506,21.6414,防城港市,大海花园,,23,23,21,10,11,67,67,80,77,8,10,6,8,0.5,0.6
2026-07-11T2300,1371A,113.1293,23.0065,佛山市,湾梁,,34,34,28,20,17,88,88,176,144,22,18,/,/,/,/
2026-07-11T2300,1372A,113.1082,23.0477,佛山市,华材职中,,29,27,28,20,20,83,83,159,128,20,14,9,9,0.4,0.4
2026-07-11T2300,1373A,113.1439,23.045,佛山市,南海气象局,,35,35,31,19,18,98,98,168,141,21,16,/,/,/,/
2026-07-11T2300,1374A,113.2879,22.8094,佛山市,顺德苏岗,,46,46,31,23,18,51,51,197,166,30,17,/,/,0.8,0.8
2026-07-11T2300,1376A,112.8384,22.8678,佛山市,高明孔堂,,28,28,21,14,13,76,76,132,122,4,7,/,/,/,/
2026-07-11T2300,1377A,112.8835,23.1584,佛山市,三水监测站,,48,48,30,30,20,70,70,130,114,27,18,7,6,0.8,0.7
2026-07-11T2300,1378A,112.8668,23.185,佛山市,三水云东海,颗粒物(PM10),55,56,34,34,19,13,13,125,89,69,19,/,/,/,/
2026-07-11T2300,3625A,113.2568,22.7629,佛山市,容桂街道办,,35,31,24,24,16,47,47,201,164,28,18,/,/,/,/
2026-07-11T2300,1282A,119.2681,26.0506,福州市,师大,,19,19,21,3,4,44,44,51,50,3,4,4,4,0.4,0.4
2026-07-11T2300,1283A,119.2983,26.1028,福州市,五四北路,,17,17,17,3,4,47,47,50,49,6,8,4,4,0.3,0.3
2026-07-11T2300,1284A,119.2648,26.0769,福州市,杨桥西路,,15,15,18,3,3,45,45,49,48,5,6,4,4,/,/
2026-07-11T2300,3048A,119.5799,26.0937,福州市,九龙,,23,23,13,3,1,46,46,46,46,5,5,6,6,0.2,0.2
2026-07-11T2300,3526A,119.5188,25.9666,福州市,吴航,,16,16,16,7,8,36,36,50,46,6,7,6,6,0.5,0.5
2026-07-11T2300,4104A,119.3106,26.0648,福州市,路通桥巷6号,,13,13,16,9,10,39,39,48,44,5,4,/,/,/,/
2026-07-11T2300,1755A,123.7974,41.8494,抚顺市,望花区,,18,16,14,12,11,19,19,53,22,16,14,7,7,0.8,0.6
2026-07-11T2300,1756A,123.9161,41.8827,抚顺市,顺城区,,9,9,9,3,5,28,28,60,27,8,10,8,8,0.6,0.6
2026-07-11T2300,1757A,124.0437,41.8615,抚顺市,东洲区,,10,7,11,7,5,32,32,61,29,11,8,9,8,0.2,0.4
2026-07-11T2300,1758A,123.9246,41.8638,抚顺市,新抚区,,13,11,13,9,8,16,16,55,22,6,6,5,5,0.7,0.7
2026-07-11T2300,1759A,124.0972,41.8961,抚顺市,大伙房水库,,13,6,9,3,4,39,39,62,32,6,8,10,10,0.2,0.2
2026-07-11T2300,1760A,123.708,41.8386,抚顺市,沈抚新城,,12,12,17,7,6,30,30,46,20,10,13,6,7,0.7,1
2026-07-11T2300,2377A,116.3544,27.9833,抚州市,市站,,33,33,41,12,22,71,71,88,68,2,6,3,16,0.8,0.8
2026-07-11T2300,2378A,116.3562,27.9631,抚州市,血防站,,36,36,42,14,20,71,71,89,74,6,10,6,10,0.7,0.7
2026-07-11T2300,2379A,116.3561,28.0007,抚州市,采茶剧团,,38,38,44,11,21,79,79,99,78,10,12,11,15,0.6,0.6
2026-07-11T2300,2380A,116.3854,27.9648,抚州市,医学分院,,32,32,44,3,17,82,82,102,83,4,8,4,7,0.8,0.7
2026-07-11T2300,2207A,121.6095,41.9978,阜新市,工业园区,,20,12,19,3,11,63,63,80,64,10,9,5,5,0.1,0.2
2026-07-11T2300,2208A,121.6567,42.0188,阜新市,长青街,,23,23,16,3,8,66,66,74,66,8,8,6,6,0.3,0.4
2026-07-11T2300,2209A,121.6672,42.07,阜新市,农业园区,,31,31,33,6,11,70,70,85,68,6,6,3,3,0.5,0.6
2026-07-11T2300,2211A,121.6343,42.0455,阜新市,玉龙新城,,19,12,21,3,12,59,59,62,55,9,9,1,2,0.5,0.5
2026-07-11T2300,2301A,115.8276,32.8929,阜阳市,市监测站,,31,31,32,17,18,71,71,126,104,14,13,6,6,0.3,0.4
2026-07-11T2300,2303A,115.8551,32.8606,阜阳市,开发区,,40,40,39,15,17,66,66,122,100,13,12,4,4,0.5,0.5
2026-07-11T2300,2875A,115.783962,32.889217,阜阳市,阜阳职业技术学院,颗粒物(PM10),52,52,39,17,17,80,80,138,114,8,6,3,3,0.4,0.4
2026-07-11T2300,3468A,115.79,32.8614,阜阳市,市规划展馆,,34,34,34,22,21,80,80,133,112,10,10,1,1,0.5,0.5
2026-07-11T2300,3469A,115.835101,32.918568,阜阳市,枣园社区,,36,36,32,15,17,61,61,115,94,12,9,3,3,0.5,0.5
2026-07-11T2300,2669A,102.9097,34.9841,甘南藏族自治州,州政府,,25,18,12,3,4,78,78,84,82,11,6,3,4,0.2,0.2
2026-07-11T2300,3380A,102.8915,34.9618,甘南藏族自治州,甘肃民族师范学院,,26,12,8,3,6,82,82,87,86,6,4,4,4,0.3,0.3
2026-07-11T2300,2570A,101.96,30.048,甘孜藏族自治州,水桥子,,20,13,8,10,6,64,64,76,70,9,16,3,3,0.3,0.4
2026-07-11T2300,3065A,101.9534,29.9976,甘孜藏族自治州,州环保局,,16,15,8,9,6,21,21,78,62,31,18,2,3,0.2,0.2
2026-07-11T2300,2363A,114.9368,25.8663,赣州市,地委,颗粒物(PM10),55,56,45,37,23,91,91,107,105,5,8,3,4,1.4,1.1
2026-07-11T2300,2364A,114.946,25.8483,赣州市,气象台,,50,47,35,35,25,95,95,100,100,8,10,6,5,0.8,0.7
2026-07-11T2300,2365A,114.932,25.8332,赣州市,市图书馆,,47,47,36,32,22,105,105,114,114,6,10,3,3,1.1,0.9
2026-07-11T2300,2366A,114.8905,25.8472,赣州市,华坚鞋城,,49,48,41,34,22,76,76,103,100,17,14,2,2,1.2,1.1
2026-07-11T2300,3109A,115.0094,25.8614,赣州市,赣县区卫计委,细颗粒物(PM2.5),54,53,32,37,20,68,68,105,101,20,14,3,2,0.6,0.5
2026-07-11T2300,2684A,106.2753,36.0057,固原市,监测站,,30,NA,7,13,6,96,96,100,100,8,5,5,5,0.2,0.2
2026-07-11T2300,2685A,106.2384,36.0189,固原市,新区,,30,11,6,3,6,93,93,97,97,5,4,6,6,0.4,0.4
2026-07-11T2300,2544A,106.6307,30.4577,广安市,市委,,43,37,19,30,16,46,46,97,85,26,10,10,10,0.6,0.4
2026-07-11T2300,2545A,106.6266,30.4662,广安市,友谊中学,,30,30,16,21,13,48,48,101,87,24,11,13,11,0.7,0.5
2026-07-11T2300,2547A,106.6386,30.4551,广安市,广电花园,,32,25,18,22,15,63,63,100,92,15,10,9,9,0.6,0.5
2026-07-11T2300,2902A,106.6347,30.4868,广安市,北辰小学,,29,26,20,20,12,72,72,108,99,15,10,9,9,0.4,0.4
2026-07-11T2300,2524A,105.8211,32.4444,广元市,老城,,21,9,21,3,11,65,65,79,67,3,13,6,9,0.3,0.6
2026-07-11T2300,2526A,105.8629,32.429,广元市,监测站,,23,23,34,3,12,73,73,93,80,4,13,3,7,0.3,0.5
2026-07-11T2300,3617A,105.8047,32.4167,广元市,经开区,,21,10,29,3,17,67,67,84,70,6,17,5,6,0.5,0.8
2026-07-11T2300,1345A,113.2346,23.1423,广州市,广雅中学,,41,41,34,24,18,75,75,163,134,42,23,8,6,0.7,0.6
2026-07-11T2300,1346A,113.2611,23.105,广州市,市五中,,41,41,31,23,19,109,109,205,173,29,20,6,5,/,/
2026-07-11T2300,1348A,113.3477,23.0916,广州市,广东商学院,颗粒物(PM10),55,56,33,34,18,100,100,180,157,31,19,6,6,0.6,0.5
2026-07-11T2300,1349A,113.4332,23.105,广州市,市八十六中,,48,44,28,33,18,93,93,193,162,68,36,7,6,/,/
2026-07-11T2300,1350A,113.3506,22.9488,广州市,番禺中学,,36,32,30,25,18,85,85,187,172,28,18,11,7,0.6,0.5
2026-07-11T2300,1351A,113.2147,23.3918,广州市,花都师范,颗粒物(PM10),53,53,35,30,23,106,106,154,137,25,23,4,4,0.6,0.6
2026-07-11T2300,1352A,113.2599,23.1329,广州市,市监测站,,47,47,31,27,17,98,98,184,153,28,18,5,3,/,/
2026-07-11T2300,1353A,113.5618,23.3119,广州市,九龙镇镇龙,,48,48,35,28,19,9,9,129,84,46,25,6,7,0.8,0.7
2026-07-11T2300,1354A,113.2764,23.1544,广州市,麓湖,,41,41,31,25,16,73,73,177,130,36,24,7,7,1.1,0.6
2026-07-11T2300,2846A,113.3209,23.1323,广州市,体育西,,42,42,32,27,18,102,102,187,163,40,25,8,7,0.6,0.5
2026-07-11T2300,3298A,113.5718,23.5493,广州市,从化街口,,36,36,35,20,23,33,33,126,81,23,18,8,8,0.7,0.6
2026-07-11T2300,3299A,113.3463,23.369,广州市,白云竹料,细颗粒物(PM2.5),76,74,43,48,24,34,34,160,100,52,28,4,3,1.0,0.7
2026-07-11T2300,3300A,113.2981,23.2365,广州市,白云嘉禾,,45,45,41,26,20,73,73,180,133,46,30,11,7,/,/
2026-07-11T2300,3301A,113.4256,23.1716,广州市,黄埔科学城,颗粒物(PM10),53,53,34,36,22,61,61,193,148,26,18,8,8,0.6,0.4
2026-07-11T2300,3302A,113.3942,23.0485,广州市,番禺大学城,,40,33,30,26,15,125,125,207,192,29,21,2,2,0.5,0.5
2026-07-11T2300,3303A,113.4923,22.8169,广州市,南沙黄阁,颗粒物(PM10),56,58,32,9,22,63,63,198,166,22,22,8,7,/,/
2026-07-11T2300,3304A,113.534,22.7893,广州市,南沙街,,33,33,28,19,18,67,67,189,161,19,17,8,8,0.7,0.5
2026-07-11T2300,3443A,113.2905,23.5541,广州市,花都梯面,,26,23,24,18,20,15,15,NA,NA,33,26,3,3,/,/
2026-07-11T2300,3445A,113.786,23.7479,广州市,从化良口,,29,23,25,20,17,57,57,103,73,11,8,4,5,/,/
2026-07-11T2300,3446A,113.805,23.2614,广州市,增城荔城,,22,22,27,11,16,30,30,119,80,31,21,8,9,0.8,0.7
2026-07-11T2300,2506A,109.604387,23.066791,贵港市,江南子站,NA,NA,NA,NA,NA,NA,NA,NA,NA,NA,NA,NA,NA,NA,NA,NA
2026-07-11T2300,2508A,109.5669,23.1065,贵港市,荷城子站,NA,NA,NA,NA,NA,NA,NA,NA,NA,NA,NA,NA,NA,NA,NA,NA
2026-07-11T2300,3405A,109.5886,23.1172,贵港市,新世纪学校,NA,NA,NA,NA,NA,NA,NA,NA,NA,NA,NA,NA,NA,NA,NA,NA
2026-07-11T2300,4260A,109.5933,23.095,贵港市,中山路155-3号,,28,26,21,15,9,5,5,70,NA,55,14,/,/,0.9,0.5
2026-07-11T2300,1439A,106.6863,26.6035,贵阳市,马鞍山,,10,9,7,3,5,29,29,65,51,11,6,3,4,/,/
2026-07-11T2300,1441A,106.6241,26.6266,贵阳市,鉴湖路,,29,29,23,6,4,38,38,69,57,14,9,6,7,0.5,0.4
2026-07-11T2300,1442A,106.7468,26.6344,贵阳市,燕子冲,,17,17,16,3,4,37,37,59,50,10,8,8,9,0.4,0.4
2026-07-11T2300,1443A,106.6556,26.4362,贵阳市,碧云窝,,27,27,24,13,6,24,24,63,50,9,5,7,8,/,/
2026-07-11T2300,1445A,106.6963,26.6063,贵阳市,红边门,,14,14,13,3,6,44,44,65,52,8,8,4,11,/,/
2026-07-11T2300,1446A,106.7162383,26.56964667,贵阳市,新华路,,22,22,21,8,4,42,42,72,48,13,10,13,35,0.4,0.3
2026-07-11T2300,1447A,106.6742,26.542,贵阳市,太慈桥,,27,27,14,8,4,16,16,59,39,16,7,5,6,/,/
2026-07-11T2300,4230A,106.688212,26.56952,贵阳市,花果园大街66号,,23,23,12,10,6,40,40,60,51,16,9,2,2,/,/
2026-07-11T2300,4231A,106.687268,26.516892,贵阳市,漓江路57号,,17,17,12,8,5,22,22,56,44,23,8,1,2,0.6,0.5
2026-07-11T2300,1864A,110.3091,25.2705,桂林市,龙隐路小学,,37,37,28,21,14,25,25,85,56,11,7,8,8,0.7,0.6
2026-07-11T2300,1865A,110.2849361,25.22909545,桂林市,八中,,29,28,24,20,10,27,27,76,55,16,10,4,6,0.9,0.8
2026-07-11T2300,3531A,110.296,25.1254,桂林市,旅游学院,,47,47,25,24,12,24,24,75,49,15,5,7,5,0.4,0.4
2026-07-11T2300,4222A,110.1835,25.2444,桂林市,环湖路276号,,31,31,25,20,16,41,41,79,65,18,11,10,11,0.4,0.5
2026-07-11T2300,4301A,110.2803,25.2773,桂林市,信义路13号,,46,37,33,32,20,22,22,81,57,17,10,12,13,0.6,0.6
2026-07-11T2300,2674A,100.2262,34.4854,果洛藏族自治州,玛沁县大武镇,,26,16,24,3,9,81,81,99,91,1,2,19,18,0.4,0.3
2026-07-11T2300,1130A,126.5557,45.8109,哈尔滨市,松北商大,,13,NA,22,3,16,39,39,97,79,10,11,5,5,0.3,0.4
2026-07-11T2300,1132A,126.6162,45.719,哈尔滨市,南岗学府路,,12,12,28,3,16,35,35,96,73,13,13,7,6,0.4,0.4
2026-07-11T2300,1133A,126.6894,45.7733,哈尔滨市,太平宏伟公园,,17,17,29,3,8,40,40,98,76,16,14,6,6,0.2,0.3
2026-07-11T2300,1134A,126.6361,45.7672,哈尔滨市,道外承德广场,,26,26,39,3,9,37,37,98,77,13,13,5,5,0.1,0.3
2026-07-11T2300,1136A,126.644,45.7261,哈尔滨市,动力和平路,,17,17,37,3,8,31,31,98,73,16,14,6,5,0.2,0.3
2026-07-11T2300,1137A,126.5933,45.7479,哈尔滨市,道里建国路,,17,17,36,7,15,32,32,97,74,14,9,4,5,1.5,0.7
2026-07-11T2300,1138A,126.6127,45.6119,哈尔滨市,平房东轻厂,,7,6,14,3,7,22,22,92,63,7,10,6,6,0.6,0.6
2026-07-11T2300,1139A,126.5875,45.9827,哈尔滨市,呼兰师专,,18,18,27,3,9,37,37,92,79,19,14,7,7,0.5,0.5
2026-07-11T2300,1140A,126.6299,45.6799,哈尔滨市,省农科院,,14,14,28,3,10,24,24,92,64,18,17,5,5,0.5,0.6
2026-07-11T2300,4282A,126.6769,45.7379,哈尔滨市,华山路1号,NA,NA,6,21,3,9,41,41,102,80,11,10,6,6,NA,0.1
2026-07-11T2300,4283A,126.9717,45.5356,哈尔滨市,解放大街52号,,13,13,17,3,3,36,36,94,71,14,7,5,5,0.4,0.5
2026-07-11T2300,2688A,93.5124,42.8176,哈密市,地区监测站,,33,21,8,10,7,104,104,130,124,20,5,8,8,0.2,0.1
2026-07-11T2300,2689A,93.5014,42.8312,哈密市,哈密师范学校,,49,49,15,24,9,70,70,124,107,23,8,9,8,0.5,0.2
2026-07-11T2300,2671A,100.9016,36.9464,海北藏族自治州,海晏县西海镇,,27,17,13,11,7,86,86,103,101,5,2,7,7,0.5,0.4
2026-07-11T2300,3867A,102.074,36.5056,海东市,平安区公安局北苑,,26,19,29,7,15,82,82,95,93,12,9,14,12,1.4,0.7
2026-07-11T2300,4163A,102.0984,36.5119,海东市,滨河路,,28,13,16,6,13,24,24,68,56,55,22,12,9,1.2,0.9
2026-07-11T2300,1410A,110.3189,20.0596,海口市,海南大学,,25,25,16,14,10,53,53,92,74,7,9,4,4,0.4,0.4
2026-07-11T2300,1411A,110.2827,20.0051,海口市,秀英海南医院,,22,17,16,15,11,48,48,97,72,8,10,5,5,0.3,0.3
2026-07-11T2300,1412A,110.3391,19.9979,海口市,海南师范大学,,20,18,27,14,11,47,47,98,70,7,7,3,3,0.3,0.4
2026-07-11T2300,1413A,110.3303,20.0359,海口市,龙华路环保局宿舍,,22,18,17,15,11,53,53,96,74,7,8,/,/,0.3,0.3
2026-07-11T2300,3539A,110.5111,19.9737,海口市,桂林洋子站,,25,25,19,15,11,41,41,57,54,9,8,/,/,/,/
2026-07-11T2300,4134A,110.1952,20.0451,海口市,长滨二路9号,,16,16,14,10,9,44,44,90,71,7,8,/,/,/,/
2026-07-11T2300,2673A,100.6158,36.2985,海南藏族自治州,共和县恰卜恰镇,,29,12,13,8,7,90,90,100,98,2,2,8,10,0.4,0.4
2026-07-11T2300,2676A,97.373,37.376,海西蒙古族藏族自治州,德令哈市,NA,NA,26,23,7,13,122,122,130,130,2,2,10,10,NA,NA
2026-07-11T2300,1049A,114.492,36.5712,邯郸市,矿院,,39,27,22,20,20,123,123,142,140,2,3,1,2,0.4,0.3
2026-07-11T2300,1050A,114.4839,36.6136,邯郸市,丛台公园,,40,34,22,22,14,128,128,138,137,4,4,7,8,0.2,0.3
2026-07-11T2300,3458A,114.7893,36.5592,邯郸市,香泉濮院小区,,42,NA,15,25,21,133,133,135,135,11,10,3,3,0.3,0.3
2026-07-11T2300,3580A,114.1998,36.4439,邯郸市,峰峰矿区临水派出所,,35,27,28,24,18,109,109,134,126,8,8,1,2,0.2,0.3
2026-07-11T2300,4068A,114.5209,36.7697,邯郸市,建安街268号,,36,31,28,17,13,114,114,119,119,10,13,3,3,0.2,0.2
2026-07-11T2300,4069A,114.5488,36.6177,邯郸市,丛台东路558号,,38,38,31,23,15,117,117,127,126,12,11,3,3,0.3,0.3
2026-07-11T2300,2635A,107.0155,33.0707,汉中市,市监测站,,16,10,26,3,18,50,50,92,65,4,9,4,4,0.3,0.4
2026-07-11T2300,2636A,107.0083,33.114,汉中市,鑫源开发区,,16,13,27,3,16,51,51,93,66,6,14,5,7,0.5,0.6
2026-07-11T2300,2637A,107.0072,33.0323,汉中市,南郑大河坎水厂,,15,10,26,3,14,48,48,88,54,5,10,3,3,0.3,0.4
2026-07-11T2300,1223A,120.2073,30.2111,杭州市,滨江,,10,7,35,3,13,31,31,34,32,4,6,4,4,0.4,0.4
2026-07-11T2300,1224A,120.0625,30.2737,杭州市,西溪,,12,NA,19,8,15,25,25,34,31,4,4,4,4,0.7,0.7
2026-07-11T2300,1226A,120.3417,30.315,杭州市,下沙,,11,11,28,3,10,34,34,38,36,4,7,4,3,0.6,0.5
2026-07-11T2300,1227A,120.1252,30.2465,杭州市,卧龙桥,,14,14,28,3,12,30,30,38,34,5,7,5,5,0.2,0.2
2026-07-11T2300,1228A,120.1902,30.2691,杭州市,浙江农大,,9,9,29,3,16,28,28,34,32,6,8,6,7,0.3,0.3
2026-07-11T2300,1230A,120.1195,30.3121,杭州市,和睦小学,,9,6,13,3,11,27,27,33,30,2,3,8,8,0.6,0.6
2026-07-11T2300,1231A,120.3076,30.4146,杭州市,临平镇,,10,8,36,3,11,32,32,37,34,2,3,6,6,0.5,0.5
2026-07-11T2300,1232A,120.2753,30.1839,杭州市,城厢镇,,15,15,35,3,11,33,33,34,33,2,6,4,5,0.4,0.4
2026-07-11T2300,1233A,120.0883,30.1808,杭州市,云栖,,10,8,30,3,9,32,32,37,35,4,6,5,5,0.5,0.5
2026-07-11T2300,3557A,119.9463,30.0496,杭州市,镇二中,,10,6,22,3,10,32,32,35,33,4,8,5,5,0.7,0.6
2026-07-11T2300,3558A,119.7184,30.2367,杭州市,市府大楼,,10,8,20,3,12,31,31,43,35,2,6,7,7,0.4,0.3
2026-07-11T2300,3656A,120.1554,30.2863,杭州市,消防大队,,9,8,28,3,11,28,28,34,31,2,3,8,8,0.8,0.8
2026-07-11T2300,1270A,117.1957,31.7845,合肥市,明珠广场,,29,29,31,16,16,56,56,104,95,4,6,8,8,0.4,0.5
2026-07-11T2300,1271A,117.307,31.8765,合肥市,三里街,,27,27,31,13,14,46,46,88,81,7,11,9,10,0.5,0.6
2026-07-11T2300,1272A,117.2587,31.8703,合肥市,琥珀山庄,,29,29,32,12,13,51,51,96,87,8,9,7,8,0.3,0.4
2026-07-11T2300,1275A,117.2593,31.9376,合肥市,庐阳区,,29,29,31,12,15,53,53,98,90,8,12,9,10,0.6,0.7
2026-07-11T2300,1276A,117.345251,31.861615,合肥市,瑶海区,,27,27,30,15,15,49,49,95,88,6,9,7,10,0.4,0.5
2026-07-11T2300,1277A,117.3033,31.7967,合肥市,包河区,,29,29,34,12,13,44,44,91,78,16,18,8,9,0.5,0.6
2026-07-11T2300,1278A,117.278,31.7392,合肥市,滨湖新区,,36,36,31,12,11,50,50,102,92,10,9,7,7,0.6,0.6
2026-07-11T2300,1279A,117.1324,31.8395,合肥市,高新区,,29,29,34,14,15,55,55,100,90,8,8,8,8,0.6,0.5
2026-07-11T2300,3464A,117.3802,31.9148,合肥市,高教基地,,27,27,30,13,14,53,53,100,92,4,6,6,7,0.5,0.5
2026-07-11T2300,4098A,117.2518,31.8404,合肥市,中国科学技术大学,,27,27,31,11,14,57,57,115,102,7,9,10,12,0.6,0.6
2026-07-11T2300,3614A,79.9241,37.0878,和田地区,地区环保局,颗粒物(PM10),176,302,428,89,107,122,122,129,128,2,4,3,2,0.2,0.2
2026-07-11T2300,3615A,79.9132,37.1137,和田地区,市环保局,颗粒物(PM10),173,296,408,80,110,115,115,133,129,3,3,3,2,0.3,0.3
2026-07-11T2300,2517A,108.0496,24.6957,河池市,市环保站,,43,43,30,29,12,20,20,83,61,14,8,3,4,0.9,0.9
2026-07-11T2300,4302A,108.0901,24.6945,河池市,上任中路54号,,43,43,27,21,12,16,16,82,60,27,11,4,4,0.9,0.8
2026-07-11T2300,1697A,114.6962,23.7538,河源市,东埔,细颗粒物(PM2.5),60,54,34,40,25,40,40,73,65,18,12,6,6,0.9,0.7
2026-07-11T2300,1698A,114.6895,23.7232,河源市,老城,,30,30,34,15,17,36,36,76,54,17,14,6,7,0.8,0.7
2026-07-11T2300,3374A,115.5562,35.089,菏泽市,定陶老年大学,,34,34,36,13,20,85,85,101,NA,15,12,4,3,0.4,0.5
2026-07-11T2300,4114A,115.4239,35.2593,菏泽市,黄河路600号,,29,27,34,13,18,90,90,148,138,10,11,4,4,0.3,0.3
2026-07-11T2300,4115A,115.5025,35.2727,菏泽市,菏泽市人社局,NA,NA,31,35,12,18,NA,NA,95,93,14,14,3,2,NA,0.1
2026-07-11T2300,4184A,115.479691,35.244011,菏泽市,永昌路1号,,40,40,38,13,18,92,92,154,142,9,9,6,6,0.4,0.4
2026-07-11T2300,4193A,115.471542,35.280012,菏泽市,长城路999号,,36,36,33,15,19,87,87,148,136,13,10,7,6,0.4,0.4
2026-07-11T2300,2514A,111.5264,24.4178,贺州市,环保小区,,34,34,27,18,15,56,56,139,102,12,10,11,9,0.3,0.3
2026-07-11T2300,2515A,111.561,24.4074,贺州市,政协大楼,,28,26,26,19,17,46,46,147,103,21,14,11,14,0.5,0.5
2026-07-11T2300,3534A,111.4744,24.455,贺州市,西湾,颗粒物(PM10),53,54,38,18,16,38,38,116,80,14,12,10,10,0.4,0.4
2026-07-11T2300,2385A,114.17,35.9019,鹤壁市,市监测站,细颗粒物(PM2.5),64,48,35,42,33,90,90,114,109,11,8,2,3,0.7,0.6
2026-07-11T2300,2386A,114.2953,35.7512,鹤壁市,市交警支队,,48,45,30,33,20,97,97,98,98,19,14,7,6,0.7,0.5
2026-07-11T2300,2387A,114.2877,35.7302,鹤壁市,迎宾馆,,49,49,34,34,21,112,112,127,122,14,9,8,7,0.8,0.6
2026-07-11T2300,3474A,114.2616,35.6824,鹤壁市,大新区,,41,41,33,26,24,96,96,130,116,16,10,4,4,0.5,0.5
2026-07-11T2300,3596A,114.1573,35.9607,鹤壁市,南山宾馆,细颗粒物(PM2.5),58,42,33,39,33,105,105,130,120,9,10,8,9,0.5,0.4
2026-07-11T2300,2244A,130.2537,47.3416,鹤岗市,哈啤分公司,,20,20,20,8,10,30,30,86,54,16,13,4,4,0.2,0.2
2026-07-11T2300,2245A,130.2683,47.3087,鹤岗市,斯达机电,,25,25,19,11,13,31,31,82,59,16,11,6,6,0.4,0.3
2026-07-11T2300,2246A,130.3114,47.3388,鹤岗市,东山纸板厂,,17,10,22,8,10,9,9,66,41,33,17,2,2,0.2,0.2
2026-07-11T2300,2263A,127.4832,50.2524,黑河市,交通局,,32,32,24,15,13,31,31,80,60,11,9,6,6,0.3,0.3
2026-07-11T2300,2264A,127.5146,50.2339,黑河市,环保局,,28,28,21,13,15,32,32,79,60,14,10,9,8,0.4,0.3
2026-07-11T2300,1074A,115.6839,37.754,衡水市,电机北厂,,48,48,43,17,23,142,142,148,148,8,11,1,3,0.5,0.4
2026-07-11T2300,1075A,115.6303,37.7318,衡水市,市监测站,,44,44,39,14,19,140,140,153,153,8,10,6,6,0.5,0.6
2026-07-11T2300,3188A,115.6684,37.7216,衡水市,市城管局,,49,49,43,19,22,139,139,149,148,7,11,12,15,0.3,0.3
2026-07-11T2300,3459A,115.599,37.5491,衡水市,地表水厂,,50,50,43,14,19,131,131,138,137,15,13,3,2,0.3,0.3
2026-07-11T2300,2457A,112.6209,26.9268,衡阳市,衡阳化工总厂,,38,38,27,21,14,42,42,95,77,13,9,3,4,0.6,0.6
2026-07-11T2300,2458A,112.621,26.8957,衡阳市,珠晖区环保局,,28,20,28,19,14,57,57,101,84,13,9,7,9,0.9,0.8
2026-07-11T2300,2459A,112.628,26.8654,衡阳市,市委党校,,33,NA,23,23,15,74,74,101,91,16,7,7,5,0.7,0.4
2026-07-11T2300,2460A,112.6007,26.8977,衡阳市,市监测站,,28,24,24,19,13,63,63,100,88,12,10,1,3,0.8,0.7
2026-07-11T2300,2461A,112.5658,26.9013,衡阳市,真空机电公司,,35,25,22,24,15,61,61,108,88,13,12,5,6,0.9,1
2026-07-11T2300,3399A,112.6703,26.8817,衡阳市,师范学院,,32,32,25,22,17,54,54,101,88,13,5,13,9,0.9,0.6
2026-07-11T2300,3038A,103.3757,23.3679,红河哈尼族彝族自治州,州图书馆,,20,17,16,14,10,49,49,56,50,3,3,3,4,0.3,0.3
2026-07-11T2300,4154A,103.401,23.3561,红河哈尼族彝族自治州,蒙自市朝阳路,,19,NA,13,13,10,38,38,54,45,4,3,6,5,0.3,0.2
2026-07-11T2300,1090A,111.6506,40.7517,呼和浩特市,呼市一监,,23,NA,18,16,25,62,62,76,72,4,11,7,7,0.5,0.6
2026-07-11T2300,1094A,111.7516,40.8369,呼和浩特市,如意水处理厂,细颗粒物(PM2.5),58,39,31,39,26,65,65,71,68,9,18,5,5,0.7,0.7
2026-07-11T2300,1095A,111.727798,40.806187,呼和浩特市,二十九中,细颗粒物(PM2.5),66,NA,28,43,35,68,68,75,71,4,15,9,9,0.8,1
2026-07-11T2300,1097A,111.717,40.7617,呼和浩特市,化肥厂生活区,,38,NA,27,26,31,61,61,76,70,8,20,11,11,0.8,1
2026-07-11T2300,3699A,111.6519,40.8389,呼和浩特市,海东办,,38,29,18,26,12,57,57,67,64,10,25,7,6,0.5,0.5
2026-07-11T2300,4275A,111.591512,40.827312,呼和浩特市,成吉思汗西街8号,,30,22,18,21,13,54,54,59,55,12,26,5,5,0.5,0.6
2026-07-11T2300,4276A,111.6597,40.8077,呼和浩特市,公园东路75号,,35,NA,21,24,24,79,79,86,84,10,18,12,12,0.9,1
2026-07-11T2300,4277A,111.5427,40.7846,呼和浩特市,金海路35号,,33,26,26,23,23,49,49,60,56,8,22,4,3,0.7,0.7
2026-07-11T2300,3061A,119.7511,49.1576,呼伦贝尔市,国华电力东,,47,47,19,16,13,1,1,82,60,47,12,5,6,0.4,0.3
2026-07-11T2300,4279A,119.7569,49.2222,呼伦贝尔市,伊敏大街东7号,细颗粒物(PM2.5),90,NA,21,55,15,8,8,78,61,52,15,5,5,1.2,0.6
2026-07-11T2300,1250A,120.075,30.867,湖州市,城西水厂,,27,27,28,11,13,32,32,48,36,1,4,5,6,0.3,0.3
2026-07-11T2300,2873A,120.083,30.8929,湖州市,仁皇山新区,,29,29,32,12,14,34,34,49,38,2,5,5,5,0.4,0.4
2026-07-11T2300,2907A,120.1846,30.8592,湖州市,吴兴区站,,30,30,30,10,13,30,30,46,34,2,2,5,5,0.4,0.4
2026-07-11T2300,3562A,120.4146,30.8538,湖州市,南浔区站,,25,25,29,9,15,28,28,41,32,1,3,4,4,0.5,0.5
2026-07-11T2300,1607A,120.904878,40.721091,葫芦岛市,龙港区,,25,25,26,9,13,55,55,72,72,4,5,5,5,0.3,0.3
2026-07-11T2300,1608A,120.8382,40.7521,葫芦岛市,化工街,,24,24,18,14,11,54,54,72,72,10,10,4,3,0.2,0.3
2026-07-11T2300,1609A,120.8339,40.7078,葫芦岛市,新区,,18,17,23,12,13,54,54,70,70,4,4,3,3,0.4,0.4
2026-07-11T2300,1610A,120.8697,40.7679,葫芦岛市,东城区,,21,21,24,12,15,62,62,74,74,8,11,2,2,0.4,0.4
2026-07-11T2300,2483A,109.9297,27.5383,怀化市,河西地税局,,21,21,22,13,15,11,11,78,48,14,9,5,5,/,/
2026-07-11T2300,2484A,109.9783,27.5342,怀化市,市四医院,,30,28,24,21,12,36,36,85,61,12,12,9,8,0.1,0.1
2026-07-11T2300,2485A,109.9971,27.5579,怀化市,监测楼,,25,25,21,17,14,41,41,92,64,11,10,11,11,0.4,0.3
2026-07-11T2300,1210A,119.0566,33.5991,淮安市,钵池山,,31,31,31,13,11,26,26,56,37,6,6,6,6,0.5,0.5
2026-07-11T2300,1211A,119.0083,33.578,淮安市,北京南路,,36,36,31,14,13,25,25,61,38,1,3,6,6,0.5,0.6
2026-07-11T2300,1212A,118.9938,33.6083,淮安市,市监测站,,22,22,19,12,13,25,25,58,38,6,8,6,7,0.4,0.4
2026-07-11T2300,1213A,119.135,33.5038,淮安市,楚州区监测站,,25,20,24,17,13,25,25,56,37,6,4,6,6,0.4,0.5
2026-07-11T2300,3426A,118.8757,33.2897,淮安市,新华书店,,26,26,32,16,15,26,26,53,30,7,10,7,7,0.3,0.8
2026-07-11T2300,4092A,119.119691,33.550006,淮安市,枚皋中路89号,,34,34,29,12,11,28,28,56,39,6,7,8,8,0.5,0.5
2026-07-11T2300,4206A,119.028838,33.631911,淮安市,承德北路606号,,29,29,26,15,13,23,23,57,37,3,3,6,6,0.6,0.6
2026-07-11T2300,2282A,116.8005,33.9749,淮北市,监测站,,37,37,32,14,19,51,51,125,95,5,9,6,6,0.1,0.2
2026-07-11T2300,2283A,116.8094,33.9008,淮北市,烈山区政府,,34,34,36,10,13,51,51,132,100,4,7,3,5,0.3,0.4
2026-07-11T2300,4017A,116.7926,33.9534,淮北市,市博物馆,,25,25,33,14,17,47,47,107,84,4,8,3,4,0.2,0.3
2026-07-11T2300,4100A,116.8322,33.9884,淮北市,杜集区第一实验学校,,31,31,38,11,14,47,47,118,92,7,10,4,5,0.4,0.5
2026-07-11T2300,2277A,116.8304,32.7726,淮南市,潘集区政府,,20,18,30,14,17,42,42,90,80,4,8,5,5,0.1,0.2
2026-07-11T2300,2279A,116.8569,32.5949,淮南市,谢家集区政府,,22,16,24,15,18,48,48,102,91,7,8,7,8,0.0,0.2
2026-07-11T2300,2280A,116.8279,32.6333,淮南市,八公山区政府,,35,35,34,18,20,46,46,104,90,8,7,7,7,0.1,0.2
2026-07-11T2300,2894A,117.0561,32.6536,淮南市,经济技术开发区消防队,,24,24,24,13,17,48,48,102,89,7,7,8,8,0.4,0.5
2026-07-11T2300,3329A,117.011,32.5891,淮南市,山南新区,,31,31,22,15,16,48,48,105,93,6,6,11,13,0.4,0.5
2026-07-11T2300,4209A,117.003137,32.644456,淮南市,国庆中路369号,,35,35,35,14,17,38,38,91,80,8,9,10,9,0.1,0.2
2026-07-11T2300,2446A,114.9021,30.474,黄冈市,职工中心,,22,19,22,7,15,69,69,111,96,3,5,8,9,0.4,0.4
2026-07-11T2300,2929A,114.8858,30.4519,黄冈市,红卫路,,26,19,24,18,17,58,58,92,77,2,5,5,5,0.4,0.5
2026-07-11T2300,3398A,114.9134,30.4446,黄冈市,市林业局,,26,21,23,18,18,75,75,112,98,5,8,4,4,0.3,0.4
2026-07-11T2300,2672A,102.02,35.5101,黄南藏族自治州,同仁县隆务镇,,31,NA,441,9,9,98,98,103,96,1,1,11,12,0.2,0.2
2026-07-11T2300,2295A,118.2905,29.6965,黄山市,延安路89号,,13,13,18,3,11,40,40,63,54,3,5,2,2,0.3,0.3
2026-07-11T2300,2297A,118.1369,30.2755,黄山市,黄山区政府5号楼,,30,30,23,3,10,38,38,64,60,3,3,3,4,0.6,0.6
2026-07-11T2300,4210A,118.335445,29.720283,黄山市,滨江东路7-2号,,24,24,32,3,10,35,35,60,51,3,4,/,/,/,/
2026-07-11T2300,2423A,115.0547,30.2332,黄石市,沈家营,,39,39,40,15,17,53,53,96,82,9,12,6,8,0.3,0.4
2026-07-11T2300,2426A,114.899,30.211,黄石市,铁山,,32,32,30,19,18,65,65,127,96,7,8,4,4,0.3,0.3
2026-07-11T2300,2427A,115.0259,30.2108,黄石市,团城山,,36,36,36,15,18,57,57,118,88,9,8,5,4,0.8,0.8
2026-07-11T2300,3149A,115.0174,30.1591,黄石市,笔架山北路,颗粒物(PM10),62,66,46,16,17,64,64,120,93,4,4,5,5,0.5,0.5
2026-07-11T2300,4185A,115.078022,30.21118,黄石市,磁湖东路29号,,49,49,40,17,20,44,44,115,84,22,21,7,7,0.7,0.7
2026-07-11T2300,1392A,114.4181,23.0528,惠州市,河南岸金山湖子站,,46,46,32,26,20,76,76,132,109,26,21,8,8,0.7,0.6
2026-07-11T2300,1393A,114.4055,23.0824,惠州市,下埔横江三路子站,颗粒物(PM10),52,52,37,29,18,132,132,148,132,18,16,5,6,0.7,0.6
2026-07-11T2300,1395A,114.4645,22.7832,惠州市,惠阳区承修路船湖子站,,43,43,37,23,22,130,130,146,144,21,19,5,5,0.7,0.7
2026-07-11T2300,1396A,114.5316,22.7423,惠州市,大亚湾管委会子站,颗粒物(PM10),51,51,37,30,18,158,158,139,132,24,24,6,6,0.7,0.6
2026-07-11T2300,3314A,114.4334,22.8134,惠州市,惠阳秋长,颗粒物(PM10),60,63,38,33,20,114,114,144,140,37,24,/,/,/,/
2026-07-11T2300,3452A,114.6521,22.7755,惠州市,大亚湾霞涌,,36,NA,26,20,16,114,114,192,152,16,17,/,/,/,/
2026-07-11T2300,4300A,114.4089,23.1147,惠州市,文华一路1号,,49,49,34,27,19,107,107,138,124,22,19,/,/,/,/
2026-07-11T2300,2240A,130.9618,45.2926,鸡西市,环保局,,20,16,24,8,11,64,64,84,72,8,13,12,12,0.4,0.4
2026-07-11T2300,2243A,130.9294,45.2959,鸡西市,第一中学,,19,16,23,13,14,57,57,78,67,8,8,6,6,0.4,0.4
2026-07-11T2300,3707A,131.0069,45.2988,鸡西市,欧美日汽修厂,,20,20,24,9,12,52,52,78,66,13,14,9,9,0.7,0.7
2026-07-11T2300,2367A,114.9753,27.0803,吉安市,红声器材厂,,36,36,43,18,25,100,100,132,126,12,12,11,9,0.3,0.3
2026-07-11T2300,2369A,114.9903,27.1313,吉安市,市环境监测站,,44,44,40,15,20,95,95,133,125,9,8,12,9,/,/
2026-07-11T2300,2370A,115.009527,27.096792,吉安市,青原区法院,,44,44,40,25,23,98,98,132,122,12,12,10,9,0.3,0.3
2026-07-11T2300,1772A,126.54,43.8622,吉林市,哈达湾,,12,11,13,8,9,28,28,73,25,8,10,6,6,0.3,0.4
2026-07-11T2300,1773A,126.5843,43.8358,吉林市,东局子,,10,8,10,7,8,18,18,60,18,5,7,3,3,0.5,0.5
2026-07-11T2300,1774A,126.5051,43.8243,吉林市,电力学院,,9,NA,5,6,8,26,26,72,24,4,7,5,5,0.4,0.4
2026-07-11T2300,1775A,126.6133,43.8971,吉林市,江北,,12,12,15,8,8,25,25,56,23,4,4,7,7,0.4,0.5
2026-07-11T2300,1776A,126.5549,43.8304,吉林市,江南公园,,12,12,12,8,9,23,23,60,12,2,5,3,4,0.2,0.3
2026-07-11T2300,2868A,126.4737,43.953,吉林市,九站,,9,9,12,6,9,28,28,77,25,1,5,1,1,0.3,0.3
2026-07-11T2300,1299A,116.9866,36.6118,济南市,科干所,,33,19,31,8,15,103,103,132,127,14,14,6,7,0.5,0.7
2026-07-11T2300,1300A,116.9379,36.6652,济南市,农科所,,32,22,31,10,18,101,101,136,122,7,9,4,4,0.1,0.2
2026-07-11T2300,1301A,117.1265,36.6736,济南市,开发区,,31,27,31,12,19,99,99,128,122,7,5,6,6,0.5,0.6
2026-07-11T2300,1303A,117.0616,36.6865,济南市,省种子仓库,,36,36,35,12,17,95,95,123,116,9,5,7,6,0.2,0.2
2026-07-11T2300,1304A,116.9495185,36.644937,济南市,机床二厂,,34,34,31,11,18,99,99,128,118,6,6,6,6,0.1,0.3
2026-07-11T2300,1305A,117.0496,36.6629,济南市,市监测站,,34,34,32,14,19,98,98,113,101,11,7,4,3,0.4,0.5
2026-07-11T2300,1306A,116.7674,36.5458,济南市,长清党校,,34,27,32,13,18,108,108,140,134,8,8,5,5,0.1,0.3
2026-07-11T2300,1961A,117.5323,36.6865,济南市,东山小学,,33,24,39,12,22,104,104,143,130,7,8,4,4,0.2,0.3
2026-07-11T2300,3059A,117.7181,36.205,济南市,泰兴公司,,46,46,45,16,23,78,78,124,107,15,13,8,8,0.5,0.4
2026-07-11T2300,3064A,117.6861,36.2172,济南市,莱芜战役纪念馆,,41,41,42,18,23,87,87,136,118,15,12,12,10,0.7,0.3
2026-07-11T2300,3494A,117.1673,36.9782,济南市,济阳区政府,,39,39,44,14,19,88,88,120,100,15,15,3,3,0.2,0.2
2026-07-11T2300,3495A,117.1168,36.6299,济南市,锦屏中学,,32,32,33,14,18,89,89,111,108,6,4,3,2,0.1,0.2
2026-07-11T2300,4108A,117.7107,36.2385,济南市,山财大街5号,,36,36,38,17,24,97,97,144,126,8,10,9,9,0.8,0.7
2026-07-11T2300,4109A,116.9744,36.6889,济南市,无影山路12号,,31,24,27,12,17,97,97,124,118,10,8,7,7,0.3,0.4
2026-07-11T2300,1653A,116.6229,35.4288,济宁市,火炬城,NA,NA,NA,45,NA,20,NA,NA,137,NA,NA,10,NA,5,NA,0.6
2026-07-11T2300,3500A,116.5808,35.3703,济宁市,北湖一中,,29,29,39,10,17,76,76,159,123,12,8,4,4,0.5,0.6
2026-07-11T2300,3501A,116.8251,35.5592,济宁市,服务中心,,34,34,36,12,18,86,86,163,117,11,7,3,3,0.2,0.3
2026-07-11T2300,3678A,116.5907,35.4054,济宁市,市第七中学,,31,31,42,14,18,74,74,150,118,10,7,5,5,0.3,0.5
2026-07-11T2300,4111A,116.6075,35.4566,济宁市,任和路,,34,34,49,10,18,80,80,161,127,10,8,4,3,0.4,0.6
2026-07-11T2300,4112A,116.5648,35.3921,济宁市,文体南路1号,,40,40,39,16,17,71,71,139,114,10,7,4,4,0.4,0.5
2026-07-11T2300,4122A,112.6071,35.1015,济源市,市委党校,颗粒物(PM10),51,51,36,17,14,110,110,113,112,8,8,7,8,0.5,0.5
2026-07-11T2300,4123A,112.596,35.0702,济源市,沁园中路1号,,36,36,30,18,13,112,112,125,120,10,12,3,3,0.4,0.5
2026-07-11T2300,2255A,130.2749,46.8028,佳木斯市,佳纺,,38,38,21,18,14,55,55,80,68,5,4,3,3,0.3,0.3
2026-07-11T2300,2257A,130.3258,46.7975,佳木斯市,环保局,,21,17,16,6,15,67,67,84,75,7,6,6,6,0.3,0.3
2026-07-11T2300,4285A,130.363,46.806,佳木斯市,顺和街,,19,19,16,13,12,58,58,74,66,6,8,2,2,0.3,0.4
2026-07-11T2300,4286A,130.3952,46.8268,佳木斯市,长安路196号,,25,25,19,11,11,65,65,84,74,7,8,5,5,0.3,0.3
2026-07-11T2300,1252A,120.7439,30.778,嘉兴市,清河小学,,12,10,31,3,10,38,38,41,36,2,2,5,5,0.3,0.4
2026-07-11T2300,1253A,120.7261,30.7477,嘉兴市,嘉兴学院,,17,17,24,3,12,33,33,37,33,3,5,3,3,0.3,0.3
2026-07-11T2300,2872A,120.7845,30.7524,嘉兴市,南湖区残联,,16,16,32,3,12,37,37,40,36,2,3,5,6,0.5,0.5
2026-07-11T2300,3407A,120.6915,30.7741,嘉兴市,秀洲住建,NA,NA,NA,23,NA,11,NA,NA,42,36,NA,2,NA,6,NA,0.2
2026-07-11T2300,1945A,98.291,39.7705,嘉峪关市,气象局,颗粒物(PM10),51,51,26,21,12,128,128,139,138,11,10,6,12,0.6,0.6
2026-07-11T2300,2884A,98.2672,39.7978,嘉峪关市,酒钢宾馆,颗粒物(PM10),53,53,31,16,9,136,136,138,138,8,12,8,18,0.5,0.7
2026-07-11T2300,3248A,98.2644,39.7723,嘉峪关市,雄关区,颗粒物(PM10),54,55,38,15,8,120,120,135,132,12,13,5,8,0.6,0.4
2026-07-11T2300,1383A,113.1063,22.6058,江门市,北街,,22,22,24,13,11,49,49,153,130,6,6,/,/,/,/
2026-07-11T2300,1384A,113.073,22.5835,江门市,西区,,32,32,26,16,13,55,55,142,109,10,13,/,/,/,/
2026-07-11T2300,1385A,113.0218,22.531,江门市,圭峰西,,26,19,27,18,14,57,57,120,99,8,12,/,/,/,/
2026-07-11T2300,1386A,113.0826,22.5947,江门市,东湖,,30,26,22,21,12,56,56,147,116,12,14,8,8,0.4,0.4
2026-07-11T2300,3311A,113.1077,22.5647,江门市,江海富民,颗粒物(PM10),53,54,37,17,12,46,46,155,126,15,13,/,/,0.6,0.5
2026-07-11T2300,3449A,113.0496,22.4669,江门市,新会银湖,,20,20,29,14,14,39,39,137,104,16,15,2,2,0.4,0.4
2026-07-11T2300,3335A,113.3137,35.2643,焦作市,马村街道办,,39,39,33,24,18,85,85,121,111,13,10,7,8,0.2,0.3
2026-07-11T2300,3336A,113.2464,35.2374,焦作市,焦作技师学院,,34,34,30,23,19,103,103,134,128,9,8,5,6,0.7,0.6
2026-07-11T2300,3477A,113.1656,35.2536,焦作市,中站许衡医院,,43,43,31,24,18,108,108,127,123,10,8,7,7,0.5,0.5
2026-07-11T2300,3981A,113.2456,35.18,焦作市,原李万街道办,颗粒物(PM10),55,56,35,20,18,95,95,130,124,9,7,10,10,0.4,0.3
2026-07-11T2300,4264A,113.234,35.219,焦作市,新安路1731号,,44,44,30,29,18,112,112,143,137,10,8,8,8,0.3,0.3
2026-07-11T2300,4295A,113.2722,35.2121,焦作市,人民路3066号,,38,35,29,26,18,93,93,125,119,8,8,6,6,0.6,0.6
2026-07-11T2300,1708A,116.3701,23.5345,揭阳市,新兴,,18,17,35,12,20,38,38,68,54,9,8,6,9,0.5,0.5
2026-07-11T2300,1709A,116.3261,23.5442,揭阳市,西马,,25,25,36,12,20,36,36,71,55,13,10,5,7,0.5,0.6
2026-07-11T2300,1710A,116.361,23.5627,揭阳市,东兴,,35,35,35,10,21,39,39,69,52,13,15,4,6,/,/
2026-07-11T2300,1711A,116.4151,23.5295,揭阳市,渔湖,,28,28,35,12,20,40,40,74,56,11,9,2,3,/,/
2026-07-11T2300,3320A,116.4028,23.5699,揭阳市,曲溪,,30,30,33,9,22,38,38,78,60,14,11,6,8,0.5,0.5
2026-07-11T2300,1944A,102.1691,38.5166,金昌市,天庆家园,,33,22,19,3,10,103,103,114,106,9,12,11,10,0.2,0.2
2026-07-11T2300,4022A,102.1648,38.5369,金昌市,金川区人防中心,,33,NA,11,8,11,104,104,124,116,9,8,10,10,0.3,0.3
2026-07-11T2300,4239A,102.193042,38.531887,金昌市,长春路96号,,29,17,19,9,12,92,92,110,103,13,10,6,11,0.4,0.3
2026-07-11T2300,1262A,119.6478,29.0773,金华市,十五中,,10,6,19,3,6,29,29,50,36,7,7,2,2,0.3,0.3
2026-07-11T2300,1263A,119.6859,29.1032,金华市,监测站,,10,6,20,3,3,29,29,44,34,2,5,2,2,0.3,0.3
2026-07-11T2300,3659A,119.656,29.1132,金华市,气象局,,10,6,16,3,5,30,30,46,34,3,7,2,2,0.2,0.2
2026-07-11T2300,1767A,121.1114,41.0879,锦州市,南山,,18,17,24,12,13,49,49,58,56,11,9,1,1,0.3,0.3
2026-07-11T2300,1768A,121.060361,40.842794,锦州市,开发区,NA,NA,NA,26,12,12,47,47,65,65,8,6,4,4,0.3,0.3
2026-07-11T2300,1769A,121.1836,41.1118,锦州市,百股街道,,18,18,22,12,13,57,57,75,72,10,8,2,2,0.2,0.3
2026-07-11T2300,1770A,121.1176,41.1224,锦州市,天安街道,,19,19,26,12,15,53,53,66,62,9,9,4,4,0.4,0.4
2026-07-11T2300,1771A,121.1303,41.1385,锦州市,北湖公园,,19,18,23,13,16,52,52,59,58,7,7,3,3,0.2,0.3
2026-07-11T2300,2160A,112.8496,35.5051,晋城市,自来水公司,,39,31,24,11,7,124,124,134,133,6,5,4,4,0.6,0.6
2026-07-11T2300,2162A,112.8509,35.4886,晋城市,市环保局,,39,34,28,9,13,122,122,129,128,8,7,4,4,0.4,0.4
2026-07-11T2300,3620A,112.8258,35.4804,晋城市,泽州一中,,38,32,27,18,14,119,119,131,130,8,6,3,4,0.4,0.4
2026-07-11T2300,4078A,112.8246,35.5152,晋城市,前书院路,,42,33,28,8,9,133,133,136,136,6,6,4,4,0.5,0.5
2026-07-11T2300,4079A,112.8864,35.4773,晋城市,祥云街666号,,39,24,25,24,14,124,124,127,127,6,6,3,3,0.5,0.5
2026-07-11T2300,2174A,112.6992,37.6984,晋中市,榆次区政府,,35,31,40,24,29,67,67,125,86,9,12,6,7,1.2,1.3
2026-07-11T2300,2865A,112.7195,37.683,晋中市,榆次三中,,35,31,37,24,26,59,59,116,81,13,9,9,9,0.6,0.6
2026-07-11T2300,4080A,112.7375,37.7215,晋中市,广安街188号,,38,38,40,22,24,56,56,128,87,15,11,8,9,0.3,0.4
2026-07-11T2300,4200A,112.7478,37.6954,晋中市,迎宾街26号,,33,31,34,23,26,57,57,122,84,16,12,6,7,0.3,0.4
2026-07-11T2300,2439A,112.2012,31.048,荆门市,竹园小学,NA,NA,NA,30,NA,19,NA,NA,100,98,NA,11,NA,4,NA,0.8
2026-07-11T2300,2440A,112.1968,30.9892,荆门市,掇刀,,35,32,25,24,18,90,90,104,104,8,9,12,11,0.6,0.6
2026-07-11T2300,3012A,112.1849,31.0361,荆门市,西山林语,,26,NA,24,18,17,59,59,98,89,6,6,10,9,0.9,0.9
2026-07-11T2300,3547A,112.1631,31.0134,荆门市,龙泉中学南校,NA,NA,28,21,17,14,NA,NA,109,105,12,6,6,6,0.7,0.8
2026-07-11T2300,4124A,112.2213,31.0654,荆门市,新台西路6号,,35,34,29,24,20,46,46,106,97,19,8,6,6,0.5,0.5
2026-07-11T2300,1844A,112.2493,30.3198,荆州市,市图书馆,,29,25,20,20,17,80,80,111,93,12,6,4,4,0.5,0.5
2026-07-11T2300,1845A,112.2009,30.3543,荆州市,市委党校,,36,NA,23,25,17,67,67,108,91,13,7,4,5,0.5,0.4
2026-07-11T2300,3194A,112.2749,30.3124,荆州市,管委会,,32,28,22,22,18,58,58,112,85,18,9,8,9,0.5,0.5
2026-07-11T2300,4268A,112.1722,30.3366,荆州市,学苑路85号,,26,24,25,18,19,48,48,104,81,18,13,2,2,0.7,0.6
2026-07-11T2300,2343A,117.2114,29.2931,景德镇市,老干部活动中心,,17,12,16,10,10,52,52,56,50,5,7,5,6,0.5,0.5
2026-07-11T2300,2344A,117.1893,29.2789,景德镇市,兽医站,,35,35,22,3,14,54,54,61,54,8,5,4,3,0.4,0.4
2026-07-11T2300,2346A,117.246,29.2958,景德镇市,陶研所,,18,18,18,11,9,49,49,45,45,4,7,4,3,0.3,0.4
2026-07-11T2300,4289A,117.154766,29.256967,景德镇市,青少年活动中心,,18,18,28,10,13,47,47,48,48,7,11,7,6,/,/
2026-07-11T2300,1803A,115.9873,29.6816,九江市,十里,,28,28,33,12,21,87,87,130,102,6,17,4,9,0.2,0.4
2026-07-11T2300,1804A,115.9583,29.7047,九江市,茅山头,,28,28,28,13,21,78,78,126,97,6,13,4,4,0.3,0.5
2026-07-11T2300,1805A,115.9877,29.7295,九江市,西园,NA,NA,28,29,10,20,NA,NA,120,NA,7,22,3,4,0.2,0.3
2026-07-11T2300,1808A,115.9112,29.6038,九江市,综合工业园,,23,20,30,11,18,73,73,132,101,21,19,3,5,0.2,0.3
2026-07-11T2300,3190A,116.0254,29.6995,九江市,外国语学校,,40,40,27,9,21,74,74,118,91,8,15,11,14,0.5,0.7
2026-07-11T2300,4253A,116.010205,29.659402,九江市,莲花大道8号,,24,18,19,13,18,74,74,115,90,7,10,6,8,0.4,0.6
2026-07-11T2300,4240A,98.495752,39.733935,酒泉市,玉门东路5号,颗粒物(PM10),67,73,30,24,13,101,101,135,128,17,8,7,8,0.2,0.2
2026-07-11T2300,4241A,98.5099,39.7506,酒泉市,北大街108号,颗粒物(PM10),62,66,34,26,12,85,85,137,128,21,7,11,12,0.3,0.2
2026-07-11T2300,2698A,76.0071,39.466,喀什地区,巡警大队,,43,37,346,20,102,135,135,148,146,20,13,4,4,0.3,0.3
2026-07-11T2300,2699A,75.9756,39.4693,喀什地区,吾办,,43,43,286,18,88,120,120,149,146,24,9,10,8,0.5,0.3
2026-07-11T2300,4027A,75.9485,39.4688,喀什地区,老干局,,47,47,287,21,69,119,119,144,141,18,9,4,4,0.4,0.2
2026-07-11T2300,1824A,114.3389,34.778,开封市,肿瘤医院,,33,30,32,23,22,98,98,134,128,15,13,6,6,0.3,0.4
2026-07-11T2300,1826A,114.2884,34.7966,开封市,世纪星幼儿园,,35,26,34,24,23,105,105,139,135,14,12,5,5,0.5,0.5
2026-07-11T2300,3147A,114.3434,34.8101,开封市,龙亭公园,,33,31,31,20,17,104,104,126,123,11,8,4,3,0.3,0.4
2026-07-11T2300,3210A,114.3645,34.7955,开封市,汴京公园,NA,NA,26,33,24,21,NA,NA,145,NA,16,15,5,4,0.6,0.7
2026-07-11T2300,3473A,114.2485,34.8306,开封市,技师学院,,36,32,36,16,20,114,114,138,136,11,10,5,4,0.4,0.5
2026-07-11T2300,3592A,114.4518,34.7503,开封市,祥符区生态环境局,,38,38,31,18,23,96,96,128,124,13,8,10,10,0.3,0.4
2026-07-11T2300,1951A,84.886,45.6029,克拉玛依市,长征新村,,37,30,24,25,10,117,117,129,126,10,5,4,3,0.5,0.4
2026-07-11T2300,1952A,84.8894,45.5827,克拉玛依市,南林小区,,47,47,28,12,5,99,99,118,106,15,7,7,7,0.5,0.3
2026-07-11T2300,1954A,84.896,44.3328,克拉玛依市,独山子区,颗粒物(PM10),53,54,38,22,14,80,80,133,125,22,6,6,6,0.4,0.3
2026-07-11T2300,1955A,85.6888,46.0909,克拉玛依市,乌尔禾区商贸楼,细颗粒物(PM2.5),68,59,28,44,16,89,89,122,116,17,7,9,8,0.4,0.3
2026-07-11T2300,3612A,85.1045,45.6895,克拉玛依市,白碱滩区新站,颗粒物(PM10),53,54,33,20,8,108,108,128,126,13,5,10,8,0.1,0.1
2026-07-11T2300,2697A,76.1457,39.7143,克孜勒苏柯尔克孜自治州,市人民政府,,44,44,232,22,63,131,131,155,149,16,12,9,8,0.1,0.1
2026-07-11T2300,3665A,76.1654,39.7157,克孜勒苏柯尔克孜自治州,克州文化中心,颗粒物(PM10),55,56,230,32,68,136,136,155,153,13,7,25,9,0.3,0.2
2026-07-11T2300,1450A,102.8203,24.889,昆明市,呈贡新区,,31,23,25,8,10,97,97,84,76,5,10,2,3,0.6,0.6
2026-07-11T2300,1452A,102.7253,25.0904,昆明市,龙泉镇,,32,32,22,9,11,66,66,81,71,20,18,5,6,0.3,0.4
2026-07-11T2300,1453A,102.7267,25.0378,昆明市,东风东路,,27,9,19,9,13,84,84,85,73,18,17,1,3,0.3,0.4
2026-07-11T2300,1454A,102.6744,25.0671,昆明市,金鼎山,颗粒物(PM10),60,64,26,8,12,90,90,81,66,10,16,4,5,0.3,0.4
2026-07-11T2300,1455A,102.6643,25.0401,昆明市,碧鸡广场,,26,18,22,16,15,82,82,73,63,10,15,5,7,0.6,0.7
2026-07-11T2300,3179A,102.7491,25.012,昆明市,官渡区博物馆,,25,18,20,9,10,78,78,86,71,17,14,3,4,0.3,0.4
2026-07-11T2300,3375A,102.8016,24.8336,昆明市,青年创业园,,29,13,14,3,7,90,90,83,79,8,9,3,4,0.3,0.3
2026-07-11T2300,3550A,102.8,24.9787,昆明市,昆明学院,,28,NA,18,12,8,88,88,86,80,8,12,5,6,0.4,0.4
2026-07-11T2300,3551A,102.5969,24.6738,昆明市,晋宁区生态环境分局,,22,22,18,14,14,55,55,74,60,8,10,7,8,0.4,0.4
2026-07-11T2300,3552A,102.6673,24.9861,昆明市,云天化总部,,28,18,18,9,10,87,87,82,70,10,13,5,7,0.3,0.4
2026-07-11T2300,1456A,91.132,29.6515,拉萨市,八廓街,,23,8,8,7,6,71,71,93,84,10,8,7,7,0.3,0.3
2026-07-11T2300,1457A,91.1221,29.6748,拉萨市,市环保局,,20,12,9,3,6,64,64,90,82,15,9,6,6,0.3,0.2
2026-07-11T2300,1458A,91.0874,29.6476,拉萨市,区监测站,,21,NA,7,10,6,66,66,86,79,18,10,6,6,0.2,0.2
2026-07-11T2300,1459A,91.1774,29.6541,拉萨市,西藏大学,,22,13,7,6,6,69,69,95,85,12,11,5,4,0.3,0.3
2026-07-11T2300,1460A,90.9798,29.6586,拉萨市,区辐射站,,25,20,10,3,6,77,77,77,75,11,13,6,6,0.3,0.3
2026-07-11T2300,1461A,91.0831,29.6292,拉萨市,拉萨火车站,,22,12,7,6,6,70,70,86,80,17,10,5,5,0.4,0.4
2026-07-11T2300,2520A,109.2203,23.7252,来宾市,来宾技工学校,,24,24,19,8,6,28,28,93,73,25,12,6,6,0.6,0.5
2026-07-11T2300,3535A,109.1781,23.7293,来宾市,兴宾区政府,,23,23,17,3,6,57,57,106,92,7,5,6,8,0.6,0.5
2026-07-11T2300,4002A,109.2312,23.7428,来宾市,中南小学,,15,15,15,6,7,40,40,91,77,18,8,6,6,0.6,0.5
2026-07-11T2300,1479A,103.8309,36.0467,兰州市,铁路设计院,,30,26,28,21,17,43,43,97,86,45,22,6,6,0.7,0.6
2026-07-11T2300,3241A,103.7439,36.0841,兰州市,百合公园,,27,27,26,6,11,43,43,68,62,27,17,8,4,0.6,0.6
2026-07-11T2300,3242A,103.9613,35.9985,兰州市,和平,,23,NA,12,8,10,73,73,99,94,15,8,6,7,0.7,0.8
2026-07-11T2300,4236A,103.629272,36.093822,兰州市,庄浪东路808号,,17,13,19,9,11,42,42,70,61,34,20,7,8,0.4,0.3
2026-07-11T2300,4237A,103.7251,36.104344,兰州市,安宁西路88号,,25,17,21,10,13,80,80,87,87,15,12,7,7,0.3,0.3
2026-07-11T2300,4238A,103.846982,36.067567,兰州市,北滨河东路1号,,24,20,18,14,12,24,24,77,60,48,22,12,12,0.6,0.5
2026-07-11T2300,1067A,116.6712,39.5109,廊坊市,药材公司,,23,NA,25,15,24,71,71,106,91,5,7,3,3,0.4,0.6
2026-07-11T2300,1068A,116.7215,39.5592,廊坊市,开发区,,23,18,25,16,20,62,62,114,94,5,6,3,3,0.3,0.6
2026-07-11T2300,1070A,116.7246,39.5273,廊坊市,北华航天学院,,20,NA,21,14,23,64,64,111,91,7,8,3,3,0.4,0.6
2026-07-11T2300,2919A,116.7022,39.5454,廊坊市,河北工业大学,,23,15,22,14,21,73,73,113,98,4,6,3,3,0.4,0.7
2026-07-11T2300,2536A,103.7629,29.5844,乐山市,牛耳桥,,17,17,13,3,5,37,37,89,64,19,12,5,4,0.8,0.7
2026-07-11T2300,2537A,103.7501,29.6002,乐山市,市第三水厂,,18,18,11,3,2,39,39,83,64,22,12,2,2,1.2,1
2026-07-11T2300,2538A,103.7571,29.5664,乐山市,市监测站,,18,18,12,7,5,34,34,95,64,17,9,1,2,1.0,0.8
2026-07-11T2300,3361A,103.7313,29.563,乐山市,理工大学,,14,14,10,7,6,33,33,88,66,14,9,3,3,1.0,0.7
2026-07-11T2300,2599A,100.2497,26.8802,丽江市,丽江古城,,11,11,13,3,4,32,32,55,43,13,9,1,4,0.6,0.5
2026-07-11T2300,2600A,100.2203,26.8906,丽江市,市中心,,10,10,10,6,6,25,25,50,35,18,9,8,7,0.5,0.5
2026-07-11T2300,1267A,119.9141,28.4513,丽水市,监测站大楼,,10,6,13,3,5,31,31,35,34,4,6,4,4,0.3,0.3
2026-07-11T2300,1268A,119.93,28.4589,丽水市,莲都小学,,11,6,14,3,5,35,35,40,38,2,5,/,/,/,/
2026-07-11T2300,1269A,119.8794,28.4232,丽水市,余庄前,,10,6,14,3,4,30,30,31,28,3,7,7,7,0.5,0.5
2026-07-11T2300,1173A,119.1759,34.5885,连云港市,市环境监测站,,18,14,21,12,11,33,33,89,55,2,4,5,5,0.2,0.3
2026-07-11T2300,3000A,119.3577,34.6971,连云港市,德源药业,,27,27,30,12,11,32,32,59,37,5,9,5,5,0.2,0.2
2026-07-11T2300,3007A,119.178,34.8442,连云港市,新城一中,,25,25,32,15,15,38,38,55,44,3,8,2,2,0.7,0.7
2026-07-11T2300,3008A,119.3607,34.7519,连云港市,胡沟管理处,,27,27,31,3,9,40,40,63,48,5,8,8,8,0.3,0.3
2026-07-11T2300,3009A,119.1478,34.5913,连云港市,矿山设计院,,22,22,26,9,9,33,33,84,53,4,6,1,2,0.2,0.2
2026-07-11T2300,3434A,119.2414,34.6539,连云港市,工贸学校,,30,30,30,12,13,36,36,87,55,5,8,5,5,0.3,0.4
2026-07-11T2300,3664A,119.4171,34.734,连云港市,连云街道,,24,24,28,9,12,38,38,63,48,4,7,6,6,0.3,0.3
2026-07-11T2300,2573A,102.2629,27.8981,凉山彝族自治州,西昌市政府,,46,NA,28,32,20,34,34,66,52,18,13,6,7,0.4,0.7
2026-07-11T2300,2574A,102.2686,27.885,凉山彝族自治州,凉山州政府,,36,26,20,25,15,40,40,67,56,20,13,4,6,0.7,0.6
2026-07-11T2300,4229A,102.2342,27.8859,凉山彝族自治州,凯乐南路30号,,36,NA,17,25,14,31,31,63,44,25,17,4,6,0.6,0.6
2026-07-11T2300,2212A,123.1978,41.2036,辽阳市,宏伟区,,23,23,14,10,5,39,39,52,38,4,4,6,6,0.3,0.3
2026-07-11T2300,2213A,123.1684,41.2497,辽阳市,新华园,,19,19,14,11,6,41,41,57,40,3,4,4,4,0.2,0.2
2026-07-11T2300,2214A,123.2355,41.2663,辽阳市,滨河路,,18,18,15,10,6,39,39,54,37,3,5,7,7,0.1,0.1
2026-07-11T2300,4083A,123.153,41.2874,辽阳市,铁西路150号,,20,20,15,12,8,45,45,59,44,2,4,6,6,0.2,0.2
2026-07-11T2300,2227A,125.1359,42.8845,辽源市,环保局,,17,9,14,3,2,52,52,95,43,1,3,3,3,0.4,0.4
2026-07-11T2300,4085A,125.0998,42.9134,辽源市,安宁大街333号,NA,NA,NA,9,3,4,NA,NA,81,NA,8,4,4,4,0.2,0.3
2026-07-11T2300,1625A,115.9789,36.4372,聊城市,区政府,,35,27,35,7,18,109,109,167,153,10,5,11,10,0.5,0.6
2026-07-11T2300,3200A,115.9772,36.4986,聊城市,监控中心,,36,23,30,10,17,113,113,166,155,7,5,9,8,0.3,0.4
2026-07-11T2300,3513A,116.0443,36.436,聊城市,九州社区,,35,33,37,10,19,111,111,163,149,6,4,4,6,0.4,0.5
2026-07-11T2300,4018A,116.0564,36.4609,聊城市,星美广场,,33,33,41,9,19,104,104,154,139,7,5,5,5,0.3,0.4
2026-07-11T2300,4113A,116.0091,36.4495,聊城市,利民路,,36,31,30,8,18,115,115,173,157,13,7,13,13,0.3,0.3
2026-07-11T2300,2632A,94.3683,29.6373,林芝市,林芝监测站,,20,17,6,14,5,16,16,42,34,10,6,4,4,0.4,0.3
2026-07-11T2300,2633A,94.3616,29.6634,林芝市,林芝人民医院,,15,15,8,8,5,11,11,40,31,8,7,4,4,0.4,0.4
2026-07-11T2300,2603A,100.0779,23.8981,临沧市,市环保局,,22,22,11,14,5,19,19,39,33,13,9,8,8,0.4,0.4
2026-07-11T2300,2604A,100.0894,23.882,临沧市,市气象局,,13,12,14,6,5,40,40,47,45,6,6,6,6,0.4,0.4
2026-07-11T2300,1733A,111.5552,36.0791,临汾市,临钢医院,,19,16,32,6,10,60,60,121,74,13,15,4,5,0.5,0.5
2026-07-11T2300,1734A,111.4984,36.0734,临汾市,技工学校,,29,23,35,20,19,62,62,118,72,9,8,4,5,0.5,0.5
2026-07-11T2300,1736A,111.5017,36.0857,临汾市,市委,,34,34,53,6,12,58,58,88,62,8,7,6,6,1.0,1.1
2026-07-11T2300,3018A,111.5048,36.1015,临汾市,唐尧大酒店,,36,36,57,6,11,59,59,121,73,13,11,4,4,0.7,0.7
2026-07-11T2300,4244A,111.4879,36.053,临汾市,启星学校,,19,10,32,9,17,60,60,106,68,8,9,4,5,0.8,0.8
2026-07-11T2300,4271A,103.2464,35.6123,临夏回族自治州,滨河东路1号,,17,15,13,7,5,27,27,82,69,33,10,5,7,0.5,0.4
2026-07-11T2300,4310A,103.207136,35.599807,临夏回族自治州,新华街21号,,24,23,16,11,8,75,75,94,90,6,5,8,9,0.4,0.4
2026-07-11T2300,1618A,118.3429,35.0532,临沂市,沂河小区,,36,36,34,7,14,15,15,93,62,8,7,10,11,0.1,0.2
2026-07-11T2300,1619A,118.2962,35.0568,临沂市,鲁南制药厂,,24,24,28,8,14,20,20,92,66,8,7,10,12,0.4,0.5
2026-07-11T2300,1620A,118.2793,34.9976,临沂市,新光毛纺厂,,24,24,26,12,17,12,12,101,67,9,6,5,8,0.2,0.3
2026-07-11T2300,1621A,118.3955,35.0889,临沂市,河东保险公司,,24,24,30,12,14,22,22,95,67,7,6,7,9,0.1,0.1
2026-07-11T2300,3370A,118.3563,35.0215,临沂市,十里堡居委,,14,14,23,6,13,16,16,85,59,14,12,10,10,0.4,0.5
2026-07-11T2300,3496A,118.359,35.1067,临沂市,南坊新区,,31,31,34,12,17,24,24,104,72,10,10,6,8,0.1,0.2
2026-07-11T2300,3860A,118.3915,35.0297,临沂市,皇山花园小区,,14,14,27,8,15,21,21,95,64,8,7,8,8,0.5,0.5
2026-07-11T2300,1870A,109.4854,24.3898,柳州市,柳东小学,,19,17,18,8,7,58,58,86,72,9,6,4,4,0.6,0.6
2026-07-11T2300,1871A,109.4109,24.3304,柳州市,环保监测站,,20,20,20,7,8,56,56,92,77,10,11,7,7,0.7,0.7
2026-07-11T2300,1872A,109.3886,24.3408,柳州市,河西水厂,,25,25,23,11,18,49,49,105,87,19,12,8,6,0.7,0.6
2026-07-11T2300,1873A,109.4263,24.2951,柳州市,市四中,,29,28,24,20,11,39,39,92,78,18,10,6,6,0.7,0.7
2026-07-11T2300,1874A,109.396,24.3658,柳州市,市九中,,20,NA,24,14,11,45,45,95,85,17,10,6,6,0.7,0.6
2026-07-11T2300,1875A,109.4912,24.3164,柳州市,古亭山,,15,NA,18,10,9,14,14,79,50,25,10,3,3,0.6,0.6
2026-07-11T2300,3402A,109.5422,24.3994,柳州市,市二中,,23,18,20,16,9,20,20,105,64,25,10,8,7,0.7,0.6
2026-07-11T2300,2307A,116.5078,31.7369,六安市,监测大楼,NA,NA,28,19,26,19,NA,NA,83,82,NA,6,NA,5,NA,0.5
2026-07-11T2300,2308A,116.4738,31.7642,六安市,皖西学院,,25,23,25,16,15,80,80,96,96,5,4,6,6,0.4,0.4
2026-07-11T2300,2309A,116.4997,31.7904,六安市,朝阳厂,,25,21,19,17,17,73,73,88,88,8,7,7,8,0.3,0.2
2026-07-11T2300,2310A,116.5566,31.7885,六安市,开发区,,35,30,30,24,21,74,74,94,94,10,8,6,6,0.3,0.2
2026-07-11T2300,2577A,104.8293,26.592,六盘水市,黄土坡,NA,NA,NA,15,8,10,66,66,88,86,9,7,4,4,NA,0.4
2026-07-11T2300,2579A,104.8481,26.5898,六盘水市,民中,,20,14,12,12,10,62,62,83,80,8,6,1,1,0.4,0.4
2026-07-11T2300,2580A,104.9541,26.5506,六盘水市,双水,,17,17,13,3,6,54,54,80,76,8,6,4,4,0.7,0.6
2026-07-11T2300,4151A,104.8899,26.5685,六盘水市,钟山大道中段564号,,20,14,16,7,8,61,61,84,82,6,4,6,6,0.5,0.5
2026-07-11T2300,2336A,117.022,25.1031,龙岩市,龙岩市监测站,,22,21,29,15,21,65,65,76,63,5,12,7,8,0.2,0.3
2026-07-11T2300,2337A,117.0257,25.0662,龙岩市,闽西职业技术学院,,20,18,40,12,22,62,62,81,60,1,8,5,6,0.3,0.4
2026-07-11T2300,2338A,117.0195,25.0306,龙岩市,龙岩学院,,21,18,29,13,20,65,65,80,66,6,7,2,3,/,/
2026-07-11T2300,2885A,104.9344,33.3827,陇南市,滨江中学,,28,28,27,6,6,47,47,65,59,8,8,8,8,0.6,0.6
2026-07-11T2300,3247A,104.9551,33.3709,陇南市,市总工会,,33,33,26,7,8,36,36,72,57,6,9,7,7,0.5,0.5
2026-07-11T2300,2488A,111.9984,27.7346,娄底市,市监测站,,39,32,31,27,20,73,73,93,82,11,14,8,11,0.4,0.9
2026-07-11T2300,2491A,111.9888,27.7035,娄底市,市政府,,30,27,27,21,20,88,88,96,89,8,7,7,6,0.4,0.4
2026-07-11T2300,4127A,111.9812,27.7591,娄底市,涟钢职大,,27,20,27,15,14,84,84,115,90,6,11,2,4,1.1,1.9
2026-07-11T2300,4128A,112.0303,27.7457,娄底市,娄底体校,,43,43,28,27,17,75,75,101,90,16,8,3,4,0.6,0.6
2026-07-11T2300,1894A,105.4427,28.9063,泸州市,小市上码头,,24,15,17,8,6,76,76,100,92,8,9,7,7,0.5,0.5
2026-07-11T2300,1895A,105.4241,28.8573,泸州市,兰田宪桥,,29,28,24,16,12,91,91,126,110,8,10,2,2,0.4,0.4
2026-07-11T2300,1896A,105.4378,28.8833,泸州市,市环监站,,28,14,14,3,4,87,87,109,102,10,11,5,6,0.7,0.6
2026-07-11T2300,4272A,105.3689,28.7783,泸州市,纳溪中医医院,NA,NA,NA,32,NA,19,NA,NA,94,NA,NA,20,NA,3,NA,0.6
2026-07-11T2300,2183A,111.1447,37.5212,吕梁市,环保局,,26,9,17,8,9,81,81,80,80,5,13,4,4,0.4,0.5
2026-07-11T2300,2185A,111.1285,37.5338,吕梁市,自来水公司,,24,14,15,6,10,75,75,77,77,7,14,3,3,0.5,0.6
2026-07-11T2300,2867A,111.1225,37.5093,吕梁市,马茂庄小学,,27,27,17,10,8,26,26,62,58,47,19,4,3,0.4,0.5
2026-07-11T2300,1812A,112.3934,34.6517,洛阳市,市委党校,细颗粒物(PM2.5),101,NA,23,61,17,NA,NA,123,123,NA,7,NA,7,NA,0.5
2026-07-11T2300,1815A,112.494,34.6883,洛阳市,河南林校,,39,34,28,15,13,123,123,132,132,11,9,12,12,0.3,0.3
2026-07-11T2300,1816A,112.3843,34.623,洛阳市,开发区管委会,,43,26,22,18,15,137,137,146,146,4,5,8,12,0.5,0.6
2026-07-11T2300,1817A,112.4263,34.6249,洛阳市,市委新办公区,,42,22,17,13,12,132,132,132,132,8,8,12,14,0.3,0.4
2026-07-11T2300,3340A,112.6005,34.6323,洛阳市,伊滨,,41,28,21,15,11,130,130,139,139,6,6,5,5,0.4,0.4
2026-07-11T2300,3341A,112.495,34.6338,洛阳市,中移产业园,,41,21,18,13,13,131,131,132,132,4,3,8,8,0.8,0.8
2026-07-11T2300,3593A,112.5736,34.8993,洛阳市,吉利监测站,,36,36,33,18,14,112,112,115,112,7,9,7,7,0.2,0.2
2026-07-11T2300,3635A,112.3678,34.6623,洛阳市,河科大西苑校区,,42,25,24,14,14,132,132,130,130,2,4,15,19,0.6,0.6
2026-07-11T2300,3636A,112.4387,34.678,洛阳市,英才小学,,40,23,16,14,11,125,125,121,121,3,4,10,10,0.5,0.5
2026-07-11T2300,4214A,112.460027,34.694929,洛阳市,春都路1号院,,38,23,19,15,12,121,121,118,118,7,7,2,2,0.2,0.3
2026-07-11T2300,2399A,114.051,33.5721,漯河市,三五一五工厂,,37,37,27,20,18,86,86,147,134,24,21,5,5,0.1,0.2
2026-07-11T2300,2400A,114.0055,33.5698,漯河市,漯河大学,,42,42,36,19,19,92,92,151,138,23,20,5,6,0.4,0.5
2026-07-11T2300,2401A,114.0134,33.5826,漯河市,市水利局,,31,27,24,13,19,98,98,151,141,24,20,6,6,0.4,0.5
2026-07-11T2300,2402A,114.0261,33.5697,漯河市,市广电局,,29,24,23,11,17,92,92,150,140,19,16,4,4,0.4,0.4
2026-07-11T2300,3478A,113.9691,33.568,漯河市,市图书馆,,32,30,27,22,17,93,93,150,140,20,17,7,10,0.6,0.6
2026-07-11T2300,4250A,114.089259,33.588274,漯河市,韶山路11号,,35,31,31,24,18,84,84,155,137,25,18,7,6,0.3,0.4
2026-07-11T2300,1798A,118.5084,31.6838,马鞍山市,湖东路四小,,20,19,34,14,14,30,30,84,61,2,5,7,8,0.5,0.5
2026-07-11T2300,1799A,118.5019,31.6449,马鞍山市,开发区,,33,33,39,17,16,34,34,90,66,1,5,6,7,0.5,0.5
2026-07-11T2300,3633A,118.4914,31.681,马鞍山市,雨山,,41,41,30,13,15,34,34,90,66,3,6,6,6,0.5,0.5
2026-07-11T2300,4191A,118.527362,31.722269,马鞍山市,慈湖高新区,,39,39,35,16,15,34,34,86,63,4,6,7,7,0.5,0.4
2026-07-11T2300,1686A,111.0285,21.469,茂名市,电白南海,,29,29,22,12,11,71,71,79,79,7,4,6,7,0.5,0.6
2026-07-11T2300,1687A,110.9294,21.6533,茂名市,茂石化七小,,36,31,23,25,14,54,54,70,68,12,8,9,10,0.5,0.4
2026-07-11T2300,1688A,110.9108,21.6688,茂名市,健康路,,43,NA,15,30,14,56,56,69,68,8,6,12,8,0.5,0.5
2026-07-11T2300,1689A,110.8592,21.6826,茂名市,高岭,,50,44,28,35,16,40,40,64,62,12,8,17,9,/,/
2026-07-11T2300,3450A,111.0101,21.5165,茂名市,电白水东,,23,22,12,16,11,61,61,75,73,8,5,12,5,/,/
2026-07-11T2300,2540A,103.8414,30.0871,眉山市,气象局,,33,NA,15,23,7,60,60,87,60,29,6,6,11,0.8,0.8
2026-07-11T2300,3148A,103.829,30.0563,眉山市,区人社局,,35,35,27,14,5,50,50,98,80,21,15,8,7,0.6,0.5
2026-07-11T2300,4148A,103.8836,30.0695,眉山市,眉职院,,25,25,17,15,12,52,52,98,77,16,11,6,6,0.4,0.4
2026-07-11T2300,1690A,116.1248,24.3307,梅州市,梅江月梅,细颗粒物(PM2.5),109,NA,37,69,42,13,13,64,44,22,12,/,/,/,/
2026-07-11T2300,1691A,116.0798,24.2719,梅州市,梅县新城,,36,NA,31,25,23,22,22,72,54,20,13,10,10,0.6,0.5
2026-07-11T2300,3315A,116.1234,24.2994,梅州市,梅龙,,36,34,30,25,22,33,33,61,49,12,10,8,7,0.7,0.7
2026-07-11T2300,1878A,104.7775,31.4741,绵阳市,富乐山,,27,14,22,8,12,85,85,104,97,6,8,11,11,0.7,0.7
2026-07-11T2300,1880A,104.6698,31.4668,绵阳市,高新区自来水公司,,27,9,21,7,13,84,84,111,100,2,6,11,11,0.6,0.7
2026-07-11T2300,3491A,104.6899,31.5324,绵阳市,西科大附属小学,,28,14,20,6,14,88,88,102,96,3,7,6,6,0.3,0.4
2026-07-11T2300,3492A,104.5647,31.5343,绵阳市,安州区旅游局,,27,18,20,7,11,85,85,102,96,2,5,4,5,0.2,0.3
2026-07-11T2300,4146A,104.7092,31.4972,绵阳市,科技城新区公安局,,33,19,22,3,13,104,104,109,106,2,8,12,12,0.6,0.7
2026-07-11T2300,4226A,104.765114,31.453094,绵阳市,绵阳市气象局,,32,32,26,3,11,91,91,92,90,4,10,7,6,0.5,0.5
2026-07-11T2300,1784A,129.61,44.561,牡丹江市,环保大楼,,16,NA,13,11,7,19,19,68,51,11,10,6,6,0.3,0.4
2026-07-11T2300,1787A,129.6364,44.6075,牡丹江市,机车工厂,,15,13,21,10,9,20,20,61,45,12,14,10,10,0.3,0.4
2026-07-11T2300,1788A,129.6386,44.5462,牡丹江市,第一中学,,22,22,16,3,4,20,20,76,47,7,11,8,9,0.4,0.4
2026-07-11T2300,4287A,129.5992,44.5964,牡丹江市,东晓云街98号,,25,25,25,3,5,27,27,70,55,11,9,5,5,0.3,0.3
2026-07-11T2300,2531A,105.0703,29.61,内江市,市监测站,,30,30,29,17,19,92,92,133,122,12,10,16,14,0.7,0.5
2026-07-11T2300,2533A,105.0657,29.5807,内江市,内江二中,,31,31,24,19,20,86,86,127,114,13,10,14,12,0.7,0.4
2026-07-11T2300,2534A,105.0407,29.5828,内江市,内江日报社,,29,NA,19,20,20,83,83,128,115,14,10,9,9,0.7,0.5
2026-07-11T2300,4147A,105.0433,29.6105,内江市,玉峰路西段888号,,28,25,28,19,29,77,77,112,101,13,11,13,12,0.7,0.4
2026-07-11T2300,2628A,92.0653,31.4846,那曲市,那曲监测站,,30,27,16,21,12,69,69,87,83,16,12,4,3,0.4,0.4
2026-07-11T2300,4243A,92.0515,31.4787,那曲市,那曲市委宣传部,,24,14,8,10,7,74,74,76,76,10,9,7,6,0.2,0.2
2026-07-11T2300,1291A,115.8887,28.7006,南昌市,省林业公司,,23,19,26,13,18,71,71,90,83,4,10,4,4,0.6,0.6
2026-07-11T2300,1292A,115.813,28.7443,南昌市,林科所,,22,17,18,13,16,70,70,87,81,2,4,5,5,0.5,0.6
2026-07-11T2300,1294A,115.8518,28.687,南昌市,建工学校,,30,30,23,16,17,71,71,89,82,5,9,6,7,0.5,0.5
2026-07-11T2300,1295A,115.8926,28.6425,南昌市,象湖,,25,22,17,17,18,70,70,90,83,7,10,9,9,0.3,0.4
2026-07-11T2300,3046A,115.9084,28.6062,南昌市,机电学校,,38,38,34,15,19,72,72,90,85,2,7,7,6,0.6,0.6
2026-07-11T2300,3690A,115.9718,28.7032,南昌市,外国语学校,,30,30,29,15,17,67,67,84,78,7,9,12,11,0.7,0.7
2026-07-11T2300,4106A,115.7923,28.6873,南昌市,工业二路,,27,27,31,17,18,74,74,93,86,1,4,6,6,0.4,0.5
2026-07-11T2300,4192A,115.931587,28.686774,南昌市,南京东路235号,,25,24,23,16,18,77,77,93,87,6,10,4,4,0.6,0.6
2026-07-11T2300,1906A,106.0791,30.8022,南充市,南充市委,,26,26,22,12,11,59,59,99,94,16,9,6,6,0.3,0.2
2026-07-11T2300,1907A,106.1038,30.8215,南充市,南充炼油厂,,25,22,23,12,12,77,77,103,99,16,8,6,8,0.4,0.4
2026-07-11T2300,4227A,106.108336,30.788436,南充市,梨树横街98号,,31,31,22,15,13,56,56,104,95,34,10,7,7,0.5,0.3
2026-07-11T2300,4304A,106.1172,30.843,南充市,清泉寺北路188号,颗粒物(PM10),60,64,30,18,14,63,63,101,95,18,7,7,8,0.5,0.5
2026-07-11T2300,4305A,106.067,30.7616,南充市,同庆路1号,,25,25,22,15,12,68,68,105,102,19,12,6,7,0.4,0.4
2026-07-11T2300,1151A,118.8033,32.1085,南京市,迈皋桥,,27,27,26,7,8,39,39,96,66,8,9,5,6,0.3,0.4
2026-07-11T2300,1152A,118.7487,32.057,南京市,草场门,,29,29,27,12,10,31,31,84,56,7,7,5,5,0.3,0.4
2026-07-11T2300,1154A,118.770105,32.004342,南京市,中华门,,24,24,27,10,8,30,30,85,57,5,5,7,7,0.2,0.2
2026-07-11T2300,1155A,118.8059,32.0329,南京市,瑞金路,,27,27,27,9,8,33,33,85,58,8,8,4,4,0.4,0.4
2026-07-11T2300,1156A,118.7946,32.0774,南京市,玄武湖,,28,28,31,8,7,27,27,76,49,6,6,7,7,0.3,0.4
2026-07-11T2300,1157A,118.6415,32.0964,南京市,浦口,,34,34,32,9,11,30,30,86,57,6,9,4,4,0.4,0.4
2026-07-11T2300,1158A,118.730129,32.000956,南京市,奥体中心,,25,25,30,7,7,32,32,89,61,6,7,4,4,0.4,0.4
2026-07-11T2300,1159A,118.9072,32.1047,南京市,仙林大学城,,39,39,34,10,7,29,29,86,56,8,7,9,8,0.5,0.6
2026-07-11T2300,3422A,118.8443,31.919,南京市,江宁彩虹桥,,29,29,34,8,7,36,36,95,65,3,2,4,4,0.4,0.4
2026-07-11T2300,3427A,118.8497,32.3599,南京市,六合雄州,,29,29,29,6,7,29,29,79,47,6,12,4,4,0.5,0.5
2026-07-11T2300,4086A,118.7641,32.0841,南京市,新模范马路66号,,34,34,32,8,6,37,37,92,62,1,3,4,4,0.3,0.3
2026-07-11T2300,4249A,118.8707617,31.34017673,南京市,汶溪路181号,,31,31,27,7,4,33,33,82,59,12,12,3,4,0.5,0.5
2026-07-11T2300,4312A,119.019,31.6512,南京市,中山西路1号,,24,24,27,9,6,30,30,81,52,8,9,4,4,0.4,0.4
2026-07-11T2300,1401A,108.3098,22.788,南宁市,二十一中,,25,22,20,17,11,69,69,88,80,11,9,2,2,0.7,0.6
2026-07-11T2300,1402A,108.3135,22.8529,南宁市,北湖,,46,46,24,20,15,59,59,83,71,15,12,3,3,0.7,0.6
2026-07-11T2300,1403A,108.3205,22.8222,南宁市,市监测站,,27,27,22,16,11,74,74,97,89,7,6,3,3,0.6,0.5
2026-07-11T2300,1404A,108.3828,22.8038,南宁市,大自然花园,,24,24,20,10,12,65,65,83,72,13,9,4,3,0.8,0.7
2026-07-11T2300,1406A,108.2397,22.8462,南宁市,区农职院,NA,NA,24,26,20,16,NA,NA,96,79,8,8,3,3,0.5,0.5
2026-07-11T2300,1407A,108.3285,22.7356,南宁市,英华嘉园,,30,30,22,18,13,65,65,80,72,10,8,4,4,0.6,0.5
2026-07-11T2300,3401A,108.4829,22.762,南宁市,红星社区,,31,31,21,21,12,69,69,82,74,10,10,6,4,0.6,0.5
2026-07-11T2300,4132A,108.2927,23.1477,南宁市,起凤路9号,,45,45,24,29,13,29,29,73,59,22,8,3,1,0.7,0.5
2026-07-11T2300,4221A,108.2177,22.7774,南宁市,乐贤路16号,,42,35,26,29,15,48,48,102,77,25,18,7,5,0.7,0.4
2026-07-11T2300,2332A,118.1682,26.6371,南平市,南平市监测站,,15,13,21,7,15,48,48,56,47,4,9,4,4,0.3,0.4
2026-07-11T2300,2334A,118.1757,26.6276,南平市,南平七中,,16,16,22,6,14,47,47,51,46,4,9,4,4,0.3,0.3
2026-07-11T2300,1168A,120.9056,31.9669,南通市,狼山街道,,35,35,22,13,9,37,37,42,36,5,3,3,4,0.1,0.2
2026-07-11T2300,1170A,120.8635,32.0231,南通市,城中,,40,40,33,18,11,33,33,40,34,2,2,3,2,0.3,0.2
2026-07-11T2300,1171A,120.9376,31.9301,南通市,星湖花园,,31,31,26,12,10,35,35,39,34,2,3,3,3,0.2,0.2
2026-07-11T2300,1172A,120.8053,32.046,南通市,紫琅学院,颗粒物(PM10),52,52,30,14,10,33,33,41,33,1,2,5,5,0.4,0.4
2026-07-11T2300,3291A,121.0631,32.0644,南通市,通州监测站,,36,36,27,12,8,33,33,36,33,2,2,6,6,0.4,0.4
2026-07-11T2300,3432A,120.9348,31.9874,南通市,环境教育馆,,44,44,30,14,10,34,34,37,33,1,4,5,5,0.4,0.4
2026-07-11T2300,4091A,120.8692,31.9885,南通市,洪江路,,27,27,21,14,11,33,33,38,32,2,2,4,4,0.7,0.7
2026-07-11T2300,2404A,112.5338,33.0086,南阳市,瓦房庄,,23,23,24,8,11,66,66,117,96,15,11,4,4,0.4,0.4
2026-07-11T2300,2405A,112.5002,32.9734,南阳市,汉画馆,,25,25,24,11,11,66,66,120,98,15,11,6,6,0.4,0.5
2026-07-11T2300,2406A,112.5778,33.0144,南阳市,气象站,,22,22,18,12,11,61,61,126,98,24,16,6,6,0.3,0.4
2026-07-11T2300,2407A,112.548,32.9687,南阳市,理工学院,,27,27,22,14,13,53,53,118,93,22,12,7,6,0.4,0.4
2026-07-11T2300,4008A,112.5233,32.9921,南阳市,卧龙区政府,,20,13,21,8,13,63,63,123,100,16,11,5,5,0.4,0.4
2026-07-11T2300,1234A,121.8352,29.9111,宁波市,区环保大楼,,18,18,33,3,10,49,49,41,41,2,2,4,6,0.6,0.7
2026-07-11T2300,1235A,121.5595,29.8208,宁波市,万里学院,NA,NA,17,27,3,6,49,49,43,43,1,3,NA,5,0.3,0.3
2026-07-11T2300,1236A,121.713,29.9564,宁波市,龙赛医院,,25,25,33,3,9,42,42,40,40,4,3,6,6,0.1,0.1
2026-07-11T2300,1240A,121.5855,29.8635,宁波市,太古小学,,15,8,28,3,8,45,45,39,39,2,2,3,4,0.5,0.5
2026-07-11T2300,1241A,121.5239,29.8673,宁波市,市环境监测中心,,15,15,25,3,8,45,45,38,38,2,2,7,7,0.3,0.3
2026-07-11T2300,2871A,121.6156,29.9015,宁波市,万里国际学校,,16,15,26,3,9,49,49,42,42,2,2,6,6,0.4,0.3
2026-07-11T2300,3710A,121.5593,29.8976,宁波市,白沙活动中心,,16,16,23,3,11,46,46,39,39,2,3,7,7,0.5,0.5
2026-07-11T2300,4095A,121.8962,29.7529,宁波市,中科路88号,,26,26,32,7,9,52,52,44,44,2,2,6,6,0.4,0.4
2026-07-11T2300,2341A,119.5387,26.6611,宁德市,宁德市监测站,,14,10,12,3,3,44,44,46,46,7,8,5,5,0.4,0.5
2026-07-11T2300,3209A,119.5231,26.6562,宁德市,宁德一中,,15,15,11,3,5,43,43,48,48,2,3,9,9,0,0
2026-07-11T2300,2618A,98.859,25.8541,怒江傈僳族自治州,州监测站,,18,13,13,12,8,38,38,54,50,7,7,5,5,0.4,0.4
2026-07-11T2300,2619A,98.8607,25.8168,怒江傈僳族自治州,泸水一中,,12,8,13,8,11,29,29,48,43,11,11,3,4,0.6,0.5
2026-07-11T2300,1888A,101.6891,26.571,攀枝花市,弄弄坪,,24,24,41,3,10,64,64,58,58,5,19,5,12,0.2,0.3
2026-07-11T2300,1889A,101.577,26.5914,攀枝花市,河门口,颗粒物(PM10),56,58,35,29,14,56,56,71,69,8,13,24,19,0.7,1
2026-07-11T2300,1891A,101.7365,26.4986,攀枝花市,仁和,,28,24,16,19,11,32,32,45,35,15,9,18,7,1.6,0.6
2026-07-11T2300,2835A,101.7222,26.567,攀枝花市,四十中小,,25,25,29,9,12,61,61,66,64,8,17,12,21,1.0,0.9
2026-07-11T2300,1604A,122.0303,41.1489,盘锦市,开发区,,16,12,20,11,12,36,36,58,52,12,12,8,8,0.4,0.5
2026-07-11T2300,1605A,122.0486,41.0883,盘锦市,兴隆台,,22,22,21,14,12,36,36,54,48,13,15,5,4,0.5,0.6
2026-07-11T2300,1606A,121.8297,41.1026,盘锦市,新生街道,,20,20,18,14,13,37,37,88,43,8,7,4,6,0.4,0.5
2026-07-11T2300,1832A,113.3257,33.7423,平顶山市,新华旅馆,,49,49,28,26,16,99,99,158,138,32,17,9,6,0.4,0.4
2026-07-11T2300,1833A,113.2917,33.737,平顶山市,规划设计院,,33,27,26,21,15,103,103,138,124,22,16,9,8,0.4,0.5
2026-07-11T2300,1834A,113.182,33.7738,平顶山市,平顶山工学院,,38,25,19,20,16,119,119,159,148,16,12,7,6,0.6,0.6
2026-07-11T2300,3594A,112.8736,33.9068,平顶山市,石龙区,,38,38,24,21,16,108,108,140,137,17,12,10,9,0.5,0.6
2026-07-11T2300,4116A,113.284,33.7139,平顶山市,姚电大道23号,,34,34,31,20,15,102,102,157,136,22,15,8,8,0.4,0.4
2026-07-11T2300,2656A,106.6633,35.5338,平凉市,聚贤嘉苑,,30,21,19,6,5,93,93,86,86,8,9,7,7,0.5,0.6
2026-07-11T2300,2657A,106.7021,35.5307,平凉市,博物馆,,30,26,26,3,4,93,93,90,90,7,6,17,16,0.4,0.5
2026-07-11T2300,2348A,113.8384,27.6436,萍乡市,中医院,,30,24,30,21,17,37,37,103,64,14,12,7,10,0.7,0.7
2026-07-11T2300,2350A,113.8677,27.6438,萍乡市,市环保局,,40,40,25,23,20,36,36,105,71,12,10,13,15,0.5,0.4
2026-07-11T2300,2351A,113.8663,27.6202,萍乡市,安源区政府,,42,37,31,29,19,38,38,102,67,10,11,10,11,0.4,0.6
2026-07-11T2300,4107A,113.8686,27.6668,萍乡市,联洪村委会,,44,44,32,21,19,32,32,100,63,22,9,7,10,0.4,0.3
2026-07-11T2300,2319A,119.0142,25.4324,莆田市,荔城区仓后路,,19,19,19,10,5,32,32,41,35,8,6,/,/,/,/
2026-07-11T2300,2320A,119.0016,25.4553,莆田市,莆田市监测站,NA,NA,20,13,10,3,NA,NA,47,NA,6,5,3,3,0.4,0.3
2026-07-11T2300,2321A,119.112,25.4561,莆田市,涵江区六中,,21,21,16,12,6,35,35,44,41,8,7,/,/,0.4,0.3
2026-07-11T2300,2322A,119.1014,25.3215,莆田市,秀屿区政府,,30,22,19,21,6,37,37,46,42,11,6,6,5,0.7,0.6
2026-07-11T2300,2392A,115.0312,35.7636,濮阳市,环保局,,38,38,38,20,18,120,120,148,146,13,11,4,4,0.3,0.4
2026-07-11T2300,3021A,115,35.7667,濮阳市,濮水河管理处,,37,35,29,17,18,117,117,148,146,10,9,2,2,0.6,0.7
2026-07-11T2300,4118A,115.0552,35.7816,濮阳市,中原东路68号,颗粒物(PM10),55,56,50,14,18,119,119,146,143,9,8,5,5,0.8,0.9
2026-07-11T2300,4216A,115.0923632,35.76857718,濮阳市,任丘路479号,,44,44,39,20,19,125,125,154,151,9,9,2,2,0.7,0.6
2026-07-11T2300,2601A,100.9801,22.7634,普洱市,市环保局,,29,29,27,12,8,21,21,44,35,7,6,5,5,0.9,0.9
2026-07-11T2300,2602A,100.9763,22.8237,普洱市,普洱第二中学,,36,36,25,17,10,13,13,45,33,12,8,6,6,0.8,0.7
2026-07-11T2300,3345A,131.0413,45.7795,七台河市,中波台,,11,NA,6,6,11,27,27,76,56,22,15,6,6,0.5,0.5
2026-07-11T2300,3637A,131.0136,45.7688,七台河市,人民广场,,23,23,19,3,9,30,30,68,46,12,11,5,5,0.6,0.5
2026-07-11T2300,3684A,130.8639,45.8144,七台河市,新建矿广场,,25,NA,21,17,12,8,8,55,40,38,18,12,14,0.6,0.3
2026-07-11T2300,1779A,123.9307,47.3641,齐齐哈尔市,安居小区,,22,14,31,13,18,69,69,78,76,5,7,6,4,0.7,0.8
2026-07-11T2300,1780A,123.9497,47.3389,齐齐哈尔市,中心广场,,23,23,40,11,19,67,67,81,77,12,12,5,5,0.5,0.6
2026-07-11T2300,1781A,123.9483,47.3229,齐齐哈尔市,农牧车辆厂,,31,31,55,17,44,70,70,82,80,7,7,6,6,0.0,0.1
2026-07-11T2300,1783A,123.9442,47.2994,齐齐哈尔市,市环境监测站,,22,12,27,11,38,69,69,76,75,7,7,2,2,0.3,0.4
2026-07-11T2300,3662A,123.6341,47.2079,齐齐哈尔市,富区青少年活动中心,,36,NA,34,25,25,60,60,89,84,12,9,5,5,0.4,0.5
2026-07-11T2300,2591A,107.9765,26.5724,黔东南苗族侗族自治州,市环境监测站,,15,15,13,7,10,33,33,66,53,9,5,2,2,0.4,0.3
2026-07-11T2300,2881A,107.8909,26.531,黔东南苗族侗族自治州,凯里学院,,13,NA,9,9,11,27,27,68,51,7,5,2,2,0.5,0.5
2026-07-11T2300,2593A,107.5223,26.2371,黔南布依族苗族自治州,小围寨,,17,17,11,8,7,35,35,60,53,8,5,4,5,0.5,0.5
2026-07-11T2300,3538A,107.5175,26.2977,黔南布依族苗族自治州,沙坝,,17,17,8,6,6,32,32,60,53,7,3,3,3,0.6,0.6
2026-07-11T2300,2589A,104.9022,25.0943,黔西南布依族苗族自治州,场坝街,,18,9,13,6,5,57,57,68,63,3,3,3,2,0.3,0.2
2026-07-11T2300,2590A,104.8812,25.0994,黔西南布依族苗族自治州,坪东大道,,15,9,13,7,6,46,46,67,61,7,3,5,5,0.4,0.3
2026-07-11T2300,2502A,108.6238,21.9667,钦州市,市环保站,,29,29,24,11,8,62,62,92,78,9,10,3,6,0.5,0.5
2026-07-11T2300,2503A,108.655,21.9481,钦州市,沙埠小学,,22,22,30,11,8,66,66,88,75,8,10,2,2,1.0,0.9
2026-07-11T2300,2504A,108.5989,21.7435,钦州市,港区一小,颗粒物(PM10),51,51,32,9,7,37,37,76,70,36,13,5,3,0.8,0.7
2026-07-11T2300,3404A,108.5959,21.9634,钦州市,北职校,,22,22,25,15,11,63,63,94,78,8,12,2,3,0.5,0.5
2026-07-11T2300,1046A,119.5247,39.9346,秦皇岛市,建设大厦,,36,36,39,9,15,66,66,87,87,4,16,5,5,0.2,0.4
2026-07-11T2300,3132A,119.5979,39.938,秦皇岛市,文明里,,46,46,50,7,16,60,60,83,83,2,10,6,6,0.2,0.2
2026-07-11T2300,4066A,119.7458,39.9952,秦皇岛市,南园路157号,,32,32,31,8,15,58,58,60,58,1,16,8,8,0.2,0.3
2026-07-11T2300,4067A,119.5131,39.8858,秦皇岛市,翠岛大街1号,,27,27,24,11,15,59,59,80,79,4,8,3,4,0.2,0.3
2026-07-11T2300,4198A,119.509013,39.825305,秦皇岛市,北戴河轮滑馆,,50,50,42,12,15,60,60,90,87,5,9,9,9,0.2,0.3
2026-07-11T2300,1310A,120.404,36.0625,青岛市,市南区东部子站,,22,22,29,7,10,32,32,38,38,8,10,6,6,0.3,0.3
2026-07-11T2300,1311A,120.362344,36.10282,青岛市,四方区子站,,24,24,25,7,10,40,40,44,44,2,2,11,10,0.6,0.6
2026-07-11T2300,1312A,120.294373,36.054183,青岛市,市南区西部子站,,22,22,24,7,8,37,37,44,43,5,6,6,6,0.5,0.5
2026-07-11T2300,1313A,120.4581,36.0858,青岛市,崂山区子站,,46,46,36,9,11,38,38,40,40,2,4,6,6,0.2,0.2
2026-07-11T2300,1315A,120.3945,36.3083,青岛市,城阳区子站,,27,27,23,10,9,36,36,40,36,2,3,8,7,0.2,0.2
2026-07-11T2300,3642A,120.3454,36.0735,青岛市,市北区南部,,28,28,25,6,7,40,40,44,44,8,7,4,2,0.7,0.7
2026-07-11T2300,3643A,120.3897,36.18,青岛市,李沧区北部,,19,19,16,8,8,35,35,40,39,5,7,4,3,0.5,0.5
2026-07-11T2300,4110A,120.5222,36.4089,青岛市,盟旺路653号,,26,26,20,7,7,37,37,41,38,4,4,7,6,0.6,0.6
2026-07-11T2300,4290A,120.196923,35.954556,青岛市,珠江路669号,,27,27,28,6,9,29,29,36,35,9,5,4,4,0.2,0.2
2026-07-11T2300,4291A,120.0424,35.8656,青岛市,黄岛区人民政府广场,,36,36,32,9,10,36,36,42,40,6,5,5,5,0.5,0.5
2026-07-11T2300,1703A,113.0218,23.7086,清远市,凤城街办,颗粒物(PM10),55,56,40,32,24,54,54,149,116,38,19,/,/,/,/
2026-07-11T2300,3025A,113.0479,23.6343,清远市,技师学院,,48,48,38,29,22,62,62,156,125,18,22,7,7,0.6,0.6
2026-07-11T2300,3318A,112.9898,23.7403,清远市,清新太和,,27,23,38,12,24,86,86,166,129,7,12,8,9,0.5,0.5
2026-07-11T2300,3455A,113.076,23.72,清远市,清城东城,,36,36,36,20,23,69,69,140,118,15,12,/,/,/,/
2026-07-11T2300,2661A,107.6325,35.7357,庆阳市,庆阳五中,,27,15,19,6,10,85,85,89,87,6,6,5,5,0.3,0.1
2026-07-11T2300,2662A,107.6361,35.7067,庆阳市,市环保局,,26,19,22,3,11,83,83,88,85,8,8,5,6,0.4,0.4
2026-07-11T2300,1916A,103.7897,25.5036,曲靖市,环境监测站,,18,18,24,3,13,48,48,96,84,9,9,1,2,0.6,0.6
2026-07-11T2300,1917A,103.8013,25.5357,曲靖市,烟厂办公区,,16,12,20,6,11,50,50,94,83,7,8,1,2,0.6,0.6
2026-07-11T2300,3376A,103.7926,25.4651,曲靖市,南苑二区,,17,17,23,8,13,46,46,90,77,11,10,4,4,0.6,0.6
2026-07-11T2300,3377A,103.7442,25.5259,曲靖市,曲靖师范学院,,24,24,21,15,14,50,50,95,81,12,13,4,5,0.4,0.4
2026-07-11T2300,1264A,118.8694,28.94,衢州市,环保大楼,,9,8,21,3,10,26,26,51,34,7,11,/,/,/,/
2026-07-11T2300,1266A,118.8622,28.9809,衢州市,衢州学院,,15,15,24,3,10,27,27,51,33,10,13,4,6,0.3,0.4
2026-07-11T2300,4097A,118.9646,28.9832,衢州市,衢州三中,,9,9,20,6,11,25,25,52,34,8,12,3,3,0.6,0.6
2026-07-11T2300,1611A,118.5818,24.9116,泉州市,涂山街,,40,40,28,23,17,35,35,63,46,20,9,9,4,0.7,0.6
2026-07-11T2300,1612A,118.597,24.8976,泉州市,津头埔,,46,46,29,20,15,29,29,58,40,27,12,8,3,0.6,0.5
2026-07-11T2300,1613A,118.6669,24.9422,泉州市,万安,,36,36,26,18,14,32,32,50,42,19,11,7,4,0.6,0.5
2026-07-11T2300,4105A,118.6355,24.9148,泉州市,霞新路6号,,32,29,21,22,16,30,30,61,44,23,9,/,/,0.5,0.4
2026-07-11T2300,2626A,88.8873,29.2723,日喀则市,日喀则监测站,,30,28,4,15,2,95,95,92,88,3,4,9,9,0.4,0.4
2026-07-11T2300,3726A,88.8775,29.2425,日喀则市,林业技术推广中心,,30,28,7,3,2,93,93,96,88,3,3,9,10,0.4,0.4
2026-07-11T2300,1659A,119.4711,35.421,日照市,监测站,,22,22,24,12,11,33,33,35,32,6,10,7,7,0.2,0.2
2026-07-11T2300,1660A,119.523,35.4216,日照市,市政府广场,,24,24,23,8,9,38,38,43,38,5,5,11,10,0.4,0.4
2026-07-11T2300,1661A,119.5511,35.4113,日照市,港务局,,31,31,30,8,8,36,36,32,32,12,8,7,6,0.9,0.9
2026-07-11T2300,3507A,119.5326,35.4627,日照市,职业技术学院,,27,27,27,8,6,44,44,45,42,1,2,8,8,0.3,0.3
2026-07-11T2300,3604A,119.3267,35.1043,日照市,岚山环保分局,NA,NA,24,31,9,11,NA,NA,38,NA,4,7,9,9,0.5,0.6
2026-07-11T2300,1835A,111.1922,34.7752,三门峡市,市政府,,20,NA,26,3,12,63,63,94,80,4,8,5,6,0.8,0.8
2026-07-11T2300,1836A,111.1588,34.794,三门峡市,开发区,NA,NA,NA,27,5,14,66,66,96,80,10,11,4,4,0.5,0.5
2026-07-11T2300,3039A,111.1911,34.7829,三门峡市,三门峡市第一小学,,23,6,26,3,12,71,71,92,81,3,7,4,4,0.6,0.6
2026-07-11T2300,3598A,111.1031,34.719,三门峡市,富达温泉假日酒店,,23,23,24,3,12,64,64,91,70,10,13,6,7,0.5,0.5
2026-07-11T2300,2324A,117.621,26.2626,三明市,三钢,,16,16,28,9,21,50,50,64,45,7,15,10,12,0.5,1.1
2026-07-11T2300,2325A,117.6352,26.2714,三明市,三明二中,,18,NA,27,12,19,54,54,75,53,5,12,1,4,0.4,0.8
2026-07-11T2300,2326A,117.6028,26.2377,三明市,三元区政府,,16,16,28,11,20,49,49,63,49,6,11,11,12,0.6,0.8
2026-07-11T2300,1877A,109.4962,18.2682,三亚市,河西子站,,19,19,22,8,11,46,46,53,51,7,4,3,3,0.1,0.1
2026-07-11T2300,3540A,109.7348,18.3443,三亚市,君悦子站,,17,NA,22,6,9,54,54,58,54,5,6,3,2,0.1,0.2
2026-07-11T2300,4135A,109.1714,18.3739,三亚市,城东小学站,,27,27,29,11,11,31,31,54,48,9,5,/,/,/,/
2026-07-11T2300,2624A,91.7592,29.234,山南市,山南监测站,,18,7,4,3,2,56,56,77,72,10,4,10,10,0.2,0.2
2026-07-11T2300,2625A,91.7701,29.2436,山南市,山南人民医院,,19,11,7,3,3,59,59,74,70,7,3,11,8,0.2,0.1
2026-07-11T2300,1674A,116.6795,23.3666,汕头市,金平子站,,29,25,35,19,24,92,92,104,83,9,10,3,4,0.6,0.8
2026-07-11T2300,1675A,116.7248,23.3632,汕头市,龙湖子站,,34,34,41,21,24,78,78,95,78,6,7,7,8,/,/
2026-07-11T2300,1676A,116.7257,23.2774,汕头市,濠江子站,,37,37,49,17,27,68,68,116,113,10,10,9,9,/,/
2026-07-11T2300,1677A,116.7518,23.4712,汕头市,澄海子站,,30,30,42,20,24,44,44,90,68,10,11,5,6,0.8,0.7
2026-07-11T2300,1678A,116.6088,23.2539,汕头市,潮阳子站,,33,31,31,20,22,104,104,98,98,5,7,7,7,0.8,0.8
2026-07-11T2300,3444A,116.4539,23.2684,汕头市,潮南峡山,NA,NA,NA,35,24,21,93,93,88,84,8,6,7,8,0.6,0.4
2026-07-11T2300,3624A,116.4069,23.2533,汕头市,潮南子站,,33,31,36,22,20,105,105,83,83,6,8,6,7,/,/
2026-07-11T2300,1693A,115.3653,22.7751,汕尾市,市环保局,,35,35,31,16,15,108,108,162,137,8,10,5,6,0.6,0.5
2026-07-11T2300,1695A,115.362,22.7926,汕尾市,新城中学,,41,33,30,14,15,130,130,182,157,5,9,6,6,0.7,0.6
2026-07-11T2300,2645A,109.9155,33.8714,商洛市,监测站,,26,26,24,15,16,48,48,99,70,6,8,4,6,0.5,0.5
2026-07-11T2300,3045A,109.9647,33.8486,商洛市,商州区中学,,31,31,24,17,12,49,49,85,64,7,8,4,5,0.8,0.8
2026-07-11T2300,2408A,115.6701,34.4283,商丘市,环境监测站,,44,44,34,13,21,80,80,158,132,6,6,3,5,0.4,0.5
2026-07-11T2300,2409A,115.6458,34.4047,商丘市,粮食局,,32,32,32,20,18,76,76,158,132,8,6,2,2,0.4,0.5
2026-07-11T2300,3171A,115.6069,34.4465,商丘市,梁园区档案局,,34,34,33,18,17,78,78,147,130,6,6,1,2,0.2,0.3
2026-07-11T2300,4119A,115.6701,34.3767,商丘市,北海东路185号,,31,31,35,3,18,67,67,160,126,10,8,4,4,0.3,0.4
2026-07-11T2300,4120A,115.6172,34.3704,商丘市,中山大街3号,,35,35,36,16,14,72,72,151,128,9,10,6,6,0.4,0.5
2026-07-11T2300,1141A,121.401,31.2382,上海市,普陀,,41,41,39,15,16,39,39,37,35,4,5,5,5,0,0
2026-07-11T2300,1142A,121.4774,31.2043,上海市,十五厂,,44,44,42,15,18,35,35,34,33,2,3,4,5,0.4,0.4
2026-07-11T2300,1143A,121.4673,31.3011,上海市,虹口,,49,49,42,17,17,35,35,34,31,2,2,4,4,0.5,0.4
2026-07-11T2300,1147A,121.4253,31.226,上海市,静安监测站,NA,NA,NA,38,NA,16,NA,NA,39,36,NA,5,NA,7,NA,0.3
2026-07-11T2300,1148A,121.7029,31.1905,上海市,浦东川沙,,44,44,40,17,16,48,48,44,44,2,3,8,8,0.4,0.4
2026-07-11T2300,1149A,121.5339,31.229,上海市,浦东新区监测站,,49,49,41,16,16,35,35,32,32,3,3,6,6,0.3,0.4
2026-07-11T2300,1150A,121.5776,31.2038,上海市,浦东张江,,42,42,38,15,18,47,47,43,43,2,2,6,6,0.1,0.1
2026-07-11T2300,3265A,121.4242,31.3303,上海市,宝山庙行,颗粒物(PM10),65,71,57,17,18,32,32,34,31,2,3,11,11,0.1,0.1
2026-07-11T2300,3266A,121.8789,31.4662,上海市,崇明上实东滩,,43,43,37,26,15,38,38,36,36,2,3,9,9,0.2,0.2
2026-07-11T2300,3268A,121.316,31.2839,上海市,嘉定南翔,,37,37,36,14,16,45,45,34,33,3,5,3,4,0.1,0.2
2026-07-11T2300,3269A,121.3357,30.7455,上海市,金山新城,,29,29,39,10,16,35,35,32,32,3,3,4,4,0.5,0.4
2026-07-11T2300,3270A,121.4996,31.0741,上海市,闵行浦江,,33,33,40,11,16,34,34,31,31,2,2,6,6,0.3,0.3
2026-07-11T2300,3271A,121.2886,31.1663,上海市,青浦徐泾,,34,34,36,12,16,34,34,35,32,2,2,4,4,0.1,0.1
2026-07-11T2300,3272A,121.2193,31.0382,上海市,松江图书馆,,30,30,39,11,16,38,38,39,36,5,8,6,6,0.3,0.3
2026-07-11T2300,3273A,121.3904,31.206,上海市,长宁仙霞,,36,36,38,14,17,34,34,33,32,2,2,6,6,0.2,0.2
2026-07-11T2300,3274A,121.7964,31.0507,上海市,浦东惠南,,42,42,43,12,16,58,58,54,54,2,3,8,8,0.6,0.6
2026-07-11T2300,3544A,121.4891,30.925,上海市,奉贤南桥新城,,26,26,38,10,14,41,41,36,36,1,3,2,3,0.5,0.5
2026-07-11T2300,4183A,121.417401,31.16637,上海市,冠生园路458号,,39,39,36,12,17,38,38,36,36,3,5,5,5,0.3,0.3
2026-07-11T2300,4205A,121.541914,31.268301,上海市,宁武路151号,颗粒物(PM10),53,54,50,18,18,38,38,35,34,3,5,6,6,0.3,0.3
2026-07-11T2300,2382A,117.9758,28.4439,上饶市,市监测站,,18,18,25,12,11,31,31,62,48,7,6,7,8,/,/
2026-07-11T2300,2383A,117.9521,28.4637,上饶市,凤凰光学,,15,15,24,10,11,32,32,63,49,7,6,4,8,0.6,0.5
2026-07-11T2300,3685A,117.897,28.4316,上饶市,双创科技城,,22,22,26,13,12,21,21,59,43,19,11,4,7,0.5,0.4
2026-07-11T2300,4211A,118.190438,28.444845,上饶市,裕丰大道,,15,10,21,10,9,20,20,54,36,10,8,12,9,0.8,0.7
2026-07-11T2300,1669A,113.5821,24.7733,韶关市,市八中,,28,28,47,12,19,33,33,101,70,20,10,11,7,0.7,0.5
2026-07-11T2300,1671A,113.5916,24.7973,韶关市,园林处,,35,34,28,24,22,28,28,108,68,21,13,6,9,/,/
2026-07-11T2300,1673A,113.5971,24.6864,韶关市,曲江监测站,,48,48,42,26,27,51,51,116,84,19,13,7,11,0.8,0.6
2026-07-11T2300,2809A,113.6668,24.7756,韶关市,大学路288号,,18,NA,34,12,21,30,30,117,72,7,9,9,18,/,/
2026-07-11T2300,3622A,113.5556,24.8082,韶关市,碧湖山庄,,23,22,29,16,18,34,34,85,56,14,11,8,4,0.5,0.5
2026-07-11T2300,2464A,111.5277,27.2442,邵阳市,市化工厂,,43,42,23,30,21,35,35,104,77,13,9,7,7,0.5,0.4
2026-07-11T2300,2466A,111.4327,27.2276,邵阳市,市环保局,,35,NA,26,24,21,51,51,101,75,13,8,4,4,0.4,0.4
2026-07-11T2300,4218A,111.446,27.2472,邵阳市,北塔二期4-26地块,NA,NA,NA,32,19,14,43,43,86,64,10,8,5,5,0.5,0.5
2026-07-11T2300,4219A,111.4739,27.2282,邵阳市,邵水西路287号,,50,47,26,35,21,37,37,99,78,13,6,1,2,0.4,0.4
2026-07-11T2300,1247A,120.6053,29.9927,绍兴市,城东开发委,,14,14,32,6,15,42,42,39,37,1,4,8,8,0.2,0.2
2026-07-11T2300,2921A,120.5482,30.0003,绍兴市,树下王站,,13,9,28,3,11,40,40,37,34,2,5,3,4,0.3,0.3
2026-07-11T2300,3408A,120.5685,29.936,绍兴市,绍兴中专,,16,16,31,3,10,41,41,40,37,2,4,4,5,0.6,0.5
2026-07-11T2300,3409A,120.4905,30.086,绍兴市,柯桥区政府,,21,21,30,6,11,40,40,35,34,4,7,5,5,0.4,0.4
2026-07-11T2300,3410A,120.8751,30.0249,绍兴市,重华小学,,16,16,31,7,13,42,42,35,35,2,5,9,10,0.5,0.6
2026-07-11T2300,3411A,120.837,30.0137,绍兴市,上虞中学,,19,19,33,7,12,42,42,35,35,2,6,7,8,0.3,0.3
2026-07-11T2300,3560A,120.4715,30.0414,绍兴市,柯桥妇保,,16,16,29,6,13,42,42,36,35,1,4,5,6,0.2,0.2
2026-07-11T2300,3658A,120.6156,30.0762,绍兴市,袍江中学,,14,14,35,7,13,42,42,36,36,2,5,5,5,0.2,0.3
2026-07-11T2300,1356A,114.0948,22.5506,深圳市,通心岭子站,,21,19,23,11,12,66,66,194,169,19,14,4,3,1.0,0.9
2026-07-11T2300,1357A,114.1153,22.5713,深圳市,洪湖,,28,28,25,15,13,67,67,191,166,17,16,6,6,0.5,0.4
2026-07-11T2300,1358A,113.9823,22.5398,深圳市,华侨城,,20,20,27,7,12,52,52,185,154,8,17,/,/,/,/
2026-07-11T2300,1359A,113.9181,22.517,深圳市,南海子站,,18,18,25,9,10,44,44,199,153,9,16,5,6,0.7,0.7
2026-07-11T2300,1360A,114.2345,22.565,深圳市,盐田,,35,35,24,18,14,97,97,173,161,20,17,8,6,0.4,0.4
2026-07-11T2300,1363A,114.4911,22.5381,深圳市,南澳,,32,32,25,18,6,84,84,151,128,14,14,/,/,/,/
2026-07-11T2300,1364A,114.41,22.6346,深圳市,葵涌,,39,39,31,26,16,113,113,162,133,24,18,8,7,0.8,0.7
2026-07-11T2300,1365A,114.2967,22.5978,深圳市,梅沙,NA,NA,40,32,18,14,64,64,163,134,NA,21,/,/,/,/
2026-07-11T2300,1366A,114.0563,22.7353,深圳市,观澜,,38,38,37,18,19,100,100,237,206,22,27,8,7,0.8,0.7
2026-07-11T2300,3305A,114.0614,22.556,深圳市,莲花,,16,14,25,9,11,49,49,136,121,13,12,/,/,/,/
2026-07-11T2300,3306A,114.0144,22.6163,深圳市,民治,,21,15,33,9,17,66,66,196,170,18,23,/,/,/,/
2026-07-11T2300,3307A,114.1756,22.6421,深圳市,横岗,,28,18,34,16,19,88,88,230,200,23,28,/,/,/,/
2026-07-11T2300,3447A,114.344,22.7115,深圳市,坪山,,33,28,36,19,22,105,105,162,145,24,26,7,7,0.9,0.8
2026-07-11T2300,3623A,113.8952,22.586,深圳市,西乡,,27,27,29,12,13,48,48,192,150,18,17,3,4,0.7,0.7
2026-07-11T2300,4220A,114.214113,22.713717,深圳市,黄阁路,,35,26,34,15,18,110,110,222,195,17,23,7,7,0.6,0.7
2026-07-11T2300,1099A,123.5058,41.7084,沈阳市,浑南东路,,10,10,13,3,8,24,24,41,20,16,17,4,4,0.4,0.6
2026-07-11T2300,1100A,123.4238,41.6992,沈阳市,新秀街,,28,28,16,8,9,27,27,36,24,18,14,16,7,0.3,0.4
2026-07-11T2300,1102A,123.5903,41.8412,沈阳市,东陵路,,10,10,15,3,6,32,32,52,23,7,9,1,2,0.5,0.6
2026-07-11T2300,1103A,123.4267,41.8466,沈阳市,陵东街,,17,17,16,6,8,18,18,48,31,19,12,3,3,0.6,0.6
2026-07-11T2300,1104A,123.4116,41.7654,沈阳市,文化路,,16,16,16,11,7,27,27,48,30,12,9,3,3,0.6,0.7
2026-07-11T2300,1105A,123.4673,41.787,沈阳市,小河沿,,11,11,15,3,7,19,19,33,22,14,10,2,2,0.5,0.6
2026-07-11T2300,1106A,123.4019,41.7978,沈阳市,太原街,,19,19,20,3,8,37,37,54,36,8,8,3,3,0.5,0.6
2026-07-11T2300,1108A,123.3778,41.9233,沈阳市,京沈街,,12,11,17,7,8,36,36,60,37,10,10,4,5,0.5,0.6
2026-07-11T2300,2897A,123.2429,41.7341,沈阳市,沈辽西路,,21,21,18,7,8,35,35,44,36,10,10,5,6,0.5,0.6
2026-07-11T2300,2900A,123.5951,41.9085,沈阳市,裕农路,,10,10,12,3,5,26,26,53,25,11,7,4,5,0.7,0.6
2026-07-11T2300,2429A,110.78,32.6494,十堰市,滨河新村,,28,19,22,14,13,88,88,97,96,5,4,/,/,0.8,0.8
2026-07-11T2300,2430A,110.7305,32.6408,十堰市,刘家沟,,28,23,20,19,14,61,61,100,94,8,6,/,/,/,/
2026-07-11T2300,2431A,110.8843,32.5712,十堰市,铁二处,,28,28,22,18,18,51,51,95,84,4,6,8,10,0.7,0.7
2026-07-11T2300,3545A,110.8053,32.8401,十堰市,郧阳区金沙路,,30,30,25,18,14,91,91,106,104,15,10,8,8,0.6,0.6
2026-07-11T2300,2709A,86.0391,44.298,石河子市,艾青诗歌馆,,30,30,58,21,18,84,84,129,121,31,8,4,4,0.7,0.4
2026-07-11T2300,3442A,86.047,44.2331,石河子市,南区管委会,,47,47,63,22,14,85,85,121,115,5,5,5,6,0.3,0.3
2026-07-11T2300,4051A,86.0791,44.3018,石河子市,世纪广场,,50,NA,68,35,21,57,57,132,118,42,9,3,2,0.8,0.6
2026-07-11T2300,4167A,86.0126,44.2349,石河子市,城南景苑小区,,48,48,54,21,19,82,82,125,115,15,8,6,6,0.2,0.1
2026-07-11T2300,1030A,114.5919,38.0328,石家庄市,高新区,,29,23,41,12,27,92,92,134,107,1,4,3,3,0.3,0.5
2026-07-11T2300,1032A,114.4556,38.0136,石家庄市,西南高教,,33,33,30,15,26,88,88,145,106,2,2,3,3,0.2,0.4
2026-07-11T2300,1033A,114.533,38.0177,石家庄市,世纪公园,,34,34,39,6,23,64,64,116,80,2,2,3,3,0.4,0.7
