timepoint,stationcode,longitude,latitude,area,positionname,primarypollutant,aqi,pm10,pm10_24h,pm2_5,pm2_5_24h,o3,o3_24h,o3_8h,o3_8h_24h,no2,no2_24h,so2,so2_24h,co,co_24h
2026-07-11T2200,2568A,102.2503,31.8896,阿坝藏族羌族自治州,马师校,,31,31,21,3,5,32,32,85,76,6,5,3,3,0.5,0.5
2026-07-11T2200,3994A,102.2174,31.9016,阿坝藏族羌族自治州,马尔康中学西区,,13,NA,10,6,7,39,39,85,79,6,5,2,2,0.4,0.4
2026-07-11T2200,2695A,80.2899,41.1684,阿克苏地区,电视台,,50,50,44,19,20,126,126,139,137,8,11,5,5,0.3,0.4
2026-07-11T2200,2696A,80.2592,41.1541,阿克苏地区,艺术中心,,41,38,41,16,18,129,129,148,145,11,29,4,4,0.3,0.3
2026-07-11T2200,2205A,105.699,38.8409,阿拉善盟,蒙二幼,,28,18,17,14,9,88,88,87,87,3,4,9,9,0.4,0.4
2026-07-11T2200,2206A,105.7198,38.8508,阿拉善盟,环保局新楼,,29,15,17,9,9,91,91,90,90,4,4,9,9,0.5,0.5
2026-07-11T2200,2708A,88.1266,47.8515,阿勒泰地区,市站,,26,23,28,14,6,82,82,106,104,26,9,7,7,0.3,0.2
2026-07-11T2200,4166A,88.1198,47.7931,阿勒泰地区,阿勒泰路33号,,30,22,24,7,6,95,95,102,102,5,4,7,7,0.3,0.3
2026-07-11T2200,2630A,80.1171,32.4999,阿里地区,阿里监测站,,33,7,9,3,2,105,105,104,104,2,3,6,6,0.2,0.2
2026-07-11T2200,3192A,80.0906,32.5029,阿里地区,阿里藏医院,,33,6,10,3,2,105,105,107,107,1,2,2,2,0.2,0.2
2026-07-11T2200,2644A,109.0088,32.6974,安康市,汉滨区检察院,,32,32,21,15,10,35,35,81,64,14,7,3,3,0.5,0.5
2026-07-11T2200,4054A,109.0324,32.6913,安康市,市邮政管理局,NA,NA,25,22,22,15,NA,NA,77,63,13,6,78,8,0.8,0.7
2026-07-11T2200,2291A,117.0806,30.5181,安庆市,环科院,,32,32,32,14,19,68,68,109,86,2,9,9,10,0.5,0.6
2026-07-11T2200,2292A,117.0331,30.5118,安庆市,马山宾馆,,34,34,31,13,19,73,73,110,87,3,7,2,3,0.4,0.5
2026-07-11T2200,2294A,116.9897,30.6146,安庆市,安庆大学,,35,35,26,18,17,84,84,105,85,2,4,4,4,0.5,0.5
2026-07-11T2200,3173A,117.0598,30.5351,安庆市,市人大,,37,37,30,12,19,70,70,110,85,1,6,5,6,0.4,0.5
2026-07-11T2200,3123A,105.9408,26.2431,安顺市,凤凰山,,26,26,10,10,7,27,27,57,47,14,5,5,5,0.5,0.4
2026-07-11T2200,3124A,105.9443,26.2567,安顺市,金钟山,,15,11,8,10,9,33,33,64,53,6,4,6,6,0.5,0.4
2026-07-11T2200,3125A,105.8983,26.248,安顺市,娄家坡,,16,NA,6,11,7,33,33,60,50,5,3,6,6,0.4,0.4
2026-07-11T2200,1819A,114.3552,36.1017,安阳市,红庙街,NA,NA,31,26,26,15,131,131,117,117,9,10,3,6,NA,0.4
2026-07-11T2200,1820A,114.361,36.0681,安阳市,银杏小区,,42,26,30,26,20,133,133,134,134,4,6,3,3,0.1,0.1
2026-07-11T2200,3141A,114.3921,36.0879,安阳市,信访局,,45,26,31,23,19,144,144,147,147,8,7,3,3,0.4,0.4
2026-07-11T2200,3669A,114.4706,36.0634,安阳市,左辅环卫站,,42,38,32,29,18,109,109,123,122,12,10,2,3,0.4,0.4
2026-07-11T2200,4117A,114.2918,36.0769,安阳市,钢三路198号,,37,37,31,22,15,112,112,123,115,7,6,2,2,0.5,0.5
2026-07-11T2200,1748A,123.0441,41.1201,鞍山市,深沟寺,,16,14,12,10,9,49,49,50,50,3,4,6,6,0.4,0.4
2026-07-11T2200,1749A,123.011,41.0931,鞍山市,太阳城,,18,18,12,11,11,49,49,55,48,3,4,6,6,0.7,0.7
2026-07-11T2200,1750A,123.0483,41.1445,鞍山市,太平,,23,23,18,12,11,43,43,51,47,3,5,6,6,0.5,0.6
2026-07-11T2200,1751A,122.964,41.0968,鞍山市,铁西三道街,,21,21,19,11,10,47,47,57,49,2,6,4,5,0.7,0.8
2026-07-11T2200,1753A,123.0219,41.0822,鞍山市,明达新区,,19,19,16,10,11,49,49,58,50,4,5,2,3,0.4,0.5
2026-07-11T2200,4201A,122.944647,41.082639,鞍山市,兴盛南路290号,,22,22,20,12,13,40,40,50,45,9,10,4,4,0.8,1
2026-07-11T2200,2195A,107.4206,40.7609,巴彦淖尔市,附二中,颗粒物(PM10),58,61,35,24,16,83,83,97,97,7,7,12,12,0.7,0.6
2026-07-11T2200,2196A,107.37,40.7372,巴彦淖尔市,市环保大楼,颗粒物(PM10),63,68,68,26,17,85,85,90,90,6,7,10,10,0.6,0.6
2026-07-11T2200,1956A,86.1476,41.7529,巴音郭楞蒙古自治州,孔雀公园,颗粒物(PM10),107,138,97,49,28,100,100,116,113,13,24,6,6,0.3,0.3
2026-07-11T2200,1957A,86.1971,41.7166,巴音郭楞蒙古自治州,棉纺厂,颗粒物(PM10),118,165,98,46,29,113,113,124,122,10,17,/,/,/,/
2026-07-11T2200,1958A,86.236,41.7172,巴音郭楞蒙古自治州,经济开发区,颗粒物(PM10),80,91,67,37,20,112,112,118,117,7,8,5,4,0.2,0.2
2026-07-11T2200,3181A,106.776805,31.852614,巴中市,市五中,,38,NA,20,26,14,40,40,80,68,10,9,8,8,0.7,0.6
2026-07-11T2200,3183A,106.7419,31.8654,巴中市,圣泉水务公司,,32,NA,19,22,13,32,32,80,65,19,10,9,9,0.9,0.8
2026-07-11T2200,3616A,106.7617,31.8343,巴中市,市中心医院,颗粒物(PM10),61,65,28,23,15,32,32,82,68,20,10,7,7,1.0,0.8
2026-07-11T2200,2235A,122.7909,45.608,白城市,洮北区环保局,,22,13,20,3,16,70,70,90,87,6,5,6,5,0.2,0.2
2026-07-11T2200,2236A,122.8741,45.5725,白城市,市环保局,NA,NA,12,14,6,13,NA,NA,100,99,7,6,2,3,0.4,0.4
2026-07-11T2200,2231A,126.4219,41.9172,白山市,喜丰,,28,28,27,3,9,26,26,33,26,5,9,11,11,0.4,0.5
2026-07-11T2200,2232A,126.4082,41.9416,白山市,环保局,,11,9,13,3,2,34,34,36,28,1,6,10,10,0.4,0.6
2026-07-11T2200,2647A,104.1727,36.5448,白银市,第三小学,,20,NA,12,10,14,63,63,89,79,17,11,2,3,0.2,0.1
2026-07-11T2200,2648A,104.1467,36.5482,白银市,动力公司,,22,9,10,9,9,68,68,80,76,8,5,3,3,0.4,0.4
2026-07-11T2200,2512A,106.6102,23.901,百色市,市监测站,,17,17,23,11,8,31,31,77,62,10,10,7,11,0.4,0.5
2026-07-11T2200,2513A,106.6524,23.8842,百色市,市中心血站,颗粒物(PM10),63,67,27,20,13,42,42,71,59,19,10,62,27,0.3,0.2
2026-07-11T2200,4133A,106.6273,23.8798,百色市,龙景西路,细颗粒物(PM2.5),64,NA,32,42,14,19,19,77,64,40,12,12,16,0.6,0.5
2026-07-11T2200,2270A,117.396,32.9389,蚌埠市,工人疗养院,,29,29,32,13,16,43,43,104,85,8,11,5,5,0.1,0.2
2026-07-11T2200,2271A,117.3606,32.9428,蚌埠市,百货大楼,,27,27,29,15,16,46,46,107,88,11,10,8,9,0.5,0.6
2026-07-11T2200,2273A,117.4183,32.8909,蚌埠市,蚌埠学院,,23,19,26,16,18,28,28,100,78,21,7,6,6,0.2,0.3
2026-07-11T2200,2274A,117.3534,32.9672,蚌埠市,淮上区政府,,22,22,29,14,17,47,47,115,94,6,8,5,5,0.3,0.3
2026-07-11T2200,2275A,117.3143,32.8977,蚌埠市,高新区,,27,27,27,14,17,47,47,100,86,6,7,8,9,0.3,0.4
2026-07-11T2200,3715A,117.3091,32.9314,蚌埠市,蚌埠田家炳中学,,30,28,32,21,18,49,49,107,92,4,5,7,7,0.4,0.5
2026-07-11T2200,1585A,109.8761,40.6533,包头市,市环境监测站,,26,23,26,18,23,43,43,60,50,21,24,4,6,0.4,0.7
2026-07-11T2200,1587A,109.9992,40.5843,包头市,包头八中,,29,29,34,18,20,63,63,45,NA,10,25,6,7,0.4,0.6
2026-07-11T2200,1589A,109.8641,40.6288,包头市,惠龙物流,,30,23,29,21,23,56,56,62,60,10,18,2,3,0.4,0.6
2026-07-11T2200,1590A,110.0376,40.5546,包头市,东河鸿龙湾,,21,20,26,14,20,66,66,71,69,7,19,5,6,0.3,0.4
2026-07-11T2200,3283A,109.9154,40.5684,包头市,滨河大厦,,20,NA,25,14,25,34,34,63,58,28,20,5,6,0.4,0.5
2026-07-11T2200,3419A,109.9449,40.6259,包头市,包头市委党校,,20,17,20,14,21,49,49,70,64,31,22,7,9,0.2,0.4
2026-07-11T2200,3683A,109.8332,40.6577,包头市,昆区政府,,28,24,30,19,23,57,57,66,64,19,26,5,8,0.7,1
2026-07-11T2200,1931A,107.0802,34.3129,宝鸡市,竹园沟,,15,10,20,7,13,47,47,56,48,6,4,7,7,0.6,0.9
2026-07-11T2200,1933A,107.1429,34.3549,宝鸡市,监测站,,16,13,22,7,12,49,49,62,56,8,5,6,8,0.3,0.3
2026-07-11T2200,1934A,107.1172,34.3759,宝鸡市,技工学校,,19,19,18,12,13,35,35,68,57,6,3,5,5,0.5,0.5
2026-07-11T2200,1936A,107.2025,34.3518,宝鸡市,文理学院,,17,16,23,9,13,52,52,71,65,13,8,7,8,0.5,0.6
2026-07-11T2200,1937A,107.2396,34.3626,宝鸡市,三迪小学,,18,11,20,10,11,56,56,77,68,11,9,8,8,0.4,0.4
2026-07-11T2200,4155A,107.1721,34.3558,宝鸡市,滨河北路,,15,15,20,8,12,48,48,66,60,6,3,6,6,0.6,0.6
2026-07-11T2200,4308A,107.3898,34.3601,宝鸡市,陈仓区北开路21号,,17,14,26,9,13,53,53,75,65,12,7,4,4,0.4,0.4
2026-07-11T2200,1051A,115.4803,38.8568,保定市,游泳馆,,32,32,36,15,25,66,66,120,103,2,2,6,6,0.2,0.3
2026-07-11T2200,1052A,115.509,38.8895,保定市,华电二区,臭氧1小时(O3_1h),52,25,37,7,21,161,161,166,161,6,6,3,3,0.6,0.8
2026-07-11T2200,1053A,115.4588,38.9037,保定市,接待中心,,29,29,54,15,24,75,75,116,104,3,5,1,1,0.4,0.7
2026-07-11T2200,1054A,115.4484,38.8344,保定市,地表水厂,NA,NA,NA,55,12,21,NA,NA,132,117,4,5,1,2,0.6,0.7
2026-07-11T2200,3581A,115.3136,38.9511,保定市,满城区生态环境分局,,36,7,29,3,21,114,114,123,116,3,6,3,3,0.1,0.3
2026-07-11T2200,3582A,115.4709,38.7628,保定市,清苑区第二中学,,31,31,64,19,23,83,83,127,109,2,4,6,6,0.3,0.5
2026-07-11T2200,3583A,115.6231,39.0223,保定市,徐水物探局,,33,NA,22,23,21,78,78,110,106,10,10,4,3,0.3,0.5
2026-07-11T2200,4004A,115.4199,38.8665,保定市,双鹰农机,,27,17,32,16,25,85,85,132,118,4,4,2,2,0,0.2
2026-07-11T2200,4034A,115.515,38.8589,保定市,植保所站,,26,20,31,9,18,83,83,137,121,6,7,4,3,0,0.2
2026-07-11T2200,2594A,99.1589,25.1137,保山市,市环境监测站,,15,15,10,7,6,30,30,46,41,11,7,7,6,0.3,0.3
2026-07-11T2200,2595A,99.1616,25.1381,保山市,市环保局,,13,12,9,9,14,32,32,46,42,5,2,5,5,0.3,0.2
2026-07-11T2200,1867A,109.1435,21.4085,北海市,海滩公园,,26,16,22,9,7,82,82,82,82,2,2,1,1,0.4,0.4
2026-07-11T2200,1868A,109.0983,21.466,北海市,新市环保局,,24,11,17,3,7,75,75,79,79,6,6,3,2,0.2,0.2
2026-07-11T2200,1869A,109.1775,21.5232,北海市,北海工业园,,20,19,20,12,7,61,61,77,73,11,7,1,2,0.5,0.4
2026-07-11T2200,3400A,109.1844,21.4396,北海市,龙潭自来水厂,,23,17,18,7,8,73,73,73,73,3,3,1,2,0.4,0.4
2026-07-11T2200,1001A,116.3611,39.8786,北京市,万寿西宫,,32,30,28,22,22,70,70,89,86,6,8,2,2,0.5,0.7
2026-07-11T2200,1003A,116.4174,39.9289,北京市,东四,,25,NA,29,9,24,77,77,88,84,5,11,3,3,0.6,0.8
2026-07-11T2200,1004A,116.4073,39.8858,北京市,天坛,,31,31,29,20,19,59,59,73,68,6,8,1,1,0.8,1
2026-07-11T2200,1005A,116.4622,39.9364,北京市,农展馆,,23,23,28,16,21,69,69,79,74,11,14,3,2,0.6,0.7
2026-07-11T2200,1006A,116.3399,39.9293,北京市,官园,,25,9,34,7,23,78,78,93,90,9,14,5,5,0.5,0.7
2026-07-11T2200,1007A,116.2879,39.9613,北京市,海淀万柳,,20,6,30,3,19,63,63,78,77,7,12,5,5,0.5,0.7
2026-07-11T2200,1008A,116.6635,40.1349,北京市,顺义新城,,28,11,20,7,15,88,88,85,85,6,6,1,1,0.5,0.7
2026-07-11T2200,1009A,116.6275,40.327,北京市,怀柔镇,,22,6,27,3,19,70,70,78,78,4,6,3,3,0.6,0.7
2026-07-11T2200,1010A,116.2295,40.217,北京市,昌平镇,,23,6,25,3,15,72,72,88,85,3,9,3,3,0.7,1
2026-07-11T2200,1011A,116.3968,39.982,北京市,奥体中心,,25,6,27,3,20,80,80,79,79,6,14,2,2,0.5,0.7
2026-07-11T2200,3418A,116.8336,40.4095,北京市,密云新城,,20,18,22,10,13,62,62,71,64,4,6,3,3,0.5,0.6
2026-07-11T2200,3671A,116.0879,39.9725,北京市,门头沟三家店,,21,11,21,9,17,65,65,81,79,5,7,1,2,0.6,0.6
2026-07-11T2200,3672A,116.1507,39.8246,北京市,丰台云岗,,32,32,29,21,18,46,46,81,68,8,8,2,2,0.8,0.8
2026-07-11T2200,3674A,115.9578,39.7602,北京市,房山燕山,,38,37,28,26,17,76,76,94,93,11,6,1,1,0.7,0.6
2026-07-11T2200,3675A,116.4669,39.7734,北京市,大兴旧宫,,15,8,20,8,17,47,47,77,71,8,11,1,1,0.6,0.9
2026-07-11T2200,3694A,115.9859,40.4562,北京市,延庆石河营,,20,7,14,3,12,61,61,78,75,8,6,2,2,0.4,0.6
2026-07-11T2200,3695A,116.6151,40.3052,北京市,怀柔新城,,21,9,24,6,17,65,65,68,68,2,5,3,2,0.7,0.8
2026-07-11T2200,3696A,116.2542,39.8764,北京市,丰台小屯,,22,10,31,8,21,69,69,80,80,2,4,2,2,0.8,0.9
2026-07-11T2200,3697A,116.8399,40.3843,北京市,密云镇,,22,16,20,15,16,61,61,64,64,7,8,1,1,0.5,0.6
2026-07-11T2200,4057A,115.9423,40.4431,北京市,延庆百泉,,24,6,14,3,10,76,76,86,84,2,4,1,1,0.5,0.7
2026-07-11T2200,4058A,116.6598,39.9164,北京市,通州新华,,26,13,26,11,21,83,83,84,84,9,11,3,2,0.6,0.8
2026-07-11T2200,4182A,116.1942,39.9158,北京市,石景山八角,,24,6,28,3,21,74,74,103,96,3,5,1,3,0.7,0.8
2026-07-11T2200,4194A,117.078628,40.151726,北京市,平谷新城,,26,14,17,11,13,83,83,87,87,3,3,1,1,0.5,0.7
2026-07-11T2200,1761A,123.8274146,41.31234549,本溪市,大峪,,23,NA,10,16,5,52,52,49,49,1,2,6,5,0.3,0.3
2026-07-11T2200,1763A,123.7169,41.3094,本溪市,彩屯,,21,21,19,3,6,22,22,30,19,20,18,6,5,2.0,2.3
2026-07-11T2200,1764A,123.7672166,41.28649327,本溪市,东明,,18,18,13,10,5,45,45,58,40,4,3,6,6,0.4,0.4
2026-07-11T2200,1765A,123.799345,41.266614,本溪市,新立屯,,16,15,9,11,4,49,49,57,43,2,3,8,8,0.4,0.5
2026-07-11T2200,1766A,123.829144,41.336777,本溪市,威宁,,19,13,12,13,6,44,44,34,34,2,3,6,8,0.3,0.4
2026-07-11T2200,2587A,105.287,27.3133,毕节市,八中,,23,23,21,14,14,72,72,105,100,12,10,7,8,0.5,0.5
2026-07-11T2200,2588A,105.3079,27.2987,毕节市,师专,,25,24,19,17,12,69,69,100,96,11,10,9,7,0.4,0.4
2026-07-11T2200,4263A,105.3688,27.3598,毕节市,工业大道,,20,17,12,14,8,57,57,102,95,17,9,6,6,/,/
2026-07-11T2200,1629A,117.9961,37.3604,滨州市,第二水厂,,44,44,46,15,34,80,80,155,114,12,8,4,4,0.7,0.7
2026-07-11T2200,1630A,117.9789,37.3931,滨州市,北中新校,,39,39,42,12,26,80,80,162,118,20,14,6,4,0.5,0.6
2026-07-11T2200,3514A,117.9379,37.3959,滨州市,中海酒店,,34,34,36,10,23,90,90,159,128,16,12,11,8,0.4,0.5
2026-07-11T2200,3515A,117.9381509,37.35547456,滨州市,开发区一中,,39,39,49,10,28,82,82,143,111,6,9,8,8,0.6,0.7
2026-07-11T2200,3516A,118.0914,37.6938,滨州市,金海六路,,41,41,51,7,30,75,75,164,127,13,11,6,5,0.1,0.4
2026-07-11T2200,4028A,117.9955,37.3752,滨州市,滨州市西街道办事处,,34,34,39,12,24,76,76,158,115,14,9,4,4,0.5,0.6
2026-07-11T2200,2311A,115.8071,33.8399,亳州市,污水处理厂,,39,39,26,14,12,81,81,146,115,10,12,6,3,0.2,0.3
2026-07-11T2200,2312A,115.7789,33.8519,亳州市,三国揽胜宫,,46,46,30,19,14,84,84,143,118,6,7,4,4,0.3,0.3
2026-07-11T2200,3332A,115.7631,33.803,亳州市,亳州学院,,26,26,16,17,14,83,83,149,120,8,9,3,2,0.3,0.3
2026-07-11T2200,2693A,82.0482,44.8553,博尔塔拉蒙古自治州,市党校,,45,45,46,8,11,131,131,131,131,3,4,3,3,0.1,0.2
2026-07-11T2200,2694A,82.0805,44.8966,博尔塔拉蒙古自治州,市环保局,NA,NA,27,43,11,10,122,122,129,129,NA,9,4,3,0.1,0.2
2026-07-11T2200,1071A,116.8733,38.2922,沧州市,沧县城建局,,40,38,29,28,26,90,90,125,115,11,8,5,4,0.3,0.4
2026-07-11T2200,1072A,116.8462,38.3189,沧州市,电视转播站,,48,48,42,29,25,88,88,108,103,15,8,3,3,0.2,0.3
2026-07-11T2200,1073A,116.8588,38.3161,沧州市,市环保局,,41,41,46,24,25,84,84,104,100,12,11,3,3,0.3,0.3
2026-07-11T2200,3324A,116.8011,38.294,沧州市,河北水利电力学院,,39,NA,27,27,25,109,109,139,130,11,10,3,2,0.2,0.3
2026-07-11T2200,2622A,97.1813,31.1289,昌都市,昌都监测站,,18,9,7,6,3,57,57,69,61,7,7,7,7,0.4,0.4
2026-07-11T2200,3719A,97.1707,31.1428,昌都市,昌都会议中心,NA,NA,NA,6,4,3,68,68,80,71,4,4,5,5,0.5,0.5
2026-07-11T2200,2692A,87.2722,44.0298,昌吉回族自治州,新区政务中心,,38,27,42,26,17,121,121,136,135,9,9,10,10,0.1,0.1
2026-07-11T2200,3613A,87.3069,44.0093,昌吉回族自治州,亚心广场,,40,29,55,17,15,127,127,138,138,11,13,8,8,0.2,0.2
2026-07-11T2200,4164A,87.2057,43.9289,昌吉回族自治州,财政所,,44,44,50,19,12,115,115,141,140,15,11,8,7,0.2,0.1
2026-07-11T2200,1120A,125.2874,43.9024,长春市,客车厂,,22,NA,12,15,12,36,36,84,34,8,7,4,4,0.5,0.5
2026-07-11T2200,1121A,125.2943,43.8508,长春市,邮电学院,,20,16,11,14,11,44,44,88,42,5,5,6,6,0.4,0.4
2026-07-11T2200,1122A,125.3648,43.8745,长春市,劳动公园,,19,NA,11,13,10,32,32,76,31,7,7,5,5,0.4,0.4
2026-07-11T2200,1123A,125.3233,43.8781,长春市,园林处,,15,13,12,10,9,41,41,87,40,6,6,4,4,0.5,0.5
2026-07-11T2200,1124A,125.4604,43.7904,长春市,净月潭,,12,9,10,8,8,29,29,68,28,3,4,6,6,0.1,0.2
2026-07-11T2200,1126A,125.38,43.8422,长春市,经开区环卫处,,13,13,13,7,10,24,24,69,25,8,7,3,4,0.4,0.4
2026-07-11T2200,1127A,125.234,43.7761,长春市,高新区管委会,,16,11,11,11,9,36,36,72,34,5,5,3,4,0.3,0.4
2026-07-11T2200,1128A,125.1695,43.83,长春市,岱山公园,,23,17,13,16,11,29,29,70,27,9,10,2,2,0.4,0.4
2026-07-11T2200,4281A,125.334645,43.916281,长春市,北亚泰大街1068号,,23,16,13,16,12,27,27,76,28,12,11,2,3,0.6,0.6
2026-07-11T2200,1335A,113.082,28.2421,长沙市,经开区环保局,,34,30,31,22,18,108,108,106,98,11,11,4,6,0.6,0.5
2026-07-11T2200,1336A,112.8873,28.2202,长沙市,高开区环保局,NA,NA,38,30,NA,19,NA,NA,114,103,NA,5,NA,4,NA,0.6
2026-07-11T2200,1337A,113.0785,28.2012,长沙市,马坡岭,,37,37,31,23,20,111,111,109,102,14,10,8,7,0.4,0.3
2026-07-11T2200,1338A,112.9448,28.1894,长沙市,湖南师范大学,,37,31,30,23,17,117,117,116,103,4,4,8,9,0.3,0.2
2026-07-11T2200,1339A,113.0177,28.1322,长沙市,雨花区环保局,,43,37,30,30,20,107,107,106,98,11,9,6,6,0.7,0.6
2026-07-11T2200,1340A,112.9795,28.2593,长沙市,伍家岭,,46,46,32,24,20,106,106,109,99,13,9,7,5,0.4,0.3
2026-07-11T2200,1341A,113.002,28.1944,长沙市,火车新站,,35,35,31,24,16,97,97,104,94,16,9,6,6,0.5,0.4
2026-07-11T2200,1342A,112.9846,28.1177,长沙市,天心区环保局,颗粒物(PM10),54,55,62,26,18,113,113,114,108,11,9,4,4,0.1,0
2026-07-11T2200,1343A,112.8906,28.1307,长沙市,湖南中医药大学,,42,34,35,29,21,103,103,117,103,17,17,7,7,0.4,0.4
2026-07-11T2200,1727A,113.1146,36.1547,长治市,清华站,,34,25,19,13,11,108,108,108,108,5,4,7,7,0.5,0.4
2026-07-11T2200,1730A,113.0887,36.2126,长治市,审计局,,36,25,21,12,13,114,114,110,110,1,2,8,8,0.7,0.5
2026-07-11T2200,1731A,113.0845,36.1856,长治市,长治八中,,32,28,27,13,11,101,101,104,104,7,4,10,10,0.9,0.6
2026-07-11T2200,2845A,113.1561,36.1912,长治市,德盛苑,,33,27,22,19,13,103,103,108,108,7,6,10,10,0.6,0.6
2026-07-11T2200,3568A,113.0603,36.0464,长治市,向阳小学,,36,36,27,19,14,95,95,105,105,15,6,5,5,0.4,0.3
2026-07-11T2200,3569A,112.8788,36.315,长治市,屯留一中,,31,31,28,21,16,78,78,103,100,9,4,10,10,1.2,1.4
2026-07-11T2200,4189A,113.113092,36.199482,长治市,英华南巷50号,,35,32,26,16,13,110,110,109,109,3,3,9,9,0.9,0.9
2026-07-11T2200,4190A,113.23666,36.33435,长治市,学府街1号,,32,28,26,11,14,100,100,101,101,5,7,5,6,0.4,0.4
2026-07-11T2200,1854A,111.696,28.9725,常德市,市二中,,29,NA,19,20,15,83,83,106,95,10,6,6,7,1.1,1.1
2026-07-11T2200,3138A,111.7152,29.0288,常德市,武陵区永安,,33,27,24,23,16,80,80,106,98,7,6,7,6,0.4,0.5
2026-07-11T2200,3139A,111.6891,28.9881,常德市,鼎城区玉霞,,26,24,22,18,15,59,59,90,84,10,8,6,7,1.1,0.9
2026-07-11T2200,3140A,111.6651,29.0526,常德市,武陵区长庚,,31,23,24,21,18,97,97,110,104,5,7,7,9,0.6,0.6
2026-07-11T2200,1196A,119.9524,31.7586,常州市,市监测站,,32,32,36,14,10,29,29,56,42,2,7,12,13,0.2,0.3
2026-07-11T2200,1200A,119.9351,31.703,常州市,武进监测站,,33,33,31,11,10,30,30,56,40,7,10,23,19,0.4,0.4
2026-07-11T2200,3002A,119.9701,31.813,常州市,行政中心,,33,33,31,14,12,30,30,55,42,4,8,6,6,0.3,0.3
2026-07-11T2200,3003A,120.0434,31.7726,常州市,经开区,,40,40,35,10,10,31,31,54,41,8,10,7,8,0.5,0.6
2026-07-11T2200,3010A,119.8919,31.7892,常州市,钟楼,,29,29,32,16,12,33,33,60,47,6,10,7,7,0.3,0.4
2026-07-11T2200,3429A,119.8595,31.706,常州市,武进经发区,,40,40,36,15,14,28,28,57,40,2,6,4,5,0.5,0.6
2026-07-11T2200,3430A,119.5812,31.7256,常州市,金坛城区,,30,30,34,15,14,29,29,69,48,9,8,7,6,0.5,0.4
2026-07-11T2200,4089A,119.9551,31.863,常州市,崇义南街5-H号,,36,36,31,16,12,23,23,50,37,4,7,7,6,0.9,0.7
2026-07-11T2200,2220A,120.4318,41.588,朝阳市,西梁,,22,NA,17,15,8,57,57,71,56,7,7,7,7,0.7,0.8
2026-07-11T2200,2221A,120.452,41.565,朝阳市,河畔小区,,25,NA,12,17,11,72,72,82,64,6,6,8,8,0.7,0.7
2026-07-11T2200,2222A,120.4176,41.5648,朝阳市,八里堡,,20,6,15,3,9,64,64,78,55,10,9,6,5,0.7,0.7
2026-07-11T2200,3026A,116.6179,23.6608,潮州市,市政府,NA,NA,NA,37,24,23,43,43,68,62,10,12,NA,10,0.5,0.6
2026-07-11T2200,4036A,116.646,23.676,潮州市,金山,细颗粒物(PM2.5),58,NA,31,39,21,36,36,58,52,10,7,1,2,0.6,0.4
2026-07-11T2200,2473A,113.0116,25.8228,郴州市,市职中,,42,NA,24,29,16,29,29,90,68,16,11,7,7,0.7,0.6
2026-07-11T2200,2475A,113.0381,25.8074,郴州市,市审计局,,49,42,27,34,17,53,53,93,80,7,7,6,7,/,/
2026-07-11T2200,2476A,113.0348,25.7757,郴州市,市环保局,细颗粒物(PM2.5),72,NA,18,46,19,41,41,87,74,24,14,9,8,0.6,0.5
2026-07-11T2200,4252A,113.0138,25.8011,郴州市,好美居路49号,,38,38,23,18,11,38,38,91,74,23,13,7,8,/,/
2026-07-11T2200,1431A,103.9727,30.7242,成都市,金泉两河,,28,28,17,16,11,84,84,118,112,12,8,1,2,0.2,0.2
2026-07-11T2200,1432A,104.1423,30.6765,成都市,十里店,,26,NA,27,17,13,81,81,140,132,14,10,4,5,0.6,0.6
2026-07-11T2200,1433A,104.0594,30.5765,成都市,三瓦窑,,34,NA,24,17,15,106,106,128,125,9,10,4,5,0.5,0.5
2026-07-11T2200,1434A,104.1122,30.6306,成都市,沙河铺,,34,34,27,21,16,67,67,129,118,14,13,5,5,0.5,0.5
2026-07-11T2200,2880A,104.0219,30.6561,成都市,大石西路,,30,27,25,19,13,96,96,112,110,11,11,3,4,0.6,0.6
2026-07-11T2200,3136A,104.2724,30.559,成都市,龙泉驿区区政府,,23,NA,18,14,16,73,73,140,121,8,9,7,7,0.5,0.5
2026-07-11T2200,3357A,104.0028,30.6891,成都市,金博路,,29,19,13,11,11,91,91,119,115,15,11,7,8,0.7,0.6
2026-07-11T2200,3359A,104.056,30.5228,成都市,华阳,NA,NA,NA,20,29,16,NA,NA,130,129,13,13,2,1,0.7,0.7
2026-07-11T2200,3488A,104.387954,30.746684,成都市,青白江技师分院,,26,21,24,18,17,74,74,150,126,11,11,5,6,0.6,0.6
2026-07-11T2200,3489A,104.0788,30.4054,成都市,科学城,,27,21,14,10,8,85,85,132,119,13,8,6,5,0.7,0.6
2026-07-11T2200,4011A,103.8505,30.6946,成都市,光华大道三段,,33,NA,19,14,9,103,103,122,120,11,7,3,3,0.4,0.5
2026-07-11T2200,4144A,104.3257,30.6406,成都市,八角井街185号,,27,17,29,11,14,84,84,151,131,12,11,5,5,0.5,0.5
2026-07-11T2200,4224A,104.2433276,30.53529463,成都市,鲸龙路1057号,,29,21,22,13,13,92,92,145,134,15,13,7,7,0.7,0.7
2026-07-11T2200,1062A,117.9531,40.908,承德市,铁路,,19,19,14,3,7,28,28,64,43,20,19,3,4,0.4,0.4
2026-07-11T2200,1063A,117.9397,40.9763,承德市,中国银行,,15,NA,13,10,6,28,28,72,51,17,11,2,2,0.6,0.5
2026-07-11T2200,4073A,117.9462,40.95,承德市,杏林街1号,,15,15,15,10,11,24,24,73,55,10,8,2,3,0.6,0.6
2026-07-11T2200,4274A,117.7994,40.9605,承德市,滨河大街98号,,16,12,15,3,5,49,49,69,64,10,6,3,4,0.4,0.4
2026-07-11T2200,2314A,117.4698,30.6617,池州市,池州学院,,25,25,28,14,17,48,48,77,73,11,12,7,5,0.6,0.7
2026-07-11T2200,3237A,117.4918,30.6617,池州市,展览馆,,34,34,33,15,18,51,51,84,79,8,8,6,3,0.5,0.7
2026-07-11T2200,3333A,117.5626,30.695,池州市,第八中学,,33,33,32,13,18,48,48,72,70,4,8,6,4,0.3,0.4
2026-07-11T2200,3334A,117.5037,30.6242,池州市,第十二中学,,28,28,32,13,17,49,49,73,69,6,11,6,4,0.4,0.7
2026-07-11T2200,1744A,118.9229,42.2816,赤峰市,松山一中,,28,18,15,16,12,88,88,104,92,6,11,6,6,0.6,0.6
2026-07-11T2200,1745A,118.9588,42.2733,赤峰市,哈达街,,24,19,19,8,12,74,74,86,74,11,13,11,11,0.6,0.6
2026-07-11T2200,1746A,118.8792,42.2551,赤峰市,天义路,,20,15,12,10,9,64,64,84,74,13,12,7,7,0.5,0.5
2026-07-11T2200,3058A,119.2656,42.0356,赤峰市,银河街,,23,12,24,7,18,73,73,86,83,10,13,9,11,0.7,0.9
2026-07-11T2200,3286A,118.9359,42.3146,赤峰市,桥北物流园区,,20,17,11,11,9,62,62,93,73,7,13,4,5,0.5,0.5
2026-07-11T2200,2521A,107.3473,22.4137,崇左市,市环保局江州分局,,15,15,20,6,7,48,48,85,76,5,8,4,4,0.6,0.6
2026-07-11T2200,4256A,107.375,22.3736,崇左市,石景林东路7号,,15,NA,21,9,10,46,46,95,82,5,10,3,4,0.4,0.5
2026-07-11T2200,3207A,118.31131,32.3033,滁州市,市政府原办公楼,,33,29,30,23,24,37,37,99,71,4,7,6,10,0.3,0.4
2026-07-11T2200,3331A,118.3268,32.2633,滁州市,图书馆,,33,33,31,18,16,36,36,96,73,3,4,7,7,0.1,0.1
2026-07-11T2200,4101A,118.3196,32.3335,滁州市,银山路666号,,28,28,39,18,18,40,40,106,78,4,7,4,5,0.2,0.3
2026-07-11T2200,4102A,118.3426,32.2979,滁州市,黄山路555号,,34,34,34,17,22,37,37,98,72,6,6,7,7,0.2,0.3
2026-07-11T2200,2606A,101.5379,25.0492,楚雄彝族自治州,市经济开发区,,18,18,10,6,4,34,34,39,38,6,5,2,2,0.6,0.6
2026-07-11T2200,4153A,101.5536,25.0343,楚雄彝族自治州,团结路562号,,13,11,8,9,6,37,37,42,42,6,4,4,2,0.5,0.4
2026-07-11T2200,2549A,107.5087,31.2186,达州市,市环境监测站,,19,19,25,9,9,48,48,78,70,18,22,6,6,0.6,0.6
2026-07-11T2200,2550A,107.4988,31.2132,达州市,凤凰小区,,29,29,27,13,7,34,34,74,69,24,17,4,4,0.5,0.3
2026-07-11T2200,2551A,107.5081,31.1987,达州市,达县机关宾馆,,36,36,34,15,9,7,7,87,68,59,23,5,6,0.4,0.3
2026-07-11T2200,2552A,107.4644,31.2124,达州市,市政中心,,41,41,31,23,8,33,33,91,80,44,20,5,6,0.5,0.3
2026-07-11T2200,2614A,100.2168,25.5818,大理白族自治州,大理市环境监测站,,15,6,5,3,4,47,47,49,49,9,8,4,5,0.5,0.3
2026-07-11T2200,2615A,100.1542,25.7055,大理白族自治州,大理古城,,18,18,14,7,5,30,30,54,50,13,8,6,6,0.5,0.4
2026-07-11T2200,1109A,121.6119,38.974,大连市,甘井子,,25,25,21,14,10,30,30,60,49,10,7,7,7,0.5,0.5
2026-07-11T2200,1110A,121.565,38.9509,大连市,周水子,,21,21,19,14,10,31,31,58,49,11,11,6,6,0.8,0.7
2026-07-11T2200,1111A,121.5637,38.8849,大连市,星海三站,,26,26,21,14,9,29,29,57,49,5,3,5,6,0.8,0.8
2026-07-11T2200,1112A,121.6301,38.9117,大连市,青泥洼桥,,26,26,18,15,10,31,31,58,50,5,4,6,6,0.8,0.8
2026-07-11T2200,1113A,121.6248,38.8643,大连市,傅家庄,,28,28,21,12,9,28,28,54,46,5,4,5,5,0.6,0.5
2026-07-11T2200,1114A,121.5117,38.8636,大连市,七贤岭,,43,NA,18,30,8,29,29,56,46,7,6,6,3,0.6,0.6
2026-07-11T2200,1116A,121.7507,39.1339,大连市,金州,,18,17,15,12,9,27,27,51,44,5,5,7,8,0.4,0.4
2026-07-11T2200,1117A,121.7811,39.0495,大连市,开发区,,31,31,24,14,9,31,31,55,49,5,7,6,7,0.4,0.4
2026-07-11T2200,1118A,121.9762,39.0631,大连市,双D港,,25,25,24,7,7,28,28,48,45,2,4,6,6,0.5,0.4
2026-07-11T2200,4082A,121.2548,38.8188,大连市,旅顺,,34,34,19,15,9,23,23,54,44,14,10,5,6,0.3,0.3
2026-07-11T2200,1789A,124.8085,46.0381,大庆市,大同区,,28,28,31,3,15,81,81,107,101,15,9,5,5,0.6,0.6
2026-07-11T2200,1790A,125.1166,46.5255,大庆市,龙凤区,,27,27,31,11,19,75,75,88,85,6,8,3,4,0.2,0.3
2026-07-11T2200,1791A,124.8894,46.4007,大庆市,红岗区,,22,13,26,11,18,68,68,88,85,4,5,8,8,0.6,0.6
2026-07-11T2200,1792A,125.1391,46.578,大庆市,萨尔图区,,25,16,36,15,24,78,78,87,86,7,8,10,6,0.2,0.2
2026-07-11T2200,1793A,124.9026,46.6217,大庆市,让胡路区,,28,23,36,19,24,74,74,81,80,8,7,4,4,0.5,0.7
2026-07-11T2200,3481A,125.127,46.6277,大庆市,萨区政府监测点,,28,15,22,11,25,88,88,100,99,2,2,6,6,0.3,0.4
2026-07-11T2200,1723A,113.2926,40.0759,大同市,云冈宾馆,,19,19,25,12,14,52,52,90,83,23,11,7,6,1.2,0.5
2026-07-11T2200,1724A,113.3437,40.0921,大同市,大同大学,,21,21,23,14,28,58,58,76,73,23,14,6,5,1.0,0.8
2026-07-11T2200,1725A,113.2637,40.129,大同市,安家小村,,20,20,24,10,18,55,55,93,85,17,11,7,7,0.6,0.4
2026-07-11T2200,3282A,113.3399,40.0586,大同市,大同市卫生学校,NA,NA,NA,34,20,27,63,63,57,NA,21,14,5,5,2.1,1.1
2026-07-11T2200,3565A,113.1371,40.1122,大同市,云冈站,,13,13,19,3,17,33,33,76,64,18,13,5,5,0.7,0.8
2026-07-11T2200,3566A,113.1186,40.2556,大同市,图书馆,,19,18,31,6,18,58,58,88,79,10,11,5,6,0.9,0.9
2026-07-11T2200,3567A,113.5931,40.0459,大同市,区一中,,19,16,18,11,15,60,60,86,74,19,13,8,8,0.6,0.6
2026-07-11T2200,4199A,113.2798248,40.09972476,大同市,魏都大道141号,,22,22,27,12,18,44,44,81,75,21,13,5,4,1.3,0.7
2026-07-11T2200,2269A,124.1068,50.4091,大兴安岭地区,科技局,,28,28,24,11,14,20,20,72,58,6,5,5,5,0.2,0.2
2026-07-11T2200,3663A,124.117,50.4279,大兴安岭地区,红旗社区,,16,NA,11,11,12,40,40,78,60,2,7,6,5,0.2,0.3
2026-07-11T2200,1600A,124.33,40.0625,丹东市,江湾东路,,19,17,11,10,7,58,58,49,49,4,4,3,1,0.4,0.4
2026-07-11T2200,1601A,124.4242,40.1513,丹东市,临江后街,,18,18,12,12,6,51,51,42,42,2,2,6,3,0.5,0.4
2026-07-11T2200,1602A,124.3935,40.1461,丹东市,元宝山,,22,22,11,12,7,43,43,38,38,5,5,3,2,0.5,0.5
2026-07-11T2200,1603A,124.3634,40.1093,丹东市,民主桥,,18,18,11,10,5,48,48,41,41,1,2,6,5,0.4,0.4
2026-07-11T2200,3541A,109.5726195,19.51688767,儋州市,第一中学子站,,18,6,12,3,6,55,55,60,59,2,3,1,2,0.6,0.5
2026-07-11T2200,3542A,109.5567,19.5187,儋州市,东坡学校子站,,19,10,18,3,6,59,59,62,62,1,3,3,2,0.4,0.4
2026-07-11T2200,2616A,98.5611,24.4273,德宏傣族景颇族自治州,德宏州监测站,,29,NA,11,20,12,16,16,43,36,16,7,6,6,0.8,0.6
2026-07-11T2200,3677A,98.5887,24.4366,德宏傣族景颇族自治州,芒市人民政府综合楼,,41,41,31,10,7,11,11,35,28,10,7,5,5,0.8,0.6
2026-07-11T2200,1901A,104.424,31.1209,德阳市,东山公园,,24,NA,18,14,19,74,74,106,94,8,9,4,5,0.7,0.7
2026-07-11T2200,1902A,104.3827,31.1318,德阳市,西小区,,22,20,29,13,20,68,68,85,80,8,11,10,10,1.0,1.1
2026-07-11T2200,1904A,104.3553,31.1091,德阳市,耐火材料厂,,29,22,26,16,20,90,90,118,109,6,8,6,7,0.4,0.5
2026-07-11T2200,4145A,104.4144,31.1495,德阳市,市林业局,,29,25,22,14,20,92,92,122,112,7,11,12,13,0.8,0.8
2026-07-11T2200,1622A,116.3034,37.4675,德州市,儿童乐园,,49,36,39,15,21,154,154,166,165,8,7,10,11,0.7,0.8
2026-07-11T2200,1624A,116.2992,37.4449,德州市,监理站,,47,44,37,15,20,150,150,163,161,7,7,14,14,0.4,0.4
2026-07-11T2200,3066A,116.2722,37.438,德州市,九衢泉纯净水厂,,47,41,37,20,21,150,150,159,157,14,14,3,8,0.6,0.8
2026-07-11T2200,3371A,116.3693,37.44,德州市,开发区人民医院,,42,36,36,16,22,132,132,152,150,14,12,7,7,0.6,0.6
2026-07-11T2200,3511A,116.5687,37.3331,德州市,陵城艺术中心,,37,34,36,9,20,118,118,152,147,11,10,9,8,0.3,0.4
2026-07-11T2200,4292A,116.352738,37.420875,德州市,新河东路,,45,29,31,15,18,143,143,156,156,14,14,10,10,0.6,0.7
2026-07-11T2200,2621A,99.7054,27.8319,迪庆藏族自治州,迪庆州站,,13,13,16,3,6,20,20,38,31,11,8,9,9,0.7,0.7
2026-07-11T2200,3180A,99.7122,27.8129,迪庆藏族自治州,质量技术监督局,,10,10,14,3,4,24,24,42,34,12,8,7,7,0.3,0.3
2026-07-11T2200,4257A,104.6092,35.5962,定西市,将台街,,29,28,22,6,7,90,90,93,92,7,7,5,5,0.1,0
2026-07-11T2200,4309A,104.6159,35.5701,定西市,正龙路62号,,30,30,26,7,7,89,89,86,86,6,7,5,5,0.2,0.2
2026-07-11T2200,4071A,114.9883,38.5232,定州市,交通局,,37,37,57,3,24,92,92,132,123,9,11,5,5,0.4,0.5
2026-07-11T2200,4072A,115.0045,38.5136,定州市,第五中学,,29,21,42,11,23,91,91,129,121,8,10,3,3,0.3,0.5
2026-07-11T2200,1390A,113.7943,23.0132,东莞市,东城石井,臭氧1小时(O3_1h),54,46,30,21,14,163,163,186,169,16,14,5,6,0.6,0.5
2026-07-11T2200,1391A,113.7384,22.9659,东莞市,南城西平,,48,42,29,25,16,151,151,210,196,20,19,7,8,0.8,0.8
2026-07-11T2200,3319A,113.7283,23.041,东莞市,万江金泰,,50,50,31,30,17,138,138,170,157,37,24,9,14,0.9,0.8
2026-07-11T2200,4129A,113.8666,23.1062,东莞市,裕兴路,,44,44,29,28,13,135,135,142,131,32,21,6,6,0.8,0.7
2026-07-11T2200,4130A,114.0076,22.9739,东莞市,教育路1号,颗粒物(PM10),53,54,32,27,17,146,146,171,152,38,29,7,7,0.9,0.8
2026-07-11T2200,4131A,113.7981,22.8124,东莞市,长怡路1号,,40,40,35,20,17,98,98,226,204,19,17,5,5,0.7,0.7
2026-07-11T2200,1666A,118.6612,37.4313,东营市,市环保局,,24,24,36,3,22,38,38,140,99,11,10,17,10,0.3,0.5
2026-07-11T2200,3036A,118.6903,37.4337,东营市,开发区管委会,,27,27,40,3,17,42,42,144,103,13,11,9,9,0.5,0.6
2026-07-11T2200,3365A,118.5721,37.5654,东营市,垦利区民丰路,,27,27,44,3,25,55,55,150,113,10,9,4,4,0.2,0.4
2026-07-11T2200,3498A,118.5063,37.8606,东营市,河口城区,,22,22,41,3,21,58,58,152,115,11,13,8,7,0.6,0.9
2026-07-11T2200,3646A,118.4979,37.4623,东营市,胜利站,,37,37,43,3,22,56,56,165,122,11,11,5,4,0.6,0.8
2026-07-11T2200,3734A,118.5753,37.4405,东营市,理想之城,NA,NA,19,35,3,19,40,40,162,98,24,22,4,12,NA,0.7
2026-07-11T2200,1591A,110.0024,39.8127,鄂尔多斯市,综合楼,,32,22,15,22,15,67,67,90,75,19,12,1,2,0.9,0.8
2026-07-11T2200,1592A,109.9485,39.8259,鄂尔多斯市,巴音孟克林场办事处,,25,17,17,17,13,78,78,84,80,12,12,4,4,0.2,0.1
2026-07-11T2200,1593A,109.7734,39.5987,鄂尔多斯市,康泽苑,,32,22,19,22,15,72,72,82,80,9,7,10,11,0.3,0.3
2026-07-11T2200,1594A,109.8121,39.5987,鄂尔多斯市,华泰汽车城,,29,22,21,20,16,58,58,66,62,11,8,10,10,0.7,0.7
2026-07-11T2200,1595A,109.9734,39.7884,鄂尔多斯市,奥林花园,,32,24,21,22,14,49,49,83,63,16,12,5,4,0.5,0.5
2026-07-11T2200,2436A,114.894,30.3989,鄂州市,市政府,,44,44,37,16,15,68,68,113,95,7,12,2,3,0.4,0.4
2026-07-11T2200,2437A,114.8986,30.3714,鄂州市,赵家坝,,30,27,27,21,14,66,66,121,108,1,8,15,6,0.4,0.5
2026-07-11T2200,3654A,114.8093,30.4091,鄂州市,精准医疗中心,,26,26,31,16,16,67,67,118,97,9,20,4,9,0.3,0.6
2026-07-11T2200,2454A,109.4978,30.2979,恩施土家族苗族自治州,湖北民院,,28,22,19,19,8,52,52,88,78,2,4,5,5,0.5,0.5
2026-07-11T2200,3549A,109.5061,30.3771,恩施土家族苗族自治州,龙凤新区,,26,22,14,18,11,52,52,89,75,6,6,6,6,0.4,0.4
2026-07-11T2200,2499A,108.3411,21.6159,防城港市,沙万,,24,24,27,10,8,60,60,64,64,14,12,2,4,0.5,0.6
2026-07-11T2200,2500A,108.3515,21.7733,防城港市,防城档案局,,21,21,26,12,13,57,57,70,64,5,9,6,6,0.5,0.6
2026-07-11T2200,2501A,108.3506,21.6414,防城港市,大海花园,,27,27,20,12,11,69,69,80,78,15,10,6,8,0.5,0.6
2026-07-11T2200,1371A,113.1293,23.0065,佛山市,湾梁,,36,36,27,21,17,107,107,176,160,22,17,/,/,/,/
2026-07-11T2200,1372A,113.1082,23.0477,佛山市,华材职中,,36,34,28,25,20,94,94,159,140,26,14,10,9,0.4,0.4
2026-07-11T2200,1373A,113.1439,23.045,佛山市,南海气象局,,43,43,31,24,18,112,112,168,152,24,16,/,/,/,/
2026-07-11T2200,1374A,113.2879,22.8094,佛山市,顺德苏岗,,36,36,30,24,17,78,78,197,181,26,17,/,/,0.9,0.8
2026-07-11T2200,1376A,112.8384,22.8678,佛山市,高明孔堂,,29,23,21,15,13,92,92,132,128,4,8,/,/,/,/
2026-07-11T2200,1377A,112.8835,23.1584,佛山市,三水监测站,颗粒物(PM10),55,56,29,31,20,76,76,130,122,34,17,7,6,0.8,0.7
2026-07-11T2200,1378A,112.8668,23.185,佛山市,三水云东海,,49,49,34,29,19,27,27,125,106,60,17,/,/,/,/
2026-07-11T2200,3625A,113.2568,22.7629,佛山市,容桂街道办,,36,31,23,25,16,64,64,201,183,24,17,/,/,/,/
2026-07-11T2200,1282A,119.2681,26.0506,福州市,师大,,24,24,22,3,4,48,48,51,50,3,4,4,4,0.4,0.4
2026-07-11T2200,1283A,119.2983,26.1028,福州市,五四北路,,20,20,17,3,4,50,50,50,49,6,8,4,4,0.3,0.3
2026-07-11T2200,1284A,119.2648,26.0769,福州市,杨桥西路,,18,18,18,3,3,46,46,49,48,5,6,4,4,/,/
2026-07-11T2200,3048A,119.5799,26.0937,福州市,九龙,,15,14,13,3,1,48,48,46,46,5,5,6,6,0.2,0.2
2026-07-11T2200,3526A,119.5188,25.9666,福州市,吴航,,13,13,16,6,8,41,41,50,47,6,7,6,6,0.5,0.5
2026-07-11T2200,4104A,119.3106,26.0648,福州市,路通桥巷6号,,14,12,17,8,10,42,42,48,45,4,4,/,/,/,/
2026-07-11T2200,1755A,123.7974,41.8494,抚顺市,望花区,,22,NA,14,15,11,18,18,53,22,14,13,6,7,1.1,0.6
2026-07-11T2200,1756A,123.9161,41.8827,抚顺市,顺城区,,8,7,9,3,5,24,24,60,28,10,10,8,8,0.7,0.6
2026-07-11T2200,1757A,124.0437,41.8615,抚顺市,东洲区,,10,7,11,3,5,32,32,61,29,6,8,8,8,0.3,0.4
2026-07-11T2200,1758A,123.9246,41.8638,抚顺市,新抚区,,15,NA,13,10,7,19,19,55,24,7,6,5,5,0.8,0.7
2026-07-11T2200,1759A,124.0972,41.8961,抚顺市,大伙房水库,,11,6,9,3,4,34,34,62,32,6,8,10,10,0.2,0.2
2026-07-11T2200,1760A,123.708,41.8386,抚顺市,沈抚新城,,14,14,17,3,6,20,20,46,19,15,12,6,7,0.8,1
2026-07-11T2200,2377A,116.3544,27.9833,抚州市,市站,,36,36,42,18,24,60,60,88,69,5,6,10,16,0.8,0.8
2026-07-11T2200,2378A,116.3562,27.9631,抚州市,血防站,,33,33,43,10,21,65,65,89,74,8,10,10,10,0.7,0.7
2026-07-11T2200,2379A,116.3561,28.0007,抚州市,采茶剧团,,36,36,46,13,22,69,69,99,79,9,13,13,15,0.5,0.6
2026-07-11T2200,2380A,116.3854,27.9648,抚州市,医学分院,,38,38,46,9,18,80,80,102,84,4,8,5,7,0.8,0.7
2026-07-11T2200,2207A,121.6095,41.9978,阜新市,工业园区,,24,22,20,12,12,74,74,80,64,9,9,6,6,0.2,0.2
2026-07-11T2200,2208A,121.6567,42.0188,阜新市,长青街,,25,22,16,6,8,79,79,74,67,6,8,6,6,0.3,0.4
2026-07-11T2200,2209A,121.6672,42.07,阜新市,农业园区,,34,34,33,13,11,80,80,85,67,7,6,3,3,0.6,0.6
2026-07-11T2200,2211A,121.6343,42.0455,阜新市,玉龙新城,,25,25,21,15,12,65,65,62,54,10,9,1,2,0.6,0.5
2026-07-11T2200,2301A,115.8276,32.8929,阜阳市,市监测站,,35,35,32,18,18,93,93,126,111,12,13,6,6,0.4,0.4
2026-07-11T2200,2303A,115.8551,32.8606,阜阳市,开发区,,44,44,39,15,17,86,86,122,107,11,12,4,4,0.5,0.5
2026-07-11T2200,2875A,115.783962,32.889217,阜阳市,阜阳职业技术学院,,44,44,38,16,17,102,102,138,121,6,6,3,3,0.4,0.4
2026-07-11T2200,3468A,115.79,32.8614,阜阳市,市规划展馆,,37,37,33,23,20,102,102,133,119,9,10,1,1,0.5,0.5
2026-07-11T2200,3469A,115.835101,32.918568,阜阳市,枣园社区,,33,33,31,18,17,82,82,115,100,10,9,3,3,0.6,0.5
2026-07-11T2200,2669A,102.9097,34.9841,甘南藏族自治州,州政府,,26,21,12,3,4,82,82,84,82,10,6,3,4,0.2,0.2
2026-07-11T2200,3380A,102.8915,34.9618,甘南藏族自治州,甘肃民族师范学院,,26,NA,8,8,6,82,82,87,87,6,4,4,4,0.3,0.3
2026-07-11T2200,2570A,101.96,30.048,甘孜藏族自治州,水桥子,,18,14,8,10,7,57,57,76,73,17,17,3,3,0.3,0.4
2026-07-11T2200,3065A,101.9534,29.9976,甘孜藏族自治州,州环保局,,13,7,8,3,6,39,39,78,70,20,18,2,3,0.1,0.2
2026-07-11T2200,2363A,114.9368,25.8663,赣州市,地委,颗粒物(PM10),56,58,46,33,23,97,97,107,107,6,9,4,4,1.4,1.1
2026-07-11T2200,2364A,114.946,25.8483,赣州市,气象台,细颗粒物(PM2.5),64,51,36,42,25,98,98,100,100,9,11,5,5,0.8,0.7
2026-07-11T2200,2365A,114.932,25.8332,赣州市,市图书馆,,49,47,36,34,22,112,112,114,114,6,11,4,4,1.1,0.9
2026-07-11T2200,2366A,114.8905,25.8472,赣州市,华坚鞋城,颗粒物(PM10),52,52,41,31,21,88,88,103,103,12,14,1,2,1.1,1.1
2026-07-11T2200,3109A,115.0094,25.8614,赣州市,赣县区卫计委,细颗粒物(PM2.5),68,52,32,44,19,92,92,105,105,9,15,3,2,0.6,0.5
2026-07-11T2200,2684A,106.2753,36.0057,固原市,监测站,,31,NA,7,6,5,97,97,100,100,7,5,4,5,0.2,0.2
2026-07-11T2200,2685A,106.2384,36.0189,固原市,新区,,29,6,6,3,7,91,91,97,97,7,4,6,6,0.4,0.4
2026-07-11T2200,2544A,106.6307,30.4577,广安市,市委,,42,NA,18,29,16,58,58,97,91,18,10,10,10,0.6,0.4
2026-07-11T2200,2545A,106.6266,30.4662,广安市,友谊中学,,28,28,16,16,13,56,56,101,93,24,10,12,11,0.7,0.5
2026-07-11T2200,2547A,106.6386,30.4551,广安市,广电花园,,30,30,18,17,15,74,74,100,98,15,10,9,9,0.6,0.5
2026-07-11T2200,2902A,106.6347,30.4868,广安市,北辰小学,,26,24,20,17,13,82,82,108,103,15,10,10,9,0.4,0.4
2026-07-11T2200,2524A,105.8211,32.4444,广元市,老城,,20,10,22,3,12,64,64,79,69,4,14,7,9,0.4,0.6
2026-07-11T2200,2526A,105.8629,32.429,广元市,监测站,NA,NA,24,35,3,13,NA,NA,93,83,4,14,4,7,0.3,0.5
2026-07-11T2200,3617A,105.8047,32.4167,广元市,经开区,,21,9,30,3,17,66,66,84,72,7,18,5,6,0.5,0.8
2026-07-11T2200,1345A,113.2346,23.1423,广州市,广雅中学,,40,40,34,25,17,96,96,163,144,38,23,7,6,0.7,0.5
2026-07-11T2200,1346A,113.2611,23.105,广州市,市五中,颗粒物(PM10),51,51,30,30,18,128,128,205,186,36,20,6,5,/,/
2026-07-11T2200,1348A,113.3477,23.0916,广州市,广东商学院,颗粒物(PM10),55,56,32,33,17,135,135,180,169,28,20,6,6,0.6,0.5
2026-07-11T2200,1349A,113.4332,23.105,广州市,市八十六中,,48,45,27,33,17,120,120,193,174,59,35,7,6,/,/
2026-07-11T2200,1350A,113.3506,22.9488,广州市,番禺中学,,45,34,29,30,17,142,142,187,184,24,18,8,6,0.6,0.5
2026-07-11T2200,1351A,113.2147,23.3918,广州市,花都师范,,45,45,34,31,22,119,119,154,144,20,24,5,4,0.6,0.6
2026-07-11T2200,1352A,113.2599,23.1329,广州市,市监测站,颗粒物(PM10),53,53,31,31,16,114,114,184,164,32,18,4,3,/,/
2026-07-11T2200,1353A,113.5618,23.3119,广州市,九龙镇镇龙,,47,47,35,26,19,22,22,129,99,45,27,6,7,0.8,0.7
2026-07-11T2200,1354A,113.2764,23.1544,广州市,麓湖,,44,44,30,27,16,45,45,177,144,61,23,6,6,0.8,0.6
2026-07-11T2200,2846A,113.3209,23.1323,广州市,体育西,,48,48,31,32,17,133,133,187,173,40,25,8,7,0.6,0.5
2026-07-11T2200,3298A,113.5718,23.5493,广州市,从化街口,,44,44,34,25,23,33,33,126,93,26,18,8,8,0.7,0.6
2026-07-11T2200,3299A,113.3463,23.369,广州市,白云竹料,颗粒物(PM10),57,59,41,35,23,69,69,160,120,46,28,4,3,1.0,0.7
2026-07-11T2200,3300A,113.2981,23.2365,广州市,白云嘉禾,颗粒物(PM10),59,62,41,34,20,58,58,180,148,62,30,7,7,/,/
2026-07-11T2200,3301A,113.4256,23.1716,广州市,黄埔科学城,颗粒物(PM10),53,54,33,35,21,71,71,193,166,24,18,8,8,0.7,0.4
2026-07-11T2200,3302A,113.3942,23.0485,广州市,番禺大学城,臭氧1小时(O3_1h),63,32,29,29,14,170,170,207,203,28,21,2,2,0.5,0.5
2026-07-11T2200,3303A,113.4923,22.8169,广州市,南沙黄阁,NA,NA,NA,31,10,22,88,88,198,185,20,22,7,7,/,/
2026-07-11T2200,3304A,113.534,22.7893,广州市,南沙街,颗粒物(PM10),53,53,28,27,17,101,101,189,178,25,17,8,8,0.7,0.5
2026-07-11T2200,3443A,113.2905,23.5541,广州市,花都梯面,,35,29,24,24,20,25,25,NA,NA,24,22,3,3,/,/
2026-07-11T2200,3445A,113.786,23.7479,广州市,从化良口,,32,25,25,22,17,57,57,103,76,12,8,5,5,/,/
2026-07-11T2200,3446A,113.805,23.2614,广州市,增城荔城,,22,22,28,10,16,36,36,119,90,31,22,8,9,0.8,0.7
2026-07-11T2200,2506A,109.604387,23.066791,贵港市,江南子站,NA,NA,NA,NA,NA,NA,NA,NA,NA,NA,NA,NA,NA,NA,NA,NA
2026-07-11T2200,2508A,109.5669,23.1065,贵港市,荷城子站,NA,NA,NA,NA,NA,NA,NA,NA,NA,NA,NA,NA,NA,NA,NA,NA
2026-07-11T2200,3405A,109.5886,23.1172,贵港市,新世纪学校,NA,NA,NA,NA,NA,NA,NA,NA,NA,NA,NA,NA,NA,NA,NA,NA
2026-07-11T2200,4260A,109.5933,23.095,贵港市,中山路155-3号,NA,NA,NA,21,5,8,22,22,70,NA,55,11,/,/,0.8,0.5
2026-07-11T2200,1439A,106.6863,26.6035,贵阳市,马鞍山,,12,9,7,8,5,33,33,65,55,14,6,3,4,/,/
2026-07-11T2200,1441A,106.6241,26.6266,贵阳市,鉴湖路,,31,31,23,11,4,40,40,69,62,16,9,6,7,0.5,0.4
2026-07-11T2200,1442A,106.7468,26.6344,贵阳市,燕子冲,,22,22,16,3,4,43,43,59,53,7,8,7,9,0.4,0.4
2026-07-11T2200,1443A,106.6556,26.4362,贵阳市,碧云窝,,34,34,24,12,6,32,32,63,56,8,5,7,8,/,/
2026-07-11T2200,1445A,106.6963,26.6063,贵阳市,红边门,,17,17,13,3,6,38,38,65,56,13,8,6,11,/,/
2026-07-11T2200,1446A,106.7162383,26.56964667,贵阳市,新华路,,22,22,21,8,4,41,41,72,54,15,10,18,35,0.4,0.3
2026-07-11T2200,1447A,106.6742,26.542,贵阳市,太慈桥,,19,19,13,10,4,16,16,59,44,20,7,5,6,/,/
2026-07-11T2200,4230A,106.688212,26.56952,贵阳市,花果园大街66号,,25,25,11,13,6,38,38,60,54,20,8,2,2,/,/
2026-07-11T2200,4231A,106.687268,26.516892,贵阳市,漓江路57号,,19,19,12,10,5,28,28,56,49,20,8,2,2,0.6,0.5
2026-07-11T2200,1864A,110.3091,25.2705,桂林市,龙隐路小学,,46,34,28,32,14,33,33,85,65,12,7,7,8,0.7,0.6
2026-07-11T2200,1865A,110.2849361,25.22909545,桂林市,八中,,29,29,23,15,9,36,36,76,62,11,10,4,6,0.8,0.7
2026-07-11T2200,3531A,110.296,25.1254,桂林市,旅游学院,,46,46,24,20,11,25,25,75,58,10,4,3,5,0.4,0.3
2026-07-11T2200,4222A,110.1835,25.2444,桂林市,环湖路276号,,40,29,25,28,16,51,51,79,71,17,11,6,16,0.4,0.5
2026-07-11T2200,4301A,110.2803,25.2773,桂林市,信义路13号,,39,39,33,20,19,34,34,81,65,20,10,5,13,0.6,0.6
2026-07-11T2200,2674A,100.2262,34.4854,果洛藏族自治州,玛沁县大武镇,,27,13,25,6,10,84,84,99,94,1,2,18,18,0.4,0.3
2026-07-11T2200,1130A,126.5557,45.8109,哈尔滨市,松北商大,,15,NA,24,9,17,48,48,97,87,9,11,5,5,0.4,0.4
2026-07-11T2200,1132A,126.6162,45.719,哈尔滨市,南岗学府路,,14,10,29,3,17,43,43,96,81,17,13,7,6,0.4,0.4
2026-07-11T2200,1133A,126.6894,45.7733,哈尔滨市,太平宏伟公园,,15,8,30,3,8,46,46,98,84,15,14,6,6,0.2,0.3
2026-07-11T2200,1134A,126.6361,45.7672,哈尔滨市,道外承德广场,,23,23,40,3,9,45,45,98,85,13,13,4,5,0.2,0.3
2026-07-11T2200,1136A,126.644,45.7261,哈尔滨市,动力和平路,,14,14,38,3,8,42,42,98,82,16,15,5,5,0.2,0.3
2026-07-11T2200,1137A,126.5933,45.7479,哈尔滨市,道里建国路,,20,20,38,7,15,42,42,97,83,16,10,4,5,1.9,0.8
2026-07-11T2200,1138A,126.6127,45.6119,哈尔滨市,平房东轻厂,,10,6,15,3,7,31,31,92,74,10,10,6,6,0.6,0.6
2026-07-11T2200,1139A,126.5875,45.9827,哈尔滨市,呼兰师专,,17,8,28,3,9,54,54,92,86,15,15,6,6,0.5,0.5
2026-07-11T2200,1140A,126.6299,45.6799,哈尔滨市,省农科院,,12,12,28,3,10,34,34,92,73,20,18,5,5,0.5,0.6
2026-07-11T2200,4282A,126.6769,45.7379,哈尔滨市,华山路1号,,16,7,21,3,9,50,50,102,89,11,10,6,6,0.0,0.1
2026-07-11T2200,4283A,126.9717,45.5356,哈尔滨市,解放大街52号,,15,12,17,3,3,45,45,94,79,11,6,4,5,0.4,0.5
2026-07-11T2200,2688A,93.5124,42.8176,哈密市,地区监测站,,35,NA,8,15,7,109,109,130,127,15,4,8,8,0.2,0.1
2026-07-11T2200,2689A,93.5014,42.8312,哈密市,哈密师范学校,,43,43,14,28,8,85,85,124,114,22,7,8,8,0.4,0.2
2026-07-11T2200,2671A,100.9016,36.9464,海北藏族自治州,海晏县西海镇,,32,16,12,13,7,101,101,103,103,1,1,8,7,0.5,0.4
2026-07-11T2200,3867A,102.074,36.5056,海东市,平安区公安局北苑,,29,24,29,14,16,91,91,95,94,10,9,15,12,1.3,0.7
2026-07-11T2200,4163A,102.0984,36.5119,海东市,滨河路,,19,19,16,10,13,47,47,68,62,36,20,10,9,1.0,0.9
2026-07-11T2200,1410A,110.3189,20.0596,海口市,海南大学,,24,24,17,14,10,58,58,92,80,6,9,4,4,0.4,0.4
2026-07-11T2200,1411A,110.2827,20.0051,海口市,秀英海南医院,,19,18,17,13,11,56,56,97,78,7,11,5,6,0.3,0.3
2026-07-11T2200,1412A,110.3391,19.9979,海口市,海南师范大学,,18,17,28,12,11,48,48,98,78,7,7,3,3,0.3,0.4
2026-07-11T2200,1413A,110.3303,20.0359,海口市,龙华路环保局宿舍,,20,17,18,14,11,58,58,96,80,6,8,/,/,0.3,0.3
2026-07-11T2200,3539A,110.5111,19.9737,海口市,桂林洋子站,,32,32,19,20,11,43,43,57,57,8,7,/,/,/,/
2026-07-11T2200,4134A,110.1952,20.0451,海口市,长滨二路9号,,24,24,15,16,10,47,47,90,77,7,9,/,/,/,/
2026-07-11T2200,2673A,100.6158,36.2985,海南藏族自治州,共和县恰卜恰镇,,29,12,14,7,7,92,92,100,99,2,2,9,10,0.4,0.5
2026-07-11T2200,2676A,97.373,37.376,海西蒙古族藏族自治州,德令哈市,NA,NA,24,23,8,13,130,130,130,130,1,2,9,10,NA,NA
2026-07-11T2200,1049A,114.492,36.5712,邯郸市,矿院,,41,34,21,21,20,131,131,142,142,2,3,3,2,0.4,0.3
2026-07-11T2200,1050A,114.4839,36.6136,邯郸市,丛台公园,,42,32,22,20,14,133,133,138,138,4,4,8,8,0.2,0.3
2026-07-11T2200,3458A,114.7893,36.5592,邯郸市,香泉濮院小区,,42,27,14,26,20,134,134,134,134,12,10,3,3,0.3,0.3
2026-07-11T2200,3580A,114.1998,36.4439,邯郸市,峰峰矿区临水派出所,,35,34,28,24,18,111,111,134,128,7,8,1,2,0.2,0.3
2026-07-11T2200,4068A,114.5209,36.7697,邯郸市,建安街268号,,37,33,28,22,13,118,118,118,118,9,14,3,3,0.2,0.2
2026-07-11T2200,4069A,114.5488,36.6177,邯郸市,丛台东路558号,,42,42,31,22,14,119,119,127,127,10,11,3,3,0.3,0.3
2026-07-11T2200,2635A,107.0155,33.0707,汉中市,市监测站,,16,7,27,3,19,50,50,92,73,5,10,4,4,0.3,0.4
2026-07-11T2200,2636A,107.0083,33.114,汉中市,鑫源开发区,,18,12,28,3,17,57,57,93,73,8,14,5,7,0.6,0.6
2026-07-11T2200,2637A,107.0072,33.0323,汉中市,南郑大河坎水厂,,16,14,27,3,16,49,49,88,62,6,11,3,3,0.3,0.4
2026-07-11T2200,1223A,120.2073,30.2111,杭州市,滨江,,22,22,36,6,13,29,29,34,33,4,6,4,4,0.5,0.4
2026-07-11T2200,1224A,120.0625,30.2737,杭州市,西溪,,19,NA,19,13,15,26,26,34,32,3,4,4,4,0.7,0.7
2026-07-11T2200,1226A,120.3417,30.315,杭州市,下沙,,20,20,29,6,10,31,31,38,36,6,8,3,3,0.6,0.5
2026-07-11T2200,1227A,120.1252,30.2465,杭州市,卧龙桥,,21,21,28,6,12,28,28,38,35,6,8,5,5,0.2,0.2
2026-07-11T2200,1228A,120.1902,30.2691,杭州市,浙江农大,,21,21,30,11,17,27,27,34,32,7,9,6,7,0.3,0.3
2026-07-11T2200,1230A,120.1195,30.3121,杭州市,和睦小学,,12,NA,14,8,12,25,25,33,31,2,3,8,8,0.6,0.6
2026-07-11T2200,1231A,120.3076,30.4146,杭州市,临平镇,,26,26,37,6,12,30,30,37,36,2,4,6,6,0.5,0.5
2026-07-11T2200,1232A,120.2753,30.1839,杭州市,城厢镇,,25,25,36,3,11,30,30,34,33,3,6,4,5,0.4,0.4
2026-07-11T2200,1233A,120.0883,30.1808,杭州市,云栖,,17,17,30,3,10,30,30,37,35,4,6,5,5,0.5,0.5
2026-07-11T2200,3557A,119.9463,30.0496,杭州市,镇二中,,10,10,23,3,11,31,31,35,34,5,9,5,5,0.6,0.6
2026-07-11T2200,3558A,119.7184,30.2367,杭州市,市府大楼,,13,13,21,3,12,31,31,43,36,3,7,7,8,0.3,0.3
2026-07-11T2200,3656A,120.1554,30.2863,杭州市,消防大队,,18,18,28,7,12,26,26,34,32,2,3,8,8,0.8,0.8
2026-07-11T2200,1270A,117.1957,31.7845,合肥市,明珠广场,,31,31,32,16,16,71,71,104,100,4,6,8,8,0.4,0.5
2026-07-11T2200,1271A,117.307,31.8765,合肥市,三里街,,31,31,31,13,15,58,58,88,85,8,11,9,10,0.5,0.6
2026-07-11T2200,1272A,117.2587,31.8703,合肥市,琥珀山庄,,24,24,33,13,14,64,64,96,91,8,9,6,8,0.4,0.4
2026-07-11T2200,1275A,117.2593,31.9376,合肥市,庐阳区,,34,34,32,14,15,65,65,98,95,9,13,8,10,0.6,0.7
2026-07-11T2200,1276A,117.345251,31.861615,合肥市,瑶海区,,31,31,31,16,16,61,61,95,92,8,10,9,10,0.4,0.5
2026-07-11T2200,1277A,117.3033,31.7967,合肥市,包河区,,34,34,35,13,14,52,52,91,83,22,19,8,9,0.5,0.6
2026-07-11T2200,1278A,117.278,31.7392,合肥市,滨湖新区,,29,29,32,12,12,68,68,102,96,12,9,6,7,0.6,0.6
2026-07-11T2200,1279A,117.1324,31.8395,合肥市,高新区,,34,34,34,14,15,65,65,100,95,10,8,8,8,0.6,0.5
2026-07-11T2200,3464A,117.3802,31.9148,合肥市,高教基地,,29,29,31,13,15,65,65,100,97,5,6,6,7,0.5,0.5
2026-07-11T2200,4098A,117.2518,31.8404,合肥市,中国科学技术大学,,31,31,31,12,15,71,71,115,107,7,10,10,12,0.6,0.6
2026-07-11T2200,3614A,79.9241,37.0878,和田地区,地区环保局,颗粒物(PM10),184,317,429,89,107,115,115,129,128,4,4,3,2,0.3,0.2
2026-07-11T2200,3615A,79.9132,37.1137,和田地区,市环保局,颗粒物(PM10),165,279,409,108,111,112,112,133,132,4,3,3,2,0.4,0.3
2026-07-11T2200,2517A,108.0496,24.6957,河池市,市环保站,,42,36,29,29,11,23,23,83,69,17,8,4,4,1.0,0.9
2026-07-11T2200,4302A,108.0901,24.6945,河池市,上任中路54号,,37,37,26,23,12,27,27,82,68,24,11,5,4,0.9,0.8
2026-07-11T2200,1697A,114.6962,23.7538,河源市,东埔,细颗粒物(PM2.5),70,66,32,45,24,45,45,73,68,18,12,6,6,1.0,0.7
2026-07-11T2200,1698A,114.6895,23.7232,河源市,老城,,46,46,34,18,17,36,36,76,58,17,13,6,7,0.8,0.7
2026-07-11T2200,3374A,115.5562,35.089,菏泽市,定陶老年大学,,34,31,36,12,20,108,108,101,NA,12,12,4,3,0.4,0.5
2026-07-11T2200,4114A,115.4239,35.2593,菏泽市,黄河路600号,,35,30,34,12,18,112,112,148,144,10,11,4,4,0.3,0.3
2026-07-11T2200,4115A,115.5025,35.2727,菏泽市,菏泽市人社局,NA,NA,36,35,12,19,NA,NA,95,92,12,14,2,2,0.1,0.1
2026-07-11T2200,4184A,115.479691,35.244011,菏泽市,永昌路1号,,45,45,38,14,18,111,111,154,147,9,10,7,6,0.5,0.4
2026-07-11T2200,4193A,115.471542,35.280012,菏泽市,长城路999号,,40,40,33,14,20,105,105,148,141,14,11,8,6,0.4,0.4
2026-07-11T2200,2514A,111.5264,24.4178,贺州市,环保小区,,27,27,27,14,16,58,58,139,111,10,10,8,9,0.3,0.3
2026-07-11T2200,2515A,111.561,24.4074,贺州市,政协大楼,,35,33,26,24,18,62,62,147,115,18,14,12,14,0.6,0.5
2026-07-11T2200,3534A,111.4744,24.455,贺州市,西湾,颗粒物(PM10),54,55,38,22,16,46,46,116,89,15,12,10,10,0.4,0.4
2026-07-11T2200,2385A,114.17,35.9019,鹤壁市,市监测站,细颗粒物(PM2.5),68,NA,35,44,32,93,93,114,112,8,8,3,4,0.7,0.6
2026-07-11T2200,2386A,114.2953,35.7512,鹤壁市,市交警支队,,38,30,29,26,19,92,92,98,98,19,14,7,6,0.6,0.5
2026-07-11T2200,2387A,114.2877,35.7302,鹤壁市,迎宾馆,,48,38,32,33,20,114,114,127,125,14,9,5,7,0.7,0.6
2026-07-11T2200,3474A,114.2616,35.6824,鹤壁市,大新区,,45,40,33,31,23,97,97,130,122,15,11,4,4,0.5,0.5
2026-07-11T2200,3596A,114.1573,35.9607,鹤壁市,南山宾馆,细颗粒物(PM2.5),68,NA,35,44,34,107,107,130,123,8,10,9,9,0.5,0.4
2026-07-11T2200,2244A,130.2537,47.3416,鹤岗市,哈啤分公司,,23,23,20,12,10,33,33,86,61,17,13,4,4,0.2,0.2
2026-07-11T2200,2245A,130.2683,47.3087,鹤岗市,斯达机电,,25,25,20,12,14,38,38,82,66,12,11,6,6,0.3,0.3
2026-07-11T2200,2246A,130.3114,47.3388,鹤岗市,东山纸板厂,,14,14,22,7,11,20,20,66,48,25,16,2,2,0.2,0.2
2026-07-11T2200,2263A,127.4832,50.2524,黑河市,交通局,,31,31,23,17,13,39,39,80,66,11,9,8,6,0.3,0.3
2026-07-11T2200,2264A,127.5146,50.2339,黑河市,环保局,,23,23,21,14,15,38,38,79,66,12,11,7,7,0.4,0.3
2026-07-11T2200,1074A,115.6839,37.754,衡水市,电机北厂,细颗粒物(PM2.5),80,NA,42,50,24,137,137,148,148,8,11,3,3,0.5,0.4
2026-07-11T2200,1075A,115.6303,37.7318,衡水市,市监测站,细颗粒物(PM2.5),72,47,38,46,19,143,143,153,153,6,11,7,6,0.5,0.6
2026-07-11T2200,3188A,115.6684,37.7216,衡水市,市城管局,颗粒物(PM10),56,58,42,34,22,135,135,149,149,6,11,11,15,0.3,0.3
2026-07-11T2200,3459A,115.599,37.5491,衡水市,地表水厂,颗粒物(PM10),52,52,42,23,20,132,132,138,138,12,13,3,2,0.3,0.3
2026-07-11T2200,2457A,112.6209,26.9268,衡阳市,衡阳化工总厂,,36,36,26,21,14,62,62,95,84,16,9,4,4,0.6,0.6
2026-07-11T2200,2458A,112.621,26.8957,衡阳市,珠晖区环保局,,25,20,28,16,13,80,80,101,93,14,10,18,9,1.2,0.8
2026-07-11T2200,2459A,112.628,26.8654,衡阳市,市委党校,,29,NA,23,20,15,85,85,101,94,10,6,5,5,0.5,0.4
2026-07-11T2200,2460A,112.6007,26.8977,衡阳市,市监测站,,33,33,24,23,13,85,85,100,93,11,10,6,3,0.9,0.7
2026-07-11T2200,2461A,112.5658,26.9013,衡阳市,真空机电公司,,30,30,21,18,15,89,89,108,93,10,12,6,6,0.9,1
2026-07-11T2200,3399A,112.6703,26.8817,衡阳市,师范学院,,36,36,24,21,16,73,73,101,95,8,5,9,9,0.7,0.6
2026-07-11T2200,3038A,103.3757,23.3679,红河哈尼族彝族自治州,州图书馆,,23,21,17,16,10,38,38,56,52,4,3,4,4,0.3,0.3
2026-07-11T2200,4154A,103.401,23.3561,红河哈尼族彝族自治州,蒙自市朝阳路,,25,NA,13,17,9,30,30,54,48,6,3,6,5,0.3,0.2
2026-07-11T2200,1090A,111.6506,40.7517,呼和浩特市,呼市一监,,32,22,18,22,25,65,65,76,74,6,12,6,7,0.6,0.6
2026-07-11T2200,1094A,111.7516,40.8369,呼和浩特市,如意水处理厂,细颗粒物(PM2.5),76,56,31,48,26,60,60,71,68,13,19,5,5,0.8,0.7
2026-07-11T2200,1095A,111.727798,40.806187,呼和浩特市,二十九中,细颗粒物(PM2.5),92,NA,27,56,35,64,64,75,72,9,15,9,9,1.0,1
2026-07-11T2200,1097A,111.717,40.7617,呼和浩特市,化肥厂生活区,细颗粒物(PM2.5),64,NA,27,42,31,62,62,76,72,12,20,11,11,0.9,1
2026-07-11T2200,3699A,111.6519,40.8389,呼和浩特市,海东办,,48,NA,18,33,11,57,57,67,66,12,26,7,6,0.7,0.5
2026-07-11T2200,4275A,111.591512,40.827312,呼和浩特市,成吉思汗西街8号,,34,34,17,21,12,52,52,59,56,16,27,4,5,0.7,0.6
2026-07-11T2200,4276A,111.6597,40.8077,呼和浩特市,公园东路75号,细颗粒物(PM2.5),58,NA,20,39,24,78,78,86,86,12,18,12,12,1.1,1
2026-07-11T2200,4277A,111.5427,40.7846,呼和浩特市,金海路35号,,39,39,27,20,23,53,53,60,58,10,23,3,3,0.8,0.7
2026-07-11T2200,3061A,119.7511,49.1576,呼伦贝尔市,国华电力东,,41,41,18,17,12,21,21,82,70,31,11,4,6,0.4,0.3
2026-07-11T2200,4279A,119.7569,49.2222,呼伦贝尔市,伊敏大街东7号,,33,32,21,23,14,28,28,78,70,37,15,5,5,0.9,0.5
2026-07-11T2200,1250A,120.075,30.867,湖州市,城西水厂,,30,30,28,14,13,32,32,48,38,2,4,5,6,0.3,0.3
2026-07-11T2200,2873A,120.083,30.8929,湖州市,仁皇山新区,,33,33,32,15,14,33,33,49,40,2,5,5,5,0.4,0.4
2026-07-11T2200,2907A,120.1846,30.8592,湖州市,吴兴区站,,33,33,30,12,13,30,30,46,36,2,2,5,5,0.4,0.4
2026-07-11T2200,3562A,120.4146,30.8538,湖州市,南浔区站,,31,31,29,14,15,27,27,41,33,2,3,4,4,0.5,0.5
2026-07-11T2200,1607A,120.904878,40.721091,葫芦岛市,龙港区,,25,NA,26,17,13,64,64,71,71,4,6,5,5,0.3,0.3
2026-07-11T2200,1608A,120.8382,40.7521,葫芦岛市,化工街,,27,27,18,12,11,71,71,70,70,9,11,4,3,0.2,0.3
2026-07-11T2200,1609A,120.8339,40.7078,葫芦岛市,新区,,24,24,23,10,12,68,68,70,70,5,4,4,3,0.4,0.4
2026-07-11T2200,1610A,120.8697,40.7679,葫芦岛市,东城区,,22,20,24,8,16,70,70,72,72,9,12,3,2,0.4,0.4
2026-07-11T2200,2483A,109.9297,27.5383,怀化市,河西地税局,,16,NA,23,11,15,12,12,78,57,18,9,5,5,/,/
2026-07-11T2200,2484A,109.9783,27.5342,怀化市,市四医院,,28,25,24,19,12,40,40,85,69,11,13,8,7,0.1,0.1
2026-07-11T2200,2485A,109.9971,27.5579,怀化市,监测楼,,20,19,21,14,13,46,46,92,73,9,10,11,11,0.4,0.3
2026-07-11T2200,1210A,119.0566,33.5991,淮安市,钵池山,,29,29,31,14,11,26,26,56,41,8,7,6,6,0.5,0.5
2026-07-11T2200,1211A,119.0083,33.578,淮安市,北京南路,,31,31,32,14,13,26,26,61,42,2,4,6,6,0.5,0.6
2026-07-11T2200,1212A,118.9938,33.6083,淮安市,市监测站,,22,22,20,14,13,27,27,58,42,7,8,6,7,0.4,0.4
2026-07-11T2200,1213A,119.135,33.5038,淮安市,楚州区监测站,,24,24,25,14,13,26,26,56,41,6,4,5,6,0.4,0.5
2026-07-11T2200,3426A,118.8757,33.2897,淮安市,新华书店,,29,29,33,16,15,27,27,53,29,6,11,7,7,0.3,0.8
2026-07-11T2200,4092A,119.119691,33.550006,淮安市,枚皋中路89号,,37,37,29,14,12,28,28,56,42,7,7,8,8,0.5,0.5
2026-07-11T2200,4206A,119.028838,33.631911,淮安市,承德北路606号,,29,29,26,14,13,23,23,57,41,4,3,6,6,0.6,0.6
2026-07-11T2200,2282A,116.8005,33.9749,淮北市,监测站,,42,42,31,13,19,63,63,125,104,8,9,6,6,0.1,0.2
2026-07-11T2200,2283A,116.8094,33.9008,淮北市,烈山区政府,,38,38,36,10,13,65,65,132,111,4,8,3,5,0.3,0.4
2026-07-11T2200,4017A,116.7926,33.9534,淮北市,市博物馆,,30,30,33,14,17,58,58,107,92,4,9,3,4,0.2,0.4
2026-07-11T2200,4100A,116.8322,33.9884,淮北市,杜集区第一实验学校,,34,34,38,9,14,59,59,118,102,6,11,4,5,0.4,0.5
2026-07-11T2200,2277A,116.8304,32.7726,淮南市,潘集区政府,,36,36,30,19,17,50,50,90,85,7,8,6,5,0.2,0.2
2026-07-11T2200,2279A,116.8569,32.5949,淮南市,谢家集区政府,,30,30,25,16,18,61,61,102,96,7,9,7,8,0.1,0.2
2026-07-11T2200,2280A,116.8279,32.6333,淮南市,八公山区政府,,43,43,34,18,20,55,55,104,96,11,8,6,7,0.1,0.2
2026-07-11T2200,2894A,117.0561,32.6536,淮南市,经济技术开发区消防队,,26,26,24,15,17,60,60,102,95,8,8,8,8,0.4,0.5
2026-07-11T2200,3329A,117.011,32.5891,淮南市,山南新区,,25,25,21,16,16,60,60,105,100,7,7,11,13,0.4,0.5
2026-07-11T2200,4209A,117.003137,32.644456,淮南市,国庆中路369号,,32,32,35,15,17,50,50,91,86,10,9,9,9,0.1,0.2
2026-07-11T2200,2446A,114.9021,30.474,黄冈市,职工中心,,22,22,22,13,16,69,69,111,100,3,5,8,9,0.4,0.4
2026-07-11T2200,2929A,114.8858,30.4519,黄冈市,红卫路,,32,25,24,22,17,58,58,92,80,2,6,6,5,0.4,0.5
2026-07-11T2200,3398A,114.9134,30.4446,黄冈市,市林业局,,33,NA,23,23,18,69,69,112,101,4,9,4,5,0.4,0.4
2026-07-11T2200,2672A,102.02,35.5101,黄南藏族自治州,同仁县隆务镇,,27,NA,442,9,9,84,84,103,97,1,1,11,12,0.2,0.2
2026-07-11T2200,2295A,118.2905,29.6965,黄山市,延安路89号,,14,12,19,3,11,44,44,63,58,2,5,2,2,0.3,0.3
2026-07-11T2200,2297A,118.1369,30.2755,黄山市,黄山区政府5号楼,,15,12,22,6,11,47,47,64,63,2,3,4,4,0.5,0.6
2026-07-11T2200,4210A,118.335445,29.720283,黄山市,滨江东路7-2号,,18,18,32,3,11,39,39,60,55,3,5,/,/,/,/
2026-07-11T2200,2423A,115.0547,30.2332,黄石市,沈家营,,40,40,41,23,17,57,57,96,89,11,12,10,8,0.5,0.4
2026-07-11T2200,2426A,114.899,30.211,黄石市,铁山,,30,30,31,19,18,74,74,127,102,5,8,4,4,0.3,0.3
2026-07-11T2200,2427A,115.0259,30.2108,黄石市,团城山,,38,38,36,25,18,66,66,118,94,6,8,4,4,0.8,0.8
2026-07-11T2200,3149A,115.0174,30.1591,黄石市,笔架山北路,颗粒物(PM10),59,62,46,10,18,72,72,120,100,6,5,4,5,0.4,0.5
2026-07-11T2200,4185A,115.078022,30.21118,黄石市,磁湖东路29号,颗粒物(PM10),53,53,39,28,20,56,56,115,92,17,20,9,7,1.0,0.7
2026-07-11T2200,1392A,114.4181,23.0528,惠州市,河南岸金山湖子站,,40,40,32,24,20,72,72,132,116,22,20,7,8,0.7,0.6
2026-07-11T2200,1393A,114.4055,23.0824,惠州市,下埔横江三路子站,,37,37,36,21,18,103,103,148,133,11,16,5,6,0.7,0.6
2026-07-11T2200,1395A,114.4645,22.7832,惠州市,惠阳区承修路船湖子站,臭氧1小时(O3_1h),60,55,36,31,21,168,168,146,146,23,19,5,5,0.7,0.7
2026-07-11T2200,1396A,114.5316,22.7423,惠州市,大亚湾管委会子站,"颗粒物(PM10),臭氧1小时(O3_1h)",53,53,36,33,17,162,162,139,129,24,23,5,6,0.7,0.6
2026-07-11T2200,3314A,114.4334,22.8134,惠州市,惠阳秋长,颗粒物(PM10),72,80,37,41,19,152,152,144,144,38,23,/,/,/,/
2026-07-11T2200,3452A,114.6521,22.7755,惠州市,大亚湾霞涌,,36,19,26,16,16,114,114,192,164,15,17,/,/,/,/
2026-07-11T2200,4300A,114.4089,23.1147,惠州市,文华一路1号,,42,42,33,22,19,90,90,138,127,22,20,/,/,/,/
2026-07-11T2200,2240A,130.9618,45.2926,鸡西市,环保局,,21,17,24,8,12,65,65,84,75,10,13,13,12,0.4,0.4
2026-07-11T2200,2243A,130.9294,45.2959,鸡西市,第一中学,,25,NA,23,17,14,59,59,78,70,6,9,6,6,0.4,0.4
2026-07-11T2200,3707A,131.0069,45.2988,鸡西市,欧美日汽修厂,,19,15,25,8,12,59,59,78,69,8,15,10,9,0.7,0.7
2026-07-11T2200,2367A,114.9753,27.0803,吉安市,红声器材厂,,41,41,43,24,25,104,104,132,129,15,12,12,9,0.3,0.3
2026-07-11T2200,2369A,114.9903,27.1313,吉安市,市环境监测站,,43,43,39,22,20,102,102,133,129,12,8,12,9,/,/
2026-07-11T2200,2370A,115.009527,27.096792,吉安市,青原区法院,,46,46,40,30,22,96,96,132,126,14,12,14,9,0.3,0.3
2026-07-11T2200,1772A,126.54,43.8622,吉林市,哈达湾,,10,9,13,7,9,29,29,73,25,8,11,6,6,0.3,0.4
2026-07-11T2200,1773A,126.5843,43.8358,吉林市,东局子,,10,9,10,7,8,19,19,60,19,6,7,3,3,0.5,0.5
2026-07-11T2200,1774A,126.5051,43.8243,吉林市,电力学院,,9,NA,6,6,8,27,27,72,25,4,7,5,5,0.4,0.4
2026-07-11T2200,1775A,126.6133,43.8971,吉林市,江北,,12,12,15,7,8,26,26,56,23,4,4,7,7,0.4,0.5
2026-07-11T2200,1776A,126.5549,43.8304,吉林市,江南公园,,9,9,12,6,9,22,22,60,10,2,5,3,4,0.2,0.3
2026-07-11T2200,2868A,126.4737,43.953,吉林市,九站,,10,10,13,3,9,29,29,77,26,4,5,3,1,0.3,0.3
2026-07-11T2200,1299A,116.9866,36.6118,济南市,科干所,,38,22,32,7,15,120,120,132,129,14,14,7,7,0.6,0.7
2026-07-11T2200,1300A,116.9379,36.6652,济南市,农科所,,35,22,31,10,18,111,111,136,125,8,9,4,4,0.1,0.2
2026-07-11T2200,1301A,117.1265,36.6736,济南市,开发区,,35,29,31,11,19,110,110,128,125,6,5,6,6,0.5,0.6
2026-07-11T2200,1303A,117.0616,36.6865,济南市,省种子仓库,,34,34,35,11,17,103,103,123,118,9,5,7,6,0.2,0.2
2026-07-11T2200,1304A,116.9495185,36.644937,济南市,机床二厂,,36,32,30,11,18,113,113,128,120,7,6,6,6,0.3,0.3
2026-07-11T2200,1305A,117.0496,36.6629,济南市,市监测站,,32,32,31,12,19,101,101,113,94,11,7,4,3,0.4,0.5
2026-07-11T2200,1306A,116.7674,36.5458,济南市,长清党校,,38,27,32,13,18,119,119,140,135,9,8,6,5,0.1,0.3
2026-07-11T2200,1961A,117.5323,36.6865,济南市,东山小学,,35,32,40,11,23,112,112,143,134,8,8,4,4,0.2,0.3
2026-07-11T2200,3059A,117.7181,36.205,济南市,泰兴公司,,39,39,45,13,24,88,88,124,114,18,13,8,8,0.4,0.4
2026-07-11T2200,3064A,117.6861,36.2172,济南市,莱芜战役纪念馆,,39,39,42,15,23,95,95,136,125,19,12,11,10,0.4,0.3
2026-07-11T2200,3494A,117.1673,36.9782,济南市,济阳区政府,颗粒物(PM10),55,56,44,12,20,88,88,120,104,20,15,4,3,0.1,0.2
2026-07-11T2200,3495A,117.1168,36.6299,济南市,锦屏中学,,32,32,33,10,18,96,96,111,110,5,4,3,2,0.1,0.2
2026-07-11T2200,4108A,117.7107,36.2385,济南市,山财大街5号,,36,36,38,16,24,108,108,144,133,10,10,9,9,0.7,0.7
2026-07-11T2200,4109A,116.9744,36.6889,济南市,无影山路12号,,35,24,27,12,17,109,109,124,120,10,8,7,7,0.4,0.4
2026-07-11T2200,1653A,116.6229,35.4288,济宁市,火炬城,NA,NA,NA,45,NA,20,NA,NA,137,NA,NA,10,NA,5,NA,0.6
2026-07-11T2200,3500A,116.5808,35.3703,济宁市,北湖一中,,28,28,39,9,18,86,86,159,135,12,8,4,4,0.4,0.6
2026-07-11T2200,3501A,116.8251,35.5592,济宁市,服务中心,,32,32,36,10,18,79,79,163,128,16,7,3,3,0.2,0.4
2026-07-11T2200,3678A,116.5907,35.4054,济宁市,市第七中学,,27,27,42,12,18,82,82,150,130,8,7,5,5,0.3,0.5
2026-07-11T2200,4111A,116.6075,35.4566,济宁市,任和路,,34,34,49,7,18,85,85,161,139,9,8,4,3,0.4,0.6
2026-07-11T2200,4112A,116.5648,35.3921,济宁市,文体南路1号,,25,23,38,14,18,80,80,139,124,9,7,3,4,0.4,0.5
2026-07-11T2200,4122A,112.6071,35.1015,济源市,市委党校,,43,43,35,15,14,112,112,113,113,8,8,7,8,0.5,0.5
2026-07-11T2200,4123A,112.596,35.0702,济源市,沁园中路1号,,44,44,30,20,13,109,109,125,122,15,12,3,3,0.5,0.5
2026-07-11T2200,2255A,130.2749,46.8028,佳木斯市,佳纺,,36,36,20,18,14,57,57,80,72,5,4,3,3,0.3,0.3
2026-07-11T2200,2257A,130.3258,46.7975,佳木斯市,环保局,,21,17,16,10,15,66,66,84,78,8,6,5,5,0.3,0.3
2026-07-11T2200,4285A,130.363,46.806,佳木斯市,顺和街,,23,17,16,16,12,59,59,74,70,7,8,2,2,0.4,0.3
2026-07-11T2200,4286A,130.3952,46.8268,佳木斯市,长安路196号,,24,24,18,8,11,68,68,84,78,6,8,5,5,0.3,0.3
2026-07-11T2200,1252A,120.7439,30.778,嘉兴市,清河小学,,29,29,32,3,10,34,34,41,37,2,3,6,5,0.3,0.4
2026-07-11T2200,1253A,120.7261,30.7477,嘉兴市,嘉兴学院,,22,22,24,10,12,31,31,37,34,4,5,3,3,0.3,0.3
2026-07-11T2200,2872A,120.7845,30.7524,嘉兴市,南湖区残联,,28,28,32,9,13,34,34,40,37,2,3,5,6,0.5,0.5
2026-07-11T2200,3407A,120.6915,30.7741,嘉兴市,秀洲住建,NA,NA,NA,24,NA,11,NA,NA,50,37,NA,2,NA,6,NA,0.2
2026-07-11T2200,1945A,98.291,39.7705,嘉峪关市,气象局,,48,48,25,21,11,133,133,139,139,10,10,8,12,0.6,0.6
2026-07-11T2200,2884A,98.2672,39.7978,嘉峪关市,酒钢宾馆,,46,46,30,16,9,127,127,137,137,17,12,32,18,0.6,0.7
2026-07-11T2200,3248A,98.2644,39.7723,嘉峪关市,雄关区,,42,42,37,17,8,120,120,135,134,14,13,14,8,0.5,0.4
2026-07-11T2200,1383A,113.1063,22.6058,江门市,北街,,18,16,24,12,11,54,54,153,136,6,6,/,/,/,/
2026-07-11T2200,1384A,113.073,22.5835,江门市,西区,,38,38,26,18,13,47,47,142,120,15,13,/,/,/,/
2026-07-11T2200,1385A,113.0218,22.531,江门市,圭峰西,,38,NA,27,26,14,35,35,120,108,32,12,/,/,/,/
2026-07-11T2200,1386A,113.0826,22.5947,江门市,东湖,,38,26,21,26,11,50,50,147,126,16,13,8,8,0.4,0.4
2026-07-11T2200,3311A,113.1077,22.5647,江门市,江海富民,,27,27,36,15,12,57,57,155,138,15,13,/,/,0.6,0.5
2026-07-11T2200,3449A,113.0496,22.4669,江门市,新会银湖,,24,24,28,13,14,43,43,137,116,15,15,1,2,0.4,0.4
2026-07-11T2200,3335A,113.3137,35.2643,焦作市,马村街道办,,36,36,33,25,18,88,88,121,115,10,10,7,8,0.2,0.3
2026-07-11T2200,3336A,113.2464,35.2374,焦作市,焦作技师学院,,42,33,31,29,19,106,106,134,130,10,8,5,6,0.7,0.6
2026-07-11T2200,3477A,113.1656,35.2536,焦作市,中站许衡医院,,38,31,31,26,18,108,108,127,124,10,8,6,7,0.5,0.5
2026-07-11T2200,3981A,113.2456,35.18,焦作市,原李万街道办,颗粒物(PM10),54,55,34,18,17,99,99,130,128,10,7,10,10,0.4,0.3
2026-07-11T2200,4264A,113.234,35.219,焦作市,新安路1731号,,42,42,30,22,18,116,116,143,140,10,8,7,8,0.3,0.3
2026-07-11T2200,4295A,113.2722,35.2121,焦作市,人民路3066号,,39,NA,29,27,18,97,97,125,122,8,8,6,6,0.6,0.6
2026-07-11T2200,1708A,116.3701,23.5345,揭阳市,新兴,,18,14,35,12,20,40,40,68,58,9,8,6,9,0.5,0.5
2026-07-11T2200,1709A,116.3261,23.5442,揭阳市,西马,,17,17,37,10,20,43,43,71,59,10,10,6,7,0.5,0.6
2026-07-11T2200,1710A,116.361,23.5627,揭阳市,东兴,,24,24,35,12,22,40,40,69,56,15,15,4,7,/,/
2026-07-11T2200,1711A,116.4151,23.5295,揭阳市,渔湖,,18,17,36,12,20,42,42,74,60,11,9,1,3,/,/
2026-07-11T2200,3320A,116.4028,23.5699,揭阳市,曲溪,,15,15,33,8,22,42,42,78,66,17,11,5,8,0.4,0.5
2026-07-11T2200,1944A,102.1691,38.5166,金昌市,天庆家园,,29,22,19,9,10,92,92,114,108,14,12,3,11,0.3,0.2
2026-07-11T2200,4022A,102.1648,38.5369,金昌市,金川区人防中心,,30,19,12,6,11,95,95,124,118,13,8,8,10,0.5,0.3
2026-07-11T2200,4239A,102.193042,38.531887,金昌市,长春路96号,,29,16,19,11,12,90,90,110,104,12,10,6,11,0.4,0.3
2026-07-11T2200,1262A,119.6478,29.0773,金华市,十五中,,10,8,20,3,6,32,32,50,39,5,7,2,2,0.3,0.3
2026-07-11T2200,1263A,119.6859,29.1032,金华市,监测站,,10,6,21,3,4,30,30,44,36,2,6,1,2,0.3,0.4
2026-07-11T2200,3659A,119.656,29.1132,金华市,气象局,,10,6,18,3,6,30,30,46,36,3,8,2,2,0.1,0.2
2026-07-11T2200,1767A,121.1114,41.0879,锦州市,南山,,26,26,24,12,14,59,59,58,56,13,9,1,1,0.3,0.3
2026-07-11T2200,1768A,121.060361,40.842794,锦州市,开发区,,20,20,26,11,12,60,60,65,65,8,7,4,4,0.3,0.3
2026-07-11T2200,1769A,121.1836,41.1118,锦州市,百股街道,,23,19,22,12,14,71,71,75,72,10,9,2,2,0.2,0.3
2026-07-11T2200,1770A,121.1176,41.1224,锦州市,天安街道,,27,27,27,12,16,61,61,66,64,14,10,4,4,0.4,0.5
2026-07-11T2200,1771A,121.1303,41.1385,锦州市,北湖公园,,24,24,23,13,16,61,61,59,59,9,8,3,3,0.2,0.3
2026-07-11T2200,2160A,112.8496,35.5051,晋城市,自来水公司,,41,31,24,7,6,131,131,134,134,6,5,4,4,0.6,0.6
2026-07-11T2200,2162A,112.8509,35.4886,晋城市,市环保局,,45,38,28,31,13,130,130,129,129,7,7,4,4,0.4,0.4
2026-07-11T2200,3620A,112.8258,35.4804,晋城市,泽州一中,,41,35,26,10,14,131,131,131,131,7,6,3,4,0.4,0.4
2026-07-11T2200,4078A,112.8246,35.5152,晋城市,前书院路,,44,35,28,13,9,140,140,136,136,6,6,4,4,0.5,0.5
2026-07-11T2200,4079A,112.8864,35.4773,晋城市,祥云街666号,,41,29,25,16,13,129,129,126,126,7,6,3,3,0.5,0.6
2026-07-11T2200,2174A,112.6992,37.6984,晋中市,榆次区政府,NA,NA,31,41,16,29,NA,NA,125,99,9,11,6,7,1.1,1.3
2026-07-11T2200,2865A,112.7195,37.683,晋中市,榆次三中,,34,34,37,19,26,66,66,116,90,11,9,9,9,0.5,0.6
2026-07-11T2200,4080A,112.7375,37.7215,晋中市,广安街188号,,25,25,40,13,24,63,63,128,98,12,10,8,9,0.3,0.4
2026-07-11T2200,4200A,112.7478,37.6954,晋中市,迎宾街26号,,27,27,34,18,26,57,57,122,94,19,12,6,7,0.3,0.4
2026-07-11T2200,2439A,112.2012,31.048,荆门市,竹园小学,,27,27,30,18,19,68,68,100,97,12,11,4,4,0.8,0.8
2026-07-11T2200,2440A,112.1968,30.9892,荆门市,掇刀,,27,24,25,18,18,85,85,104,104,8,9,13,10,0.6,0.6
2026-07-11T2200,3012A,112.1849,31.0361,荆门市,西山林语,,28,NA,23,19,17,63,63,98,94,7,6,10,9,0.9,0.9
2026-07-11T2200,3547A,112.1631,31.0134,荆门市,龙泉中学南校,NA,NA,NA,21,NA,13,81,81,109,104,10,6,NA,6,0.6,0.8
2026-07-11T2200,4124A,112.2213,31.0654,荆门市,新台西路6号,,38,38,29,22,20,70,70,106,103,10,7,6,6,0.5,0.5
2026-07-11T2200,1844A,112.2493,30.3198,荆州市,市图书馆,,28,26,20,19,17,84,84,111,97,7,6,4,4,0.5,0.5
2026-07-11T2200,1845A,112.2009,30.3543,荆州市,市委党校,,29,24,23,20,16,80,80,108,96,8,7,4,5,0.4,0.4
2026-07-11T2200,3194A,112.2749,30.3124,荆州市,管委会,,28,24,21,19,17,65,65,112,91,14,9,8,9,0.5,0.5
2026-07-11T2200,4268A,112.1722,30.3366,荆州市,学苑路85号,,24,24,25,15,19,58,58,104,89,13,13,3,2,0.6,0.6
2026-07-11T2200,2343A,117.2114,29.2931,景德镇市,老干部活动中心,,15,13,16,7,11,47,47,56,51,6,7,6,6,0.5,0.5
2026-07-11T2200,2344A,117.1893,29.2789,景德镇市,兽医站,NA,NA,34,22,7,14,55,55,61,55,NA,5,4,3,0.3,0.4
2026-07-11T2200,2346A,117.246,29.2958,景德镇市,陶研所,,17,17,18,7,10,47,47,43,43,5,7,4,3,0.4,0.4
2026-07-11T2200,4289A,117.154766,29.256967,景德镇市,青少年活动中心,NA,NA,22,30,NA,15,49,49,42,42,4,11,6,7,/,/
2026-07-11T2200,1803A,115.9873,29.6816,九江市,十里,,31,31,33,12,21,80,80,130,105,7,18,4,9,0.3,0.4
2026-07-11T2200,1804A,115.9583,29.7047,九江市,茅山头,,35,35,28,13,21,74,74,126,102,5,14,5,4,0.3,0.5
2026-07-11T2200,1805A,115.9877,29.7295,九江市,西园,NA,NA,29,29,12,20,NA,NA,120,106,10,22,3,4,0.1,0.3
2026-07-11T2200,1808A,115.9112,29.6038,九江市,综合工业园,,26,26,30,10,18,80,80,132,106,9,20,4,5,0.2,0.3
2026-07-11T2200,3190A,116.0254,29.6995,九江市,外国语学校,,28,28,27,10,21,71,71,118,95,6,15,11,14,0.5,0.7
2026-07-11T2200,4253A,116.010205,29.659402,九江市,莲花大道8号,,23,18,19,14,18,72,72,115,93,5,10,5,8,0.4,0.6
2026-07-11T2200,4240A,98.495752,39.733935,酒泉市,玉门东路5号,颗粒物(PM10),68,75,28,28,13,111,111,135,132,17,7,7,8,0.3,0.2
2026-07-11T2200,4241A,98.5099,39.7506,酒泉市,北大街108号,颗粒物(PM10),58,61,32,20,12,111,111,137,134,14,7,10,12,0.1,0.1
2026-07-11T2200,2698A,76.0071,39.466,喀什地区,巡警大队,,47,38,349,18,103,148,148,148,148,14,14,4,4,0.3,0.2
2026-07-11T2200,2699A,75.9756,39.4693,喀什地区,吾办,,45,31,289,14,89,141,141,149,149,11,9,9,7,0.4,0.3
2026-07-11T2200,4027A,75.9485,39.4688,喀什地区,老干局,,43,39,289,11,70,135,135,144,144,11,9,5,4,0.4,0.2
2026-07-11T2200,1824A,114.3389,34.778,开封市,肿瘤医院,,39,39,33,25,22,121,121,134,132,14,14,6,6,0.4,0.4
2026-07-11T2200,1826A,114.2884,34.7966,开封市,世纪星幼儿园,,49,34,35,34,23,135,135,139,139,12,13,5,5,0.6,0.5
2026-07-11T2200,3147A,114.3434,34.8101,开封市,龙亭公园,,43,33,31,30,17,118,118,126,125,13,8,4,3,0.4,0.4
2026-07-11T2200,3210A,114.3645,34.7955,开封市,汴京公园,NA,NA,50,33,25,21,NA,NA,145,145,20,15,5,4,0.9,0.7
2026-07-11T2200,3473A,114.2485,34.8306,开封市,技师学院,,45,41,36,31,20,140,140,138,138,11,10,4,4,0.6,0.5
2026-07-11T2200,3592A,114.4518,34.7503,开封市,祥符区生态环境局,,36,35,31,25,23,109,109,128,126,14,8,10,10,0.4,0.4
2026-07-11T2200,1951A,84.886,45.6029,克拉玛依市,长征新村,,35,24,24,20,10,112,112,129,128,16,5,4,3,0.5,0.4
2026-07-11T2200,1952A,84.8894,45.5827,克拉玛依市,南林小区,颗粒物(PM10),55,57,26,16,4,78,78,118,109,20,6,7,7,0.4,0.3
2026-07-11T2200,1954A,84.896,44.3328,克拉玛依市,独山子区,,36,32,37,17,16,113,113,133,132,11,5,6,6,0.4,0.3
2026-07-11T2200,1955A,85.6888,46.0909,克拉玛依市,乌尔禾区商贸楼,,48,48,26,29,14,94,94,122,120,13,6,8,8,0.3,0.3
2026-07-11T2200,3612A,85.1045,45.6895,克拉玛依市,白碱滩区新站,颗粒物(PM10),65,70,32,21,7,115,115,128,128,9,5,9,8,0.1,0.1
2026-07-11T2200,2697A,76.1457,39.7143,克孜勒苏柯尔克孜自治州,市人民政府,颗粒物(PM10),52,52,234,18,62,132,132,155,152,17,11,7,7,0.1,0.1
2026-07-11T2200,3665A,76.1654,39.7157,克孜勒苏柯尔克孜自治州,克州文化中心,,48,48,231,30,68,143,143,155,155,8,7,12,8,0.2,0.2
2026-07-11T2200,1450A,102.8203,24.889,昆明市,呈贡新区,,49,49,25,16,10,55,55,84,77,25,10,3,4,0.7,0.6
2026-07-11T2200,1452A,102.7253,25.0904,昆明市,龙泉镇,,47,47,22,17,11,64,64,81,75,17,18,6,6,0.4,0.4
2026-07-11T2200,1453A,102.7267,25.0378,昆明市,东风东路,,26,26,20,18,13,54,54,85,75,25,17,2,3,0.5,0.4
2026-07-11T2200,1454A,102.6744,25.0671,昆明市,金鼎山,,26,26,24,16,12,42,42,81,67,27,16,4,5,0.6,0.4
2026-07-11T2200,1455A,102.6643,25.0401,昆明市,碧鸡广场,,49,49,22,24,15,41,41,73,64,30,15,6,7,0.8,0.7
2026-07-11T2200,3179A,102.7491,25.012,昆明市,官渡区博物馆,,28,28,19,17,10,49,49,86,74,28,13,3,4,0.4,0.4
2026-07-11T2200,3375A,102.8016,24.8336,昆明市,青年创业园,,24,23,14,10,7,76,76,83,80,8,9,3,4,0.3,0.3
2026-07-11T2200,3550A,102.8,24.9787,昆明市,昆明学院,,30,22,18,21,8,62,62,86,81,19,12,5,6,0.5,0.4
2026-07-11T2200,3551A,102.5969,24.6738,昆明市,晋宁区生态环境分局,,33,33,19,18,13,48,48,74,64,13,10,7,8,0.5,0.4
2026-07-11T2200,3552A,102.6673,24.9861,昆明市,云天化总部,,26,19,18,18,10,55,55,82,71,13,13,5,7,0.4,0.4
2026-07-11T2200,1456A,91.132,29.6515,拉萨市,八廓街,,22,NA,8,13,7,70,70,93,87,11,8,7,7,0.4,0.3
2026-07-11T2200,1457A,91.1221,29.6748,拉萨市,市环保局,,23,10,10,3,6,71,71,90,85,11,9,6,6,0.3,0.3
2026-07-11T2200,1458A,91.0874,29.6476,拉萨市,区监测站,,20,12,8,3,6,61,61,86,81,19,10,6,6,0.2,0.2
2026-07-11T2200,1459A,91.1774,29.6541,拉萨市,西藏大学,,23,12,7,7,6,72,72,95,90,11,11,5,4,0.3,0.3
2026-07-11T2200,1460A,90.9798,29.6586,拉萨市,区辐射站,,22,18,10,11,7,68,68,77,75,16,14,7,6,0.3,0.3
2026-07-11T2200,1461A,91.0831,29.6292,拉萨市,拉萨火车站,,21,11,7,7,6,65,65,86,82,18,10,5,5,0.4,0.4
2026-07-11T2200,2520A,109.2203,23.7252,来宾市,来宾技工学校,,21,21,19,6,5,32,32,93,79,28,12,4,6,0.6,0.5
2026-07-11T2200,3535A,109.1781,23.7293,来宾市,兴宾区政府,,21,21,17,8,6,62,62,106,97,7,5,6,7,0.6,0.5
2026-07-11T2200,4002A,109.2312,23.7428,来宾市,中南小学,,12,12,16,6,7,38,38,91,82,19,8,6,6,0.6,0.5
2026-07-11T2200,1479A,103.8309,36.0467,兰州市,铁路设计院,,29,29,28,16,16,59,59,97,92,38,21,6,6,0.6,0.6
2026-07-11T2200,3241A,103.7439,36.0841,兰州市,百合公园,,30,30,27,6,12,44,44,68,65,27,16,8,4,0.6,0.6
2026-07-11T2200,3242A,103.9613,35.9985,兰州市,和平,,27,NA,12,12,10,85,85,99,97,10,8,7,7,0.7,0.8
2026-07-11T2200,4236A,103.629272,36.093822,兰州市,庄浪东路808号,,22,15,20,6,11,36,36,70,65,43,20,7,8,0.4,0.3
2026-07-11T2200,4237A,103.7251,36.104344,兰州市,安宁西路88号,,27,21,21,13,13,84,84,87,87,12,11,7,7,0.3,0.3
2026-07-11T2200,4238A,103.846982,36.067567,兰州市,北滨河东路1号,,24,18,18,11,12,25,25,77,67,47,20,12,12,0.6,0.5
2026-07-11T2200,1067A,116.6712,39.5109,廊坊市,药材公司,,26,13,26,11,25,83,83,106,99,4,8,3,2,0.4,0.6
2026-07-11T2200,1068A,116.7215,39.5592,廊坊市,开发区,,25,18,25,11,20,77,77,114,103,2,6,3,3,0.3,0.6
2026-07-11T2200,1070A,116.7246,39.5273,廊坊市,北华航天学院,,25,NA,21,9,24,79,79,111,101,4,8,3,3,0.4,0.7
2026-07-11T2200,2919A,116.7022,39.5454,廊坊市,河北工业大学,,28,NA,22,16,22,87,87,113,106,2,6,3,3,0.4,0.7
2026-07-11T2200,2536A,103.7629,29.5844,乐山市,牛耳桥,,15,15,13,3,5,32,32,89,69,20,11,5,4,0.9,0.7
2026-07-11T2200,2537A,103.7501,29.6002,乐山市,市第三水厂,,14,14,11,3,2,40,40,83,69,23,11,2,2,1.2,0.9
2026-07-11T2200,2538A,103.7571,29.5664,乐山市,市监测站,,19,19,12,9,5,48,48,95,71,18,8,1,2,1.1,0.7
2026-07-11T2200,3361A,103.7313,29.563,乐山市,理工大学,,15,15,10,10,6,43,43,88,72,14,8,3,3,1.0,0.7
2026-07-11T2200,2599A,100.2497,26.8802,丽江市,丽江古城,,11,9,13,6,5,34,34,55,47,16,9,1,5,0.5,0.5
2026-07-11T2200,2600A,100.2203,26.8906,丽江市,市中心,,18,NA,9,12,6,19,19,50,39,22,8,7,7,0.6,0.5
2026-07-11T2200,1267A,119.9141,28.4513,丽水市,监测站大楼,,10,6,13,3,5,32,32,35,34,4,6,4,4,0.3,0.3
2026-07-11T2200,1268A,119.93,28.4589,丽水市,莲都小学,,11,6,14,3,5,34,34,40,39,3,5,/,/,/,/
2026-07-11T2200,1269A,119.8794,28.4232,丽水市,余庄前,,9,6,14,3,5,26,26,31,28,4,7,7,7,0.5,0.5
2026-07-11T2200,1173A,119.1759,34.5885,连云港市,市环境监测站,,19,19,21,9,11,33,33,89,64,3,5,5,5,0.2,0.3
2026-07-11T2200,3000A,119.3577,34.6971,连云港市,德源药业,,24,24,30,14,11,33,33,59,41,6,9,5,5,0.2,0.2
2026-07-11T2200,3007A,119.178,34.8442,连云港市,新城一中,,24,24,32,13,15,40,40,55,47,2,9,1,2,0.7,0.7
2026-07-11T2200,3008A,119.3607,34.7519,连云港市,胡沟管理处,,34,34,32,3,9,36,36,63,51,10,9,8,8,0.3,0.3
2026-07-11T2200,3009A,119.1478,34.5913,连云港市,矿山设计院,,27,27,26,14,10,32,32,84,62,5,6,2,2,0.2,0.2
2026-07-11T2200,3434A,119.2414,34.6539,连云港市,工贸学校,,33,33,30,13,13,35,35,87,62,6,8,5,5,0.4,0.4
2026-07-11T2200,3664A,119.4171,34.734,连云港市,连云街道,,25,25,28,9,12,39,39,63,52,4,7,6,6,0.3,0.3
2026-07-11T2200,2573A,102.2629,27.8981,凉山彝族自治州,西昌市政府,细颗粒物(PM2.5),66,NA,28,43,20,34,34,66,55,20,13,6,7,0.5,0.7
2026-07-11T2200,2574A,102.2686,27.885,凉山彝族自治州,凉山州政府,,35,25,20,24,14,39,39,67,59,24,13,4,6,0.7,0.6
2026-07-11T2200,4229A,102.2342,27.8859,凉山彝族自治州,凯乐南路30号,,38,NA,18,26,13,36,36,63,46,26,16,4,7,0.6,0.6
2026-07-11T2200,2212A,123.1978,41.2036,辽阳市,宏伟区,,21,21,13,9,5,40,40,52,36,3,4,6,6,0.3,0.4
2026-07-11T2200,2213A,123.1684,41.2497,辽阳市,新华园,,18,18,14,10,6,44,44,57,39,2,4,6,4,0.2,0.2
2026-07-11T2200,2214A,123.2355,41.2663,辽阳市,滨河路,,18,18,15,9,6,41,41,54,36,3,5,7,7,0.1,0.1
2026-07-11T2200,4083A,123.153,41.2874,辽阳市,铁西路150号,,18,18,15,11,8,47,47,59,43,2,4,5,6,0.2,0.3
2026-07-11T2200,2227A,125.1359,42.8845,辽源市,环保局,,15,8,14,3,2,47,47,95,42,1,3,2,3,0.4,0.4
2026-07-11T2200,4085A,125.0998,42.9134,辽源市,安宁大街333号,NA,NA,6,10,3,3,NA,NA,81,25,3,4,4,4,0.2,0.3
2026-07-11T2200,1625A,115.9789,36.4372,聊城市,区政府,,43,29,35,8,19,135,135,167,160,9,5,11,10,0.6,0.6
2026-07-11T2200,3200A,115.9772,36.4986,聊城市,监控中心,,45,33,30,11,18,141,141,166,162,7,5,8,8,0.4,0.4
2026-07-11T2200,3513A,116.0443,36.436,聊城市,九州社区,,44,34,37,14,20,140,140,163,156,7,4,2,6,0.5,0.5
2026-07-11T2200,4018A,116.0564,36.4609,聊城市,星美广场,,40,40,41,13,19,128,128,154,147,10,5,8,5,0.4,0.4
2026-07-11T2200,4113A,116.0091,36.4495,聊城市,利民路,,46,36,30,11,19,145,145,173,165,14,7,14,13,0.4,0.3
2026-07-11T2200,2632A,94.3683,29.6373,林芝市,林芝监测站,,19,NA,6,13,4,18,18,42,37,10,6,4,4,0.4,0.3
2026-07-11T2200,2633A,94.3616,29.6634,林芝市,林芝人民医院,,18,17,8,12,5,14,14,40,35,9,7,4,4,0.5,0.4
2026-07-11T2200,2603A,100.0779,23.8981,临沧市,市环保局,,19,19,10,10,5,22,22,39,35,14,9,8,8,0.5,0.4
2026-07-11T2200,2604A,100.0894,23.882,临沧市,市气象局,,14,12,14,3,5,43,43,47,46,6,6,6,6,0.4,0.4
2026-07-11T2200,1733A,111.5552,36.0791,临汾市,临钢医院,,21,14,33,3,11,67,67,121,85,11,16,4,6,0.5,0.5
2026-07-11T2200,1734A,111.4984,36.0734,临汾市,技工学校,,21,14,36,10,19,66,66,118,82,7,9,4,5,0.5,0.5
2026-07-11T2200,1736A,111.5017,36.0857,临汾市,市委,,43,43,54,8,12,64,64,88,67,7,8,6,6,1.1,1.1
2026-07-11T2200,3018A,111.5048,36.1015,临汾市,唐尧大酒店,,42,42,59,3,12,63,63,121,84,12,12,4,5,0.7,0.7
2026-07-11T2200,4244A,111.4879,36.053,临汾市,启星学校,,22,22,34,13,18,62,62,106,76,7,10,5,5,0.8,0.8
2026-07-11T2200,4271A,103.2464,35.6123,临夏回族自治州,滨河东路1号,,18,13,14,3,5,56,56,82,76,22,9,6,7,0.5,0.4
2026-07-11T2200,4310A,103.207136,35.599807,临夏回族自治州,新华街21号,,24,18,15,14,8,75,75,94,92,5,5,8,9,0.4,0.4
2026-07-11T2200,1618A,118.3429,35.0532,临沂市,沂河小区,,34,34,35,9,15,20,20,93,72,7,7,10,10,0.1,0.2
2026-07-11T2200,1619A,118.2962,35.0568,临沂市,鲁南制药厂,,27,27,29,10,15,25,25,92,75,7,7,10,12,0.4,0.5
2026-07-11T2200,1620A,118.2793,34.9976,临沂市,新光毛纺厂,,19,19,26,12,18,15,15,101,79,7,7,5,8,0.2,0.3
2026-07-11T2200,1621A,118.3955,35.0889,临沂市,河东保险公司,,24,24,30,13,15,26,26,95,77,6,7,7,9,0.1,0.1
2026-07-11T2200,3370A,118.3563,35.0215,临沂市,十里堡居委,,27,27,23,7,14,22,22,85,69,13,12,10,10,0.4,0.5
2026-07-11T2200,3496A,118.359,35.1067,临沂市,南坊新区,,24,24,35,12,18,30,30,104,83,9,10,6,8,0.1,0.2
2026-07-11T2200,3860A,118.3915,35.0297,临沂市,皇山花园小区,,27,27,28,9,16,25,25,95,75,8,7,8,8,0.5,0.5
2026-07-11T2200,1870A,109.4854,24.3898,柳州市,柳东小学,,20,16,18,8,8,64,64,86,74,8,6,4,4,0.6,0.6
2026-07-11T2200,1871A,109.4109,24.3304,柳州市,环保监测站,,16,16,21,7,8,50,50,92,81,20,12,7,7,0.6,0.7
2026-07-11T2200,1872A,109.3886,24.3408,柳州市,河西水厂,,22,22,24,7,19,64,64,105,93,16,12,6,6,0.6,0.6
2026-07-11T2200,1873A,109.4263,24.2951,柳州市,市四中,,23,23,25,13,11,57,57,92,84,13,11,5,6,0.6,0.7
2026-07-11T2200,1874A,109.396,24.3658,柳州市,市九中,NA,NA,NA,27,NA,12,NA,NA,95,92,15,11,6,6,0.6,0.6
2026-07-11T2200,1875A,109.4912,24.3164,柳州市,古亭山,,18,16,19,12,10,27,27,79,58,16,10,2,3,0.6,0.6
2026-07-11T2200,3402A,109.5422,24.3994,柳州市,市二中,,15,14,20,9,9,45,45,105,75,10,10,13,7,0.6,0.6
2026-07-11T2200,2307A,116.5078,31.7369,六安市,监测大楼,NA,NA,NA,18,29,18,NA,NA,83,80,8,6,4,5,0.5,0.5
2026-07-11T2200,2308A,116.4738,31.7642,六安市,皖西学院,,38,38,25,18,15,102,102,96,96,5,4,6,6,0.4,0.4
2026-07-11T2200,2309A,116.4997,31.7904,六安市,朝阳厂,,30,23,18,19,17,94,94,88,88,9,7,8,8,0.3,0.2
2026-07-11T2200,2310A,116.5566,31.7885,六安市,开发区,,41,41,31,27,21,98,98,94,94,11,9,6,6,0.3,0.2
2026-07-11T2200,2577A,104.8293,26.592,六盘水市,黄土坡,NA,NA,NA,15,19,10,NA,NA,88,88,10,7,5,4,0.5,0.4
2026-07-11T2200,2579A,104.8481,26.5898,六盘水市,民中,,21,17,12,14,10,67,67,83,83,9,6,1,1,0.4,0.4
2026-07-11T2200,2580A,104.9541,26.5506,六盘水市,双水,,20,17,13,8,7,64,64,80,79,7,6,4,4,0.7,0.6
2026-07-11T2200,4151A,104.8899,26.5685,六盘水市,钟山大道中段564号,,22,11,16,9,8,68,68,84,84,5,4,6,6,0.5,0.5
2026-07-11T2200,2336A,117.022,25.1031,龙岩市,龙岩市监测站,,20,20,30,14,21,62,62,76,63,5,12,7,8,0.2,0.3
2026-07-11T2200,2337A,117.0257,25.0662,龙岩市,闽西职业技术学院,,24,24,40,16,22,39,39,81,61,4,8,5,6,0.4,0.4
2026-07-11T2200,2338A,117.0195,25.0306,龙岩市,龙岩学院,,21,21,29,12,21,58,58,80,68,5,7,4,3,/,/
2026-07-11T2200,2885A,104.9344,33.3827,陇南市,滨江中学,,32,32,27,3,7,47,47,65,62,12,8,8,8,0.6,0.6
2026-07-11T2200,3247A,104.9551,33.3709,陇南市,市总工会,,35,35,27,7,9,46,46,72,62,11,9,7,7,0.5,0.5
2026-07-11T2200,2488A,111.9984,27.7346,娄底市,市监测站,,38,35,31,26,20,78,78,93,82,12,14,16,11,0.4,0.9
2026-07-11T2200,2491A,111.9888,27.7035,娄底市,市政府,,30,29,27,19,20,94,94,96,88,7,7,8,6,0.4,0.4
2026-07-11T2200,4127A,111.9812,27.7591,娄底市,涟钢职大,,49,NA,26,34,14,92,92,115,90,5,11,2,4,0.8,1.9
2026-07-11T2200,4128A,112.0303,27.7457,娄底市,娄底体校,颗粒物(PM10),58,60,27,31,17,79,79,101,92,12,8,3,4,0.6,0.6
2026-07-11T2200,1894A,105.4427,28.9063,泸州市,小市上码头,,24,14,17,8,6,76,76,100,96,9,9,6,7,0.5,0.5
2026-07-11T2200,1895A,105.4241,28.8573,泸州市,兰田宪桥,,30,24,24,15,12,96,96,126,114,8,11,1,2,0.4,0.4
2026-07-11T2200,1896A,105.4378,28.8833,泸州市,市环监站,,28,16,14,6,4,89,89,109,105,10,11,6,6,0.7,0.6
2026-07-11T2200,4272A,105.3689,28.7783,泸州市,纳溪中医医院,NA,NA,NA,33,NA,19,NA,NA,105,NA,NA,21,NA,3,NA,0.6
2026-07-11T2200,2183A,111.1447,37.5212,吕梁市,环保局,,28,9,20,3,10,88,88,79,79,4,16,5,4,0.4,0.5
2026-07-11T2200,2185A,111.1285,37.5338,吕梁市,自来水公司,,26,NA,18,11,12,82,82,75,75,7,17,3,3,0.5,0.6
2026-07-11T2200,2867A,111.1225,37.5093,吕梁市,马茂庄小学,,17,12,21,3,9,53,53,62,62,28,20,4,3,0.4,0.6
2026-07-11T2200,1812A,112.3934,34.6517,洛阳市,市委党校,NA,NA,NA,23,NA,15,NA,NA,120,120,NA,7,NA,7,NA,0.5
2026-07-11T2200,1815A,112.494,34.6883,洛阳市,河南林校,,42,35,28,16,13,134,134,130,130,9,9,12,12,0.3,0.3
2026-07-11T2200,1816A,112.3843,34.623,洛阳市,开发区管委会,,44,27,22,17,14,139,139,144,144,4,5,9,12,0.5,0.6
2026-07-11T2200,1817A,112.4263,34.6249,洛阳市,市委新办公区,,42,25,17,11,12,132,132,130,130,8,8,12,14,0.3,0.4
2026-07-11T2200,3340A,112.6005,34.6323,洛阳市,伊滨,,45,25,21,17,11,141,141,136,136,6,7,5,5,0.3,0.4
2026-07-11T2200,3341A,112.495,34.6338,洛阳市,中移产业园,,42,22,18,16,13,132,132,129,129,3,3,7,8,0.8,0.8
2026-07-11T2200,3593A,112.5736,34.8993,洛阳市,吉利监测站,,38,38,34,13,13,109,109,115,111,9,9,7,7,0.2,0.2
2026-07-11T2200,3635A,112.3678,34.6623,洛阳市,河科大西苑校区,,42,29,24,17,14,132,132,128,128,2,4,14,19,0.6,0.6
2026-07-11T2200,3636A,112.4387,34.678,洛阳市,英才小学,,39,26,16,6,11,124,124,118,118,4,4,8,10,0.5,0.5
2026-07-11T2200,4214A,112.460027,34.694929,洛阳市,春都路1号院,,39,23,19,14,12,124,124,115,115,7,7,2,2,0.3,0.3
2026-07-11T2200,2399A,114.051,33.5721,漯河市,三五一五工厂,,37,37,27,20,18,101,101,147,140,22,20,5,5,0.1,0.2
2026-07-11T2200,2400A,114.0055,33.5698,漯河市,漯河大学,,46,46,36,18,19,108,108,151,144,21,20,5,6,0.5,0.5
2026-07-11T2200,2401A,114.0134,33.5826,漯河市,市水利局,,36,36,24,20,19,109,109,151,145,25,20,6,6,0.4,0.5
2026-07-11T2200,2402A,114.0261,33.5697,漯河市,市广电局,,34,34,23,13,17,108,108,150,147,19,16,5,4,0.4,0.4
2026-07-11T2200,3478A,113.9691,33.568,漯河市,市图书馆,,35,29,27,24,17,112,112,150,145,18,17,7,10,0.5,0.6
2026-07-11T2200,4250A,114.089259,33.588274,漯河市,韶山路11号,,36,32,31,25,18,100,100,155,145,21,18,6,6,0.3,0.4
2026-07-11T2200,1798A,118.5084,31.6838,马鞍山市,湖东路四小,,22,18,35,15,14,34,34,84,70,3,5,8,8,0.5,0.5
2026-07-11T2200,1799A,118.5019,31.6449,马鞍山市,开发区,,35,35,40,17,16,39,39,90,76,2,5,6,7,0.5,0.5
2026-07-11T2200,3633A,118.4914,31.681,马鞍山市,雨山,,39,39,30,12,15,37,37,90,75,4,6,6,6,0.5,0.5
2026-07-11T2200,4191A,118.527362,31.722269,马鞍山市,慈湖高新区,,41,41,35,17,15,37,37,86,71,4,7,7,7,0.5,0.4
2026-07-11T2200,1686A,111.0285,21.469,茂名市,电白南海,,24,24,21,13,11,74,74,79,79,6,4,6,7,0.5,0.6
2026-07-11T2200,1687A,110.9294,21.6533,茂名市,茂石化七小,,34,34,23,19,14,61,61,70,69,13,8,8,10,0.6,0.4
2026-07-11T2200,1688A,110.9108,21.6688,茂名市,健康路,,29,NA,14,20,14,61,61,69,69,10,5,6,8,0.7,0.5
2026-07-11T2200,1689A,110.8592,21.6826,茂名市,高岭,颗粒物(PM10),53,53,27,35,16,53,53,64,64,11,7,5,8,/,/
2026-07-11T2200,3450A,111.0101,21.5165,茂名市,电白水东,,22,19,12,14,11,69,69,75,75,5,5,4,4,/,/
2026-07-11T2200,2540A,103.8414,30.0871,眉山市,气象局,,23,NA,17,16,8,57,57,87,67,17,5,7,11,0.7,0.8
2026-07-11T2200,3148A,103.829,30.0563,眉山市,区人社局,,32,32,28,6,5,69,69,98,88,20,15,8,7,0.6,0.5
2026-07-11T2200,4148A,103.8836,30.0695,眉山市,眉职院,,20,20,19,14,13,58,58,98,84,20,11,6,6,0.4,0.5
2026-07-11T2200,1690A,116.1248,24.3307,梅州市,梅江月梅,细颗粒物(PM2.5),111,NA,36,72,40,22,22,64,49,14,11,/,/,/,/
2026-07-11T2200,1691A,116.0798,24.2719,梅州市,梅县新城,,33,NA,31,23,23,34,34,72,60,17,13,10,10,0.5,0.5
2026-07-11T2200,3315A,116.1234,24.2994,梅州市,梅龙,,30,29,30,21,21,37,37,61,52,13,10,7,7,0.7,0.7
2026-07-11T2200,1878A,104.7775,31.4741,绵阳市,富乐山,,28,22,22,9,12,89,89,104,100,9,8,11,11,0.7,0.7
2026-07-11T2200,1880A,104.6698,31.4668,绵阳市,高新区自来水公司,,25,13,21,11,13,77,77,111,104,5,6,11,11,0.6,0.7
2026-07-11T2200,3491A,104.6899,31.5324,绵阳市,西科大附属小学,,26,18,21,10,14,81,81,102,99,8,7,5,6,0.3,0.4
2026-07-11T2200,3492A,104.5647,31.5343,绵阳市,安州区旅游局,,26,25,20,6,11,81,81,102,96,5,5,5,5,0.3,0.3
2026-07-11T2200,4146A,104.7092,31.4972,绵阳市,科技城新区公安局,,32,23,22,8,13,101,101,109,109,4,8,12,12,0.7,0.7
2026-07-11T2200,4226A,104.765114,31.453094,绵阳市,绵阳市气象局,颗粒物(PM10),75,85,25,3,11,90,90,92,91,9,10,6,6,0.5,0.5
2026-07-11T2200,1784A,129.61,44.561,牡丹江市,环保大楼,,20,NA,14,14,7,29,29,68,57,16,11,6,6,0.4,0.4
2026-07-11T2200,1787A,129.6364,44.6075,牡丹江市,机车工厂,,18,18,22,12,9,28,28,61,50,17,15,10,10,0.4,0.4
2026-07-11T2200,1788A,129.6386,44.5462,牡丹江市,第一中学,,22,22,16,3,4,14,14,76,54,18,11,8,9,0.4,0.4
2026-07-11T2200,4287A,129.5992,44.5964,牡丹江市,东晓云街98号,,22,22,26,7,6,40,40,70,60,12,9,5,5,0.3,0.3
2026-07-11T2200,2531A,105.0703,29.61,内江市,市监测站,,41,41,29,17,19,100,100,133,127,12,10,14,14,0.7,0.5
2026-07-11T2200,2533A,105.0657,29.5807,内江市,内江二中,,31,31,24,17,20,88,88,127,119,13,10,11,12,0.5,0.4
2026-07-11T2200,2534A,105.0407,29.5828,内江市,内江日报社,,28,17,20,17,20,89,89,128,121,13,10,8,9,0.5,0.4
2026-07-11T2200,4147A,105.0433,29.6105,内江市,玉峰路西段888号,,24,23,28,14,31,76,76,112,106,16,11,10,12,0.5,0.4
2026-07-11T2200,2628A,92.0653,31.4846,那曲市,那曲监测站,,36,28,16,25,12,74,74,87,86,24,12,5,3,0.5,0.4
2026-07-11T2200,4243A,92.0515,31.4787,那曲市,那曲市委宣传部,,24,16,8,10,7,74,74,76,76,15,9,7,6,0.3,0.2
2026-07-11T2200,1291A,115.8887,28.7006,南昌市,省林业公司,,27,27,28,15,19,75,75,90,86,5,11,4,4,0.6,0.6
2026-07-11T2200,1292A,115.813,28.7443,南昌市,林科所,,27,27,19,15,17,74,74,87,85,3,4,6,5,0.6,0.6
2026-07-11T2200,1294A,115.8518,28.687,南昌市,建工学校,,39,39,23,18,18,74,74,89,85,6,10,7,7,0.5,0.5
2026-07-11T2200,1295A,115.8926,28.6425,南昌市,象湖,,26,21,18,18,20,73,73,90,86,8,10,10,9,0.4,0.4
2026-07-11T2200,3046A,115.9084,28.6062,南昌市,机电学校,,37,37,35,16,20,77,77,90,88,3,8,7,6,0.6,0.6
2026-07-11T2200,3690A,115.9718,28.7032,南昌市,外国语学校,,31,31,29,16,18,71,71,84,80,7,9,12,11,0.7,0.7
2026-07-11T2200,4106A,115.7923,28.6873,南昌市,工业二路,,41,41,32,18,19,79,79,93,90,2,4,6,6,0.5,0.5
2026-07-11T2200,4192A,115.931587,28.686774,南昌市,南京东路235号,,26,24,22,16,18,81,81,93,89,7,10,5,4,0.6,0.6
2026-07-11T2200,1906A,106.0791,30.8022,南充市,南充市委,NA,NA,23,22,10,11,NA,NA,99,99,13,9,6,6,0.3,0.2
2026-07-11T2200,1907A,106.1038,30.8215,南充市,南充炼油厂,,30,24,24,10,13,94,94,103,102,10,8,7,8,0.4,0.4
2026-07-11T2200,4227A,106.108336,30.788436,南充市,梨树横街98号,,27,25,22,13,13,84,84,104,101,19,10,7,7,0.3,0.3
2026-07-11T2200,4304A,106.1172,30.843,南充市,清泉寺北路188号,NA,NA,NA,29,NA,14,NA,NA,101,101,10,7,8,8,0.5,0.5
2026-07-11T2200,4305A,106.067,30.7616,南充市,同庆路1号,,31,20,22,11,12,98,98,105,105,12,12,8,7,0.4,0.4
2026-07-11T2200,1151A,118.8033,32.1085,南京市,迈皋桥,,29,29,25,7,9,37,37,96,73,10,9,7,6,0.4,0.4
2026-07-11T2200,1152A,118.7487,32.057,南京市,草场门,,29,29,27,13,10,31,31,84,63,8,7,6,5,0.4,0.4
2026-07-11T2200,1154A,118.770105,32.004342,南京市,中华门,,29,29,27,12,7,31,31,85,65,6,5,7,7,0.2,0.2
2026-07-11T2200,1155A,118.8059,32.0329,南京市,瑞金路,,27,27,27,10,8,31,31,85,66,10,9,4,4,0.5,0.4
2026-07-11T2200,1156A,118.7946,32.0774,南京市,玄武湖,,29,29,32,9,7,25,25,76,56,7,6,8,7,0.4,0.4
2026-07-11T2200,1157A,118.6415,32.0964,南京市,浦口,,39,39,32,11,11,31,31,86,65,7,9,4,4,0.4,0.4
2026-07-11T2200,1158A,118.730129,32.000956,南京市,奥体中心,,32,32,31,8,7,34,34,89,69,7,7,4,4,0.5,0.4
2026-07-11T2200,1159A,118.9072,32.1047,南京市,仙林大学城,,31,31,34,9,7,33,33,86,64,6,7,8,8,0.5,0.6
2026-07-11T2200,3422A,118.8443,31.919,南京市,江宁彩虹桥,,37,37,34,8,7,37,37,95,73,3,2,4,4,0.4,0.4
2026-07-11T2200,3427A,118.8497,32.3599,南京市,六合雄州,,29,29,29,3,7,30,30,79,53,7,13,3,4,0.4,0.5
2026-07-11T2200,4086A,118.7641,32.0841,南京市,新模范马路66号,,31,31,32,9,6,32,32,92,70,2,3,5,4,0.3,0.3
2026-07-11T2200,4249A,118.8707617,31.34017673,南京市,汶溪路181号,,31,31,27,6,4,37,37,82,67,11,13,3,4,0.5,0.5
2026-07-11T2200,4312A,119.019,31.6512,南京市,中山西路1号,,29,29,27,9,6,30,30,81,60,9,9,4,4,0.5,0.4
2026-07-11T2200,1401A,108.3098,22.788,南宁市,二十一中,,33,33,19,18,11,75,75,88,82,9,9,2,2,0.7,0.6
2026-07-11T2200,1402A,108.3135,22.8529,南宁市,北湖,,42,42,23,19,15,55,55,83,76,20,12,3,3,0.7,0.6
2026-07-11T2200,1403A,108.3205,22.8222,南宁市,市监测站,,28,28,21,16,11,86,86,97,93,7,6,3,3,0.6,0.5
2026-07-11T2200,1404A,108.3828,22.8038,南宁市,大自然花园,,24,24,19,10,12,56,56,83,76,14,9,3,3,0.7,0.7
2026-07-11T2200,1406A,108.2397,22.8462,南宁市,区农职院,,48,48,26,18,16,55,55,96,83,8,8,2,3,0.4,0.5
2026-07-11T2200,1407A,108.3285,22.7356,南宁市,英华嘉园,,24,24,22,16,13,67,67,80,74,13,9,4,4,0.6,0.5
2026-07-11T2200,3401A,108.4829,22.762,南宁市,红星社区,,42,39,21,29,12,78,78,82,77,7,10,5,4,0.6,0.5
2026-07-11T2200,4132A,108.2927,23.1477,南宁市,起凤路9号,,34,34,23,20,13,43,43,73,65,17,8,1,1,0.6,0.5
2026-07-11T2200,4221A,108.2177,22.7774,南宁市,乐贤路16号,,36,32,26,25,14,53,53,102,86,20,18,10,5,0.6,0.4
2026-07-11T2200,2332A,118.1682,26.6371,南平市,南平市监测站,,16,12,21,6,16,50,50,56,48,4,10,4,4,0.3,0.4
2026-07-11T2200,2334A,118.1757,26.6276,南平市,南平七中,,30,30,22,6,15,49,49,51,45,4,9,3,4,0.2,0.3
2026-07-11T2200,1168A,120.9056,31.9669,南通市,狼山街道,,30,30,21,12,9,35,35,42,37,5,3,3,4,0.1,0.2
2026-07-11T2200,1170A,120.8635,32.0231,南通市,城中,,41,41,32,18,11,32,32,40,35,2,2,2,2,0.3,0.2
2026-07-11T2200,1171A,120.9376,31.9301,南通市,星湖花园,,30,30,25,12,9,33,33,39,35,3,3,3,3,0.2,0.2
2026-07-11T2200,1172A,120.8053,32.046,南通市,紫琅学院,,39,39,29,13,10,32,32,41,34,1,2,5,5,0.4,0.4
2026-07-11T2200,3291A,121.0631,32.0644,南通市,通州监测站,,31,31,26,12,7,32,32,36,33,2,2,6,6,0.4,0.4
2026-07-11T2200,3432A,120.9348,31.9874,南通市,环境教育馆,,36,36,29,14,10,32,32,37,33,2,4,5,5,0.4,0.4
2026-07-11T2200,4091A,120.8692,31.9885,南通市,洪江路,,26,26,21,14,10,31,31,38,33,2,2,4,4,0.7,0.7
2026-07-11T2200,2404A,112.5338,33.0086,南阳市,瓦房庄,,25,25,24,9,11,67,67,117,102,15,11,5,4,0.4,0.4
2026-07-11T2200,2405A,112.5002,32.9734,南阳市,汉画馆,,28,28,24,11,11,72,72,120,104,14,11,6,6,0.4,0.5
2026-07-11T2200,2406A,112.5778,33.0144,南阳市,气象站,,24,24,18,3,11,64,64,126,107,24,15,6,6,0.3,0.4
2026-07-11T2200,2407A,112.548,32.9687,南阳市,理工学院,,29,29,22,16,12,63,63,118,101,18,11,6,6,0.4,0.4
2026-07-11T2200,4008A,112.5233,32.9921,南阳市,卧龙区政府,,26,NA,22,18,13,69,69,123,107,14,11,6,5,0.4,0.4
2026-07-11T2200,1234A,121.8352,29.9111,宁波市,区环保大楼,,25,25,34,7,10,40,40,39,39,2,2,6,6,0.8,0.7
2026-07-11T2200,1235A,121.5595,29.8208,宁波市,万里学院,NA,NA,17,27,3,7,46,46,42,42,NA,3,3,5,0.3,0.3
2026-07-11T2200,1236A,121.713,29.9564,宁波市,龙赛医院,,31,31,34,7,9,41,41,40,40,3,3,6,6,0.1,0.1
2026-07-11T2200,1240A,121.5855,29.8635,宁波市,太古小学,,13,11,29,3,8,41,41,38,38,2,2,4,4,0.4,0.5
2026-07-11T2200,1241A,121.5239,29.8673,宁波市,市环境监测中心,,16,16,26,3,8,41,41,37,37,2,2,7,7,0.3,0.3
2026-07-11T2200,2871A,121.6156,29.9015,宁波市,万里国际学校,,17,17,27,3,9,43,43,40,40,2,2,6,6,0.4,0.3
2026-07-11T2200,3710A,121.5593,29.8976,宁波市,白沙活动中心,,17,17,23,3,11,41,41,37,37,2,3,7,7,0.5,0.5
2026-07-11T2200,4095A,121.8962,29.7529,宁波市,中科路88号,,21,21,32,3,9,44,44,43,43,5,2,6,6,0.4,0.4
2026-07-11T2200,2341A,119.5387,26.6611,宁德市,宁德市监测站,,18,18,12,3,4,45,45,46,46,6,9,5,5,0.4,0.5
2026-07-11T2200,3209A,119.5231,26.6562,宁德市,宁德一中,,15,11,11,3,5,46,46,48,48,2,4,9,9,0,0
2026-07-11T2200,2618A,98.859,25.8541,怒江傈僳族自治州,州监测站,,14,13,12,8,8,42,42,54,52,7,8,5,5,0.4,0.4
2026-07-11T2200,2619A,98.8607,25.8168,怒江傈僳族自治州,泸水一中,,15,NA,14,10,11,37,37,48,45,11,11,3,4,0.5,0.5
2026-07-11T2200,1888A,101.6891,26.571,攀枝花市,弄弄坪,,44,44,42,10,10,64,64,58,58,10,20,8,12,0.4,0.3
2026-07-11T2200,1889A,101.577,26.5914,攀枝花市,河门口,,30,30,34,9,13,60,60,71,71,6,13,6,19,0.7,1
2026-07-11T2200,1891A,101.7365,26.4986,攀枝花市,仁和,,20,18,16,14,10,18,18,45,38,10,9,4,7,0.6,0.6
2026-07-11T2200,2835A,101.7222,26.567,攀枝花市,四十中小,,26,26,29,15,13,53,53,66,65,12,18,14,21,1.2,0.9
2026-07-11T2200,1604A,122.0303,41.1489,盘锦市,开发区,,23,19,20,16,13,41,41,58,56,11,12,8,8,0.4,0.5
2026-07-11T2200,1605A,122.0486,41.0883,盘锦市,兴隆台,,20,20,21,8,12,36,36,54,52,15,16,5,4,0.5,0.6
2026-07-11T2200,1606A,121.8297,41.1026,盘锦市,新生街道,,20,20,18,13,13,37,37,88,41,8,7,4,6,0.4,0.5
2026-07-11T2200,1832A,113.3257,33.7423,平顶山市,新华旅馆,,43,43,28,23,16,119,119,158,148,24,17,8,6,0.4,0.4
2026-07-11T2200,1833A,113.2917,33.737,平顶山市,规划设计院,,36,33,26,20,15,114,114,138,131,18,17,8,8,0.5,0.5
2026-07-11T2200,1834A,113.182,33.7738,平顶山市,平顶山工学院,,42,22,19,22,16,132,132,159,154,13,12,7,6,0.5,0.6
2026-07-11T2200,3594A,112.8736,33.9068,平顶山市,石龙区,,42,42,24,19,15,115,115,140,139,19,12,14,9,0.7,0.6
2026-07-11T2200,4116A,113.284,33.7139,平顶山市,姚电大道23号,,39,31,31,20,15,123,123,157,146,15,15,9,8,0.4,0.4
2026-07-11T2200,2656A,106.6633,35.5338,平凉市,聚贤嘉苑,NA,NA,23,19,3,5,NA,NA,85,85,8,9,7,7,0.5,0.6
2026-07-11T2200,2657A,106.7021,35.5307,平凉市,博物馆,,31,28,26,3,4,98,98,90,90,4,7,16,16,0.4,0.5
2026-07-11T2200,2348A,113.8384,27.6436,萍乡市,中医院,,42,42,30,15,16,40,40,103,72,17,12,8,10,0.6,0.7
2026-07-11T2200,2350A,113.8677,27.6438,萍乡市,市环保局,,35,35,24,20,20,45,45,105,79,11,10,13,15,0.5,0.4
2026-07-11T2200,2351A,113.8663,27.6202,萍乡市,安源区政府,,39,39,31,24,18,38,38,102,75,11,11,9,11,0.5,0.6
2026-07-11T2200,4107A,113.8686,27.6668,萍乡市,联洪村委会,,30,30,32,18,19,42,42,100,71,17,8,7,10,0.3,0.3
2026-07-11T2200,2319A,119.0142,25.4324,莆田市,荔城区仓后路,,25,25,19,9,4,30,30,41,36,8,6,/,/,/,/
2026-07-11T2200,2320A,119.0016,25.4553,莆田市,莆田市监测站,NA,NA,23,12,3,2,NA,NA,47,47,5,5,3,3,0.4,0.3
2026-07-11T2200,2321A,119.112,25.4561,莆田市,涵江区六中,,15,14,16,10,5,39,39,44,42,8,6,/,/,0.4,0.3
2026-07-11T2200,2322A,119.1014,25.3215,莆田市,秀屿区政府,,23,22,19,16,5,38,38,46,43,11,6,6,5,0.7,0.6
2026-07-11T2200,2392A,115.0312,35.7636,濮阳市,环保局,,42,34,38,11,18,134,134,148,148,14,11,3,3,0.3,0.4
2026-07-11T2200,3021A,115,35.7667,濮阳市,濮水河管理处,,41,32,28,18,18,131,131,148,148,10,9,2,2,0.6,0.7
2026-07-11T2200,4118A,115.0552,35.7816,濮阳市,中原东路68号,,47,47,50,15,18,132,132,146,146,9,8,5,5,0.8,0.9
2026-07-11T2200,4216A,115.0923632,35.76857718,濮阳市,任丘路479号,,43,41,38,15,19,136,136,154,153,11,9,1,2,0.6,0.6
2026-07-11T2200,2601A,100.9801,22.7634,普洱市,市环保局,,28,28,27,16,8,28,28,44,38,5,5,6,5,0.9,0.9
2026-07-11T2200,2602A,100.9763,22.8237,普洱市,普洱第二中学,,38,38,25,16,9,14,14,45,37,14,8,6,6,0.9,0.7
2026-07-11T2200,3345A,131.0413,45.7795,七台河市,中波台,,14,7,6,3,11,43,43,76,62,12,14,5,6,0.5,0.5
2026-07-11T2200,3637A,131.0136,45.7688,七台河市,人民广场,,27,27,19,11,9,34,34,68,49,12,11,5,5,0.6,0.5
2026-07-11T2200,3684A,130.8639,45.8144,七台河市,新建矿广场,,22,19,21,15,12,11,11,55,45,34,17,9,15,0.4,0.3
2026-07-11T2200,1779A,123.9307,47.3641,齐齐哈尔市,安居小区,,26,26,32,8,18,68,68,78,78,8,7,5,4,0.7,0.8
2026-07-11T2200,1780A,123.9497,47.3389,齐齐哈尔市,中心广场,,26,26,41,9,19,68,68,81,80,14,12,4,5,0.5,0.6
2026-07-11T2200,1781A,123.9483,47.3229,齐齐哈尔市,农牧车辆厂,,34,34,56,15,45,72,72,82,82,7,7,6,6,0,0.1
2026-07-11T2200,1783A,123.9442,47.2994,齐齐哈尔市,市环境监测站,,22,17,28,6,40,69,69,76,76,7,7,2,2,0.3,0.4
2026-07-11T2200,3662A,123.6341,47.2079,齐齐哈尔市,富区青少年活动中心,NA,NA,15,35,NA,NA,72,72,89,88,8,9,4,5,0.4,0.5
2026-07-11T2200,2591A,107.9765,26.5724,黔东南苗族侗族自治州,市环境监测站,,13,13,13,7,10,36,36,66,58,6,5,2,2,0.3,0.3
2026-07-11T2200,2881A,107.8909,26.531,黔东南苗族侗族自治州,凯里学院,,13,12,9,9,11,35,35,68,56,3,5,2,2,0.5,0.5
2026-07-11T2200,2593A,107.5223,26.2371,黔南布依族苗族自治州,小围寨,,15,12,11,10,7,44,44,60,56,6,5,4,5,0.5,0.5
2026-07-11T2200,3538A,107.5175,26.2977,黔南布依族苗族自治州,沙坝,,17,17,8,10,6,40,40,60,56,6,3,3,3,0.6,0.6
2026-07-11T2200,2589A,104.9022,25.0943,黔西南布依族苗族自治州,场坝街,,18,17,13,3,5,56,56,68,65,4,3,3,2,0.3,0.2
2026-07-11T2200,2590A,104.8812,25.0994,黔西南布依族苗族自治州,坪东大道,,18,10,13,7,6,55,55,67,63,4,3,5,5,0.4,0.3
2026-07-11T2200,2502A,108.6238,21.9667,钦州市,市环保站,,27,27,24,13,8,65,65,92,82,10,11,3,6,0.5,0.5
2026-07-11T2200,2503A,108.655,21.9481,钦州市,沙埠小学,,32,32,31,10,8,53,53,88,79,12,11,1,2,1.0,0.9
2026-07-11T2200,2504A,108.5989,21.7435,钦州市,港区一小,,39,39,31,12,7,64,64,76,75,20,12,3,3,0.7,0.7
2026-07-11T2200,3404A,108.5959,21.9634,钦州市,北职校,,22,22,26,6,10,65,65,94,82,10,13,3,3,0.5,0.5
2026-07-11T2200,1046A,119.5247,39.9346,秦皇岛市,建设大厦,,40,40,39,18,15,75,75,87,87,5,17,5,5,0.3,0.4
2026-07-11T2200,3132A,119.5979,39.938,秦皇岛市,文明里,颗粒物(PM10),52,52,50,11,17,70,70,83,83,3,11,6,6,0.2,0.2
2026-07-11T2200,4066A,119.7458,39.9952,秦皇岛市,南园路157号,,30,30,32,16,16,53,53,60,57,15,17,8,8,0.3,0.3
2026-07-11T2200,4067A,119.5131,39.8858,秦皇岛市,翠岛大街1号,,26,26,24,6,15,69,69,80,80,3,9,3,4,0.2,0.3
2026-07-11T2200,4198A,119.509013,39.825305,秦皇岛市,北戴河轮滑馆,,44,44,42,14,16,70,70,90,90,4,9,9,9,0.2,0.3
2026-07-11T2200,1310A,120.404,36.0625,青岛市,市南区东部子站,,27,27,29,8,10,36,36,37,37,8,10,6,5,0.3,0.3
2026-07-11T2200,1311A,120.362344,36.10282,青岛市,四方区子站,,22,22,24,8,10,42,42,44,44,3,2,10,10,0.6,0.6
2026-07-11T2200,1312A,120.294373,36.054183,青岛市,市南区西部子站,,27,27,24,8,8,40,40,44,44,5,6,6,6,0.5,0.5
2026-07-11T2200,1313A,120.4581,36.0858,青岛市,崂山区子站,,41,41,35,9,11,40,40,40,40,2,4,6,6,0.2,0.2
2026-07-11T2200,1315A,120.3945,36.3083,青岛市,城阳区子站,,24,24,22,11,9,34,34,40,36,3,3,8,7,0.2,0.2
2026-07-11T2200,3642A,120.3454,36.0735,青岛市,市北区南部,,31,31,25,6,7,48,48,44,44,9,7,4,2,0.7,0.7
2026-07-11T2200,3643A,120.3897,36.18,青岛市,李沧区北部,NA,NA,17,15,8,8,NA,NA,40,39,7,7,4,3,0.5,0.5
2026-07-11T2200,4110A,120.5222,36.4089,青岛市,盟旺路653号,,27,27,20,8,7,37,37,41,38,5,4,6,6,0.6,0.6
2026-07-11T2200,4290A,120.196923,35.954556,青岛市,珠江路669号,,27,27,28,7,9,30,30,36,36,10,5,4,4,0.2,0.2
2026-07-11T2200,4291A,120.0424,35.8656,青岛市,黄岛区人民政府广场,,31,31,32,9,10,39,39,42,40,6,5,4,5,0.5,0.5
2026-07-11T2200,1703A,113.0218,23.7086,清远市,凤城街办,,42,42,39,24,24,83,83,149,127,24,18,/,/,/,/
2026-07-11T2200,3025A,113.0479,23.6343,清远市,技师学院,,40,40,38,24,22,88,88,156,137,18,22,23,7,0.6,0.6
2026-07-11T2200,3318A,112.9898,23.7403,清远市,清新太和,,31,26,38,13,25,98,98,166,139,8,13,9,9,0.5,0.5
2026-07-11T2200,3455A,113.076,23.72,清远市,清城东城,,38,38,35,21,23,82,82,140,127,17,12,/,/,/,/
2026-07-11T2200,2661A,107.6325,35.7357,庆阳市,庆阳五中,,26,15,21,8,11,82,82,89,87,7,6,5,5,0.3,0.1
2026-07-11T2200,2662A,107.6361,35.7067,庆阳市,市环保局,,25,20,23,7,12,78,78,88,86,9,8,5,6,0.4,0.4
2026-07-11T2200,1916A,103.7897,25.5036,曲靖市,环境监测站,,24,24,24,3,13,53,53,96,90,8,9,3,2,0.5,0.6
2026-07-11T2200,1917A,103.8013,25.5357,曲靖市,烟厂办公区,,23,23,20,6,11,59,59,94,90,8,8,1,2,0.6,0.6
2026-07-11T2200,3376A,103.7926,25.4651,曲靖市,南苑二区,,16,16,24,7,14,50,50,90,82,11,10,4,4,0.6,0.6
2026-07-11T2200,3377A,103.7442,25.5259,曲靖市,曲靖师范学院,,29,29,21,12,14,49,49,95,87,23,13,4,5,0.5,0.4
2026-07-11T2200,1264A,118.8694,28.94,衢州市,环保大楼,,14,14,22,6,10,23,23,51,37,10,11,/,/,/,/
2026-07-11T2200,1266A,118.8622,28.9809,衢州市,衢州学院,,17,17,25,3,11,27,27,51,36,12,14,6,6,0.3,0.4
2026-07-11T2200,4097A,118.9646,28.9832,衢州市,衢州三中,,10,8,21,3,11,29,29,52,38,7,13,3,3,0.6,0.6
2026-07-11T2200,1611A,118.5818,24.9116,泉州市,涂山街,,32,32,28,18,17,39,39,63,49,16,8,7,4,0.6,0.6
2026-07-11T2200,1612A,118.597,24.8976,泉州市,津头埔,,41,41,28,18,15,29,29,58,44,27,11,8,3,0.6,0.5
2026-07-11T2200,1613A,118.6669,24.9422,泉州市,万安,,36,36,26,16,13,35,35,50,44,17,10,7,4,0.5,0.5
2026-07-11T2200,4105A,118.6355,24.9148,泉州市,霞新路6号,,28,25,21,19,16,33,33,61,48,20,8,/,/,0.5,0.4
2026-07-11T2200,2626A,88.8873,29.2723,日喀则市,日喀则监测站,,24,8,3,6,2,74,74,92,88,9,4,9,9,0.4,0.4
2026-07-11T2200,3726A,88.8775,29.2425,日喀则市,林业技术推广中心,,21,14,7,6,2,66,66,96,89,7,3,10,10,0.4,0.4
2026-07-11T2200,1659A,119.4711,35.421,日照市,监测站,,20,19,24,14,11,33,33,35,32,6,11,7,7,0.2,0.2
2026-07-11T2200,1660A,119.523,35.4216,日照市,市政府广场,,22,22,23,10,9,39,39,43,39,4,5,11,10,0.4,0.4
2026-07-11T2200,1661A,119.5511,35.4113,日照市,港务局,,24,24,30,8,7,36,36,30,NA,9,8,7,6,0.9,0.9
2026-07-11T2200,3507A,119.5326,35.4627,日照市,职业技术学院,,24,24,27,9,6,40,40,45,42,3,2,8,8,0.3,0.3
2026-07-11T2200,3604A,119.3267,35.1043,日照市,岚山环保分局,NA,NA,29,31,10,11,NA,NA,38,30,6,7,8,9,0.5,0.6
2026-07-11T2200,1835A,111.1922,34.7752,三门峡市,市政府,,24,16,27,3,13,74,74,94,82,3,8,5,6,0.8,0.8
2026-07-11T2200,1836A,111.1588,34.794,三门峡市,开发区,NA,NA,NA,27,11,15,71,71,96,82,10,11,4,4,0.5,0.5
2026-07-11T2200,3039A,111.1911,34.7829,三门峡市,三门峡市第一小学,,25,10,26,3,13,77,77,92,82,3,7,5,4,0.6,0.6
2026-07-11T2200,3598A,111.1031,34.719,三门峡市,富达温泉假日酒店,NA,NA,15,24,NA,13,68,68,91,71,10,13,6,7,0.5,0.5
2026-07-11T2200,2324A,117.621,26.2626,三明市,三钢,,20,20,28,9,21,44,44,64,48,10,15,9,11,1.0,1.1
2026-07-11T2200,2325A,117.6352,26.2714,三明市,三明二中,,16,NA,27,11,20,49,49,75,58,5,12,1,4,0.4,0.8
2026-07-11T2200,2326A,117.6028,26.2377,三明市,三元区政府,,21,21,29,12,21,43,43,63,52,7,12,11,12,0.6,0.8
2026-07-11T2200,1877A,109.4962,18.2682,三亚市,河西子站,,21,21,22,9,11,50,50,53,52,3,3,4,3,0.1,0.1
2026-07-11T2200,3540A,109.7348,18.3443,三亚市,君悦子站,,16,12,22,8,9,50,50,58,54,6,6,2,2,0.1,0.2
2026-07-11T2200,4135A,109.1714,18.3739,三亚市,城东小学站,,19,19,29,10,11,30,30,54,51,11,5,/,/,/,/
2026-07-11T2200,2624A,91.7592,29.234,山南市,山南监测站,,20,8,4,3,2,64,64,77,74,7,4,10,10,0.2,0.2
2026-07-11T2200,2625A,91.7701,29.2436,山南市,山南人民医院,,21,9,6,9,3,65,65,74,72,5,3,10,8,0.1,0.1
2026-07-11T2200,1674A,116.6795,23.3666,汕头市,金平子站,,33,28,35,23,24,71,71,104,83,8,10,2,4,0.6,0.8
2026-07-11T2200,1675A,116.7248,23.3632,汕头市,龙湖子站,,29,22,40,20,23,54,54,95,79,8,7,7,8,/,/
2026-07-11T2200,1676A,116.7257,23.2774,汕头市,濠江子站,颗粒物(PM10),59,62,48,25,27,86,86,116,115,10,10,9,9,/,/
2026-07-11T2200,1677A,116.7518,23.4712,汕头市,澄海子站,,26,18,41,18,24,47,47,90,71,11,11,5,6,0.6,0.6
2026-07-11T2200,1678A,116.6088,23.2539,汕头市,潮阳子站,,25,NA,31,17,22,72,72,95,94,5,8,6,7,0.7,0.8
2026-07-11T2200,3444A,116.4539,23.2684,汕头市,潮南峡山,,25,NA,35,17,21,63,63,88,82,8,6,6,8,0.5,0.4
2026-07-11T2200,3624A,116.4069,23.2533,汕头市,潮南子站,,34,34,35,23,20,90,90,80,79,7,8,7,7,/,/
2026-07-11T2200,1693A,115.3653,22.7751,汕尾市,市环保局,,40,32,30,14,15,126,126,162,147,7,10,6,6,0.6,0.5
2026-07-11T2200,1695A,115.362,22.7926,汕尾市,新城中学,,47,31,30,13,14,150,150,182,167,5,9,6,6,0.6,0.6
2026-07-11T2200,2645A,109.9155,33.8714,商洛市,监测站,,23,23,24,13,16,52,52,99,76,6,9,4,6,0.5,0.5
2026-07-11T2200,3045A,109.9647,33.8486,商洛市,商州区中学,,25,25,25,13,12,47,47,85,69,8,9,4,5,0.8,0.8
2026-07-11T2200,2408A,115.6701,34.4283,商丘市,环境监测站,,41,41,34,21,21,83,83,158,144,7,6,5,5,0.4,0.5
2026-07-11T2200,2409A,115.6458,34.4047,商丘市,粮食局,,27,27,32,17,18,86,86,158,144,7,6,2,2,0.4,0.5
2026-07-11T2200,3171A,115.6069,34.4465,商丘市,梁园区档案局,,26,26,33,11,17,82,82,147,140,7,6,1,2,0.3,0.3
2026-07-11T2200,4119A,115.6701,34.3767,商丘市,北海东路185号,,31,31,35,18,18,82,82,160,139,8,8,4,4,0.4,0.4
2026-07-11T2200,4120A,115.6172,34.3704,商丘市,中山大街3号,,34,34,36,12,13,86,86,151,139,9,10,7,6,0.5,0.5
2026-07-11T2200,1141A,121.401,31.2382,上海市,普陀,颗粒物(PM10),51,51,39,20,16,36,36,37,34,4,6,5,5,0,0
2026-07-11T2200,1142A,121.4774,31.2043,上海市,十五厂,颗粒物(PM10),52,52,41,20,18,33,33,34,33,2,3,5,5,0.5,0.4
2026-07-11T2200,1143A,121.4673,31.3011,上海市,虹口,颗粒物(PM10),54,55,42,21,17,30,30,34,31,2,2,4,4,0.5,0.4
2026-07-11T2200,1147A,121.4253,31.226,上海市,静安监测站,NA,NA,NA,38,NA,16,NA,NA,39,37,NA,5,NA,7,NA,0.3
2026-07-11T2200,1148A,121.7029,31.1905,上海市,浦东川沙,颗粒物(PM10),53,53,39,22,15,44,44,43,43,2,4,8,8,0.4,0.4
2026-07-11T2200,1149A,121.5339,31.229,上海市,浦东新区监测站,颗粒物(PM10),54,55,41,21,16,32,32,32,31,4,3,6,6,0.3,0.4
2026-07-11T2200,1150A,121.5776,31.2038,上海市,浦东张江,,49,49,38,21,18,43,43,43,42,2,2,6,6,0.2,0.1
2026-07-11T2200,3265A,121.4242,31.3303,上海市,宝山庙行,颗粒物(PM10),65,71,57,21,17,32,32,34,31,2,3,11,11,0.1,0.1
2026-07-11T2200,3266A,121.8789,31.4662,上海市,崇明上实东滩,,40,40,36,21,14,36,36,36,36,2,3,9,9,0.2,0.2
2026-07-11T2200,3268A,121.316,31.2839,上海市,嘉定南翔,,46,46,35,19,16,34,34,34,32,4,5,3,4,0.2,0.2
2026-07-11T2200,3269A,121.3357,30.7455,上海市,金山新城,,22,22,39,9,16,32,32,32,32,4,3,4,4,0.4,0.4
2026-07-11T2200,3270A,121.4996,31.0741,上海市,闵行浦江,,48,48,40,16,17,30,30,31,30,2,2,5,6,0.4,0.3
2026-07-11T2200,3271A,121.2886,31.1663,上海市,青浦徐泾,,42,42,36,17,16,33,33,35,32,2,2,4,4,0.1,0.2
2026-07-11T2200,3272A,121.2193,31.0382,上海市,松江图书馆,,41,41,40,15,17,36,36,39,37,6,8,6,6,0.3,0.3
2026-07-11T2200,3273A,121.3904,31.206,上海市,长宁仙霞,,46,46,37,21,17,33,33,33,32,2,2,6,6,0.2,0.2
2026-07-11T2200,3274A,121.7964,31.0507,上海市,浦东惠南,,50,50,43,14,16,54,54,53,53,3,3,8,8,0.6,0.6
2026-07-11T2200,3544A,121.4891,30.925,上海市,奉贤南桥新城,,30,30,38,11,14,38,38,36,36,1,4,2,3,0.5,0.5
2026-07-11T2200,4183A,121.417401,31.16637,上海市,冠生园路458号,,48,48,36,19,17,37,37,36,36,3,5,5,5,0.3,0.3
2026-07-11T2200,4205A,121.541914,31.268301,上海市,宁武路151号,颗粒物(PM10),58,60,49,22,18,36,36,35,34,3,6,6,6,0.3,0.3
2026-07-11T2200,2382A,117.9758,28.4439,上饶市,市监测站,,16,16,26,11,11,45,45,62,51,6,6,6,8,/,/
2026-07-11T2200,2383A,117.9521,28.4637,上饶市,凤凰光学,,15,14,25,10,11,41,41,63,53,5,7,4,8,0.5,0.5
2026-07-11T2200,3685A,117.897,28.4316,上饶市,双创科技城,,18,18,27,12,12,33,33,59,48,12,11,2,7,0.5,0.4
2026-07-11T2200,4211A,118.190438,28.444845,上饶市,裕丰大道,,9,6,22,3,10,26,26,54,41,9,8,10,9,0.7,0.7
2026-07-11T2200,1669A,113.5821,24.7733,韶关市,市八中,,30,30,46,14,19,38,38,101,77,14,10,9,8,0.6,0.5
2026-07-11T2200,1671A,113.5916,24.7973,韶关市,园林处,,30,28,28,21,22,35,35,108,78,18,13,7,9,/,/
2026-07-11T2200,1673A,113.5971,24.6864,韶关市,曲江监测站,颗粒物(PM10),62,66,40,36,26,60,60,116,93,18,13,8,11,0.7,0.6
2026-07-11T2200,2809A,113.6668,24.7756,韶关市,大学路288号,,22,NA,34,15,21,36,36,117,82,7,9,9,18,/,/
2026-07-11T2200,3622A,113.5556,24.8082,韶关市,碧湖山庄,,32,27,29,22,18,37,37,85,61,14,11,8,4,0.5,0.5
2026-07-11T2200,2464A,111.5277,27.2442,邵阳市,市化工厂,,45,36,22,31,21,53,53,104,84,13,9,7,7,0.5,0.4
2026-07-11T2200,2466A,111.4327,27.2276,邵阳市,市环保局,,42,29,26,29,21,48,48,101,82,10,8,4,4,0.5,0.4
2026-07-11T2200,4218A,111.446,27.2472,邵阳市,北塔二期4-26地块,,29,NA,32,20,14,43,43,86,70,10,8,5,5,0.5,0.5
2026-07-11T2200,4219A,111.4739,27.2282,邵阳市,邵水西路287号,NA,NA,NA,25,32,21,NA,NA,99,87,9,6,2,2,0.4,0.4
2026-07-11T2200,1247A,120.6053,29.9927,绍兴市,城东开发委,,15,15,32,6,15,38,38,39,36,2,4,7,8,0.2,0.2
2026-07-11T2200,2921A,120.5482,30.0003,绍兴市,树下王站,,11,10,29,3,12,35,35,37,33,1,5,3,4,0.3,0.3
2026-07-11T2200,3408A,120.5685,29.936,绍兴市,绍兴中专,,18,18,31,3,11,37,37,40,36,2,4,4,5,0.5,0.5
2026-07-11T2200,3409A,120.4905,30.086,绍兴市,柯桥区政府,,22,22,30,3,11,35,35,35,34,4,7,5,5,0.4,0.4
2026-07-11T2200,3410A,120.8751,30.0249,绍兴市,重华小学,,13,13,32,6,13,39,39,33,33,2,5,9,10,0.5,0.6
2026-07-11T2200,3411A,120.837,30.0137,绍兴市,上虞中学,,15,15,34,6,13,38,38,35,34,3,6,7,8,0.3,0.3
2026-07-11T2200,3560A,120.4715,30.0414,绍兴市,柯桥妇保,,13,13,30,3,14,36,36,36,34,3,5,5,6,0.2,0.2
2026-07-11T2200,3658A,120.6156,30.0762,绍兴市,袍江中学,,17,17,36,3,14,38,38,36,35,1,6,5,5,0.2,0.3
2026-07-11T2200,1356A,114.0948,22.5506,深圳市,通心岭子站,,25,18,23,11,12,78,78,194,183,16,14,3,3,0.9,0.9
2026-07-11T2200,1357A,114.1153,22.5713,深圳市,洪湖,,29,29,25,17,13,80,80,191,179,15,17,6,6,0.5,0.4
2026-07-11T2200,1358A,113.9823,22.5398,深圳市,华侨城,,24,24,27,9,12,72,72,185,172,10,18,/,/,/,/
2026-07-11T2200,1359A,113.9181,22.517,深圳市,南海子站,,21,20,25,10,11,66,66,199,176,6,17,5,6,0.8,0.7
2026-07-11T2200,1360A,114.2345,22.565,深圳市,盐田,,39,39,23,25,14,118,118,173,170,27,17,7,6,0.4,0.4
2026-07-11T2200,1363A,114.4911,22.5381,深圳市,南澳,,33,33,24,11,5,90,90,151,139,17,14,/,/,/,/
2026-07-11T2200,1364A,114.41,22.6346,深圳市,葵涌,,45,45,30,28,15,93,93,162,142,26,18,7,7,0.8,0.7
2026-07-11T2200,1365A,114.2967,22.5978,深圳市,梅沙,NA,NA,48,32,22,14,83,83,163,149,NA,22,/,/,/,/
2026-07-11T2200,1366A,114.0563,22.7353,深圳市,观澜,,42,40,37,20,19,134,134,237,224,22,28,8,7,0.7,0.6
2026-07-11T2200,3305A,114.0614,22.556,深圳市,莲花,,21,14,25,9,11,67,67,136,130,15,13,/,/,/,/
2026-07-11T2200,3306A,114.0144,22.6163,深圳市,民治,,26,21,33,14,17,83,83,196,183,26,24,/,/,/,/
2026-07-11T2200,3307A,114.1756,22.6421,深圳市,横岗,,35,26,34,19,19,110,110,230,217,24,29,/,/,/,/
2026-07-11T2200,3447A,114.344,22.7115,深圳市,坪山,,45,44,35,28,21,141,141,162,155,30,25,7,7,0.9,0.8
2026-07-11T2200,3623A,113.8952,22.586,深圳市,西乡,,27,27,29,11,13,72,72,192,171,19,18,2,4,0.8,0.7
2026-07-11T2200,4220A,114.214113,22.713717,深圳市,黄阁路,,41,34,34,20,18,129,129,222,211,27,25,8,7,0.6,0.7
2026-07-11T2200,1099A,123.5058,41.7084,沈阳市,浑南东路,,13,9,13,3,8,12,12,41,20,25,16,3,4,0.5,0.7
2026-07-11T2200,1100A,123.4238,41.6992,沈阳市,新秀街,,17,17,15,8,10,22,22,36,24,17,14,7,6,0.4,0.4
2026-07-11T2200,1102A,123.5903,41.8412,沈阳市,东陵路,,9,9,16,3,7,20,20,52,22,11,9,3,2,0.6,0.6
2026-07-11T2200,1103A,123.4267,41.8466,沈阳市,陵东街,,16,16,16,3,8,18,18,48,33,19,12,3,3,0.6,0.6
2026-07-11T2200,1104A,123.4116,41.7654,沈阳市,文化路,,16,16,16,8,7,28,28,48,31,13,9,3,3,0.6,0.7
2026-07-11T2200,1105A,123.4673,41.787,沈阳市,小河沿,,11,11,15,3,7,9,9,33,22,15,10,2,2,0.5,0.7
2026-07-11T2200,1106A,123.4019,41.7978,沈阳市,太原街,,19,19,21,3,8,29,29,54,35,10,8,3,3,0.5,0.6
2026-07-11T2200,1108A,123.3778,41.9233,沈阳市,京沈街,,10,10,17,6,9,27,27,60,37,14,10,4,5,0.5,0.6
2026-07-11T2200,2897A,123.2429,41.7341,沈阳市,沈辽西路,,19,19,18,6,8,40,40,44,35,8,10,6,6,0.5,0.6
2026-07-11T2200,2900A,123.5951,41.9085,沈阳市,裕农路,,10,10,12,3,5,25,25,53,24,9,7,4,5,0.7,0.6
2026-07-11T2200,2429A,110.78,32.6494,十堰市,滨河新村,,28,28,23,17,13,88,88,97,96,5,4,/,/,0.8,0.8
2026-07-11T2200,2430A,110.7305,32.6408,十堰市,刘家沟,,25,NA,20,16,13,78,78,100,98,7,6,/,/,/,/
2026-07-11T2200,2431A,110.8843,32.5712,十堰市,铁二处,,35,32,22,24,18,57,57,95,89,5,6,8,10,0.7,0.7
2026-07-11T2200,3545A,110.8053,32.8401,十堰市,郧阳区金沙路,,48,48,25,19,14,90,90,106,106,14,10,8,8,0.6,0.6
2026-07-11T2200,2709A,86.0391,44.298,石河子市,艾青诗歌馆,,36,23,60,7,19,115,115,129,127,12,7,4,4,0.4,0.4
2026-07-11T2200,3442A,86.047,44.2331,石河子市,南区管委会,,37,28,66,9,14,116,116,121,120,5,5,5,6,0.3,0.3
2026-07-11T2200,4051A,86.0791,44.3018,石河子市,世纪广场,NA,NA,13,70,NA,21,100,100,132,128,10,8,2,2,0.7,0.6
