timepoint,stationcode,longitude,latitude,area,positionname,primarypollutant,aqi,pm10,pm10_24h,pm2_5,pm2_5_24h,o3,o3_24h,o3_8h,o3_8h_24h,no2,no2_24h,so2,so2_24h,co,co_24h
2026-05-29T0000,2568A,102.2503,31.8896,阿坝藏族羌族自治州,马师校,,29,29,22,6,9,56,56,90,67,4,5,7,7,0.4,0.4
2026-05-29T0000,3994A,102.2174,31.9016,阿坝藏族羌族自治州,马尔康中学西区,,27,27,16,6,8,66,66,88,72,4,6,6,6,0.3,0.3
2026-05-29T0000,2695A,80.2899,41.1684,阿克苏地区,电视台,细颗粒物(PM2.5),182,200,92,137,53,20,20,109,88,61,9,3,3,1.6,0.8
2026-05-29T0000,2696A,80.2592,41.1541,阿克苏地区,艺术中心,颗粒物(PM10),141,225,85,104,42,3,3,109,83,92,19,6,4,1.3,0.5
2026-05-29T0000,2205A,105.699,38.8409,阿拉善盟,蒙二幼,,41,33,21,8,3,129,129,122,122,1,4,9,8,0.3,0.2
2026-05-29T0000,2206A,105.7198,38.8508,阿拉善盟,环保局新楼,,42,30,19,3,3,134,134,122,122,5,3,11,10,0.4,0.3
2026-05-29T0000,2708A,88.1266,47.8515,阿勒泰地区,市站,颗粒物(PM10),66,72,27,30,5,61,61,115,86,18,12,7,7,0.5,0.3
2026-05-29T0000,4166A,88.1198,47.7931,阿勒泰地区,阿勒泰路33号,颗粒物(PM10),63,67,27,12,3,68,68,118,100,18,8,5,5,0.2,0.1
2026-05-29T0000,2630A,80.1171,32.4999,阿里地区,阿里监测站,,41,22,20,7,4,129,129,158,152,1,4,6,4,0.3,0.3
2026-05-29T0000,3192A,80.0906,32.5029,阿里地区,阿里藏医院,,43,21,18,3,3,135,135,152,145,2,2,4,3,0.2,0.2
2026-05-29T0000,2644A,109.0088,32.6974,安康市,汉滨区检察院,,36,36,31,13,12,12,12,54,38,21,14,6,6,0.5,0.5
2026-05-29T0000,4054A,109.0324,32.6913,安康市,市邮政管理局,,35,35,29,14,13,21,21,66,51,19,11,2,3,0.4,0.5
2026-05-29T0000,2291A,117.0806,30.5181,安庆市,环科院,,49,49,32,28,18,57,57,143,116,42,17,8,8,0.7,0.6
2026-05-29T0000,2292A,117.0331,30.5118,安庆市,马山宾馆,颗粒物(PM10),55,56,35,29,18,66,66,142,116,44,17,9,7,0.4,0.4
2026-05-29T0000,2294A,116.9897,30.6146,安庆市,安庆大学,颗粒物(PM10),52,52,33,26,16,86,86,134,112,17,11,3,4,0.5,0.5
2026-05-29T0000,3173A,117.0598,30.5351,安庆市,市人大,,49,48,34,34,18,62,62,137,117,29,15,6,5,0.7,0.6
2026-05-29T0000,3123A,105.9408,26.2431,安顺市,凤凰山,,22,22,19,11,12,42,42,78,62,15,10,5,6,0.7,0.6
2026-05-29T0000,3124A,105.9443,26.2567,安顺市,金钟山,,18,16,16,12,12,44,44,71,65,10,7,8,6,0.7,0.6
2026-05-29T0000,3125A,105.8983,26.248,安顺市,娄家坡,NA,NA,NA,20,NA,14,NA,NA,76,NA,NA,9,NA,10,NA,0.7
2026-05-29T0000,1819A,114.3552,36.1017,安阳市,红庙街,,46,46,52,21,15,74,74,127,104,17,12,5,6,0.4,0.5
2026-05-29T0000,1820A,114.361,36.0681,安阳市,银杏小区,,48,48,54,31,18,74,74,135,105,16,13,6,7,0,0.2
2026-05-29T0000,3141A,114.3921,36.0879,安阳市,信访局,,38,38,48,24,18,74,74,132,109,24,7,6,6,0.3,0.4
2026-05-29T0000,3669A,114.4706,36.0634,安阳市,左辅环卫站,,46,46,54,13,16,60,60,123,87,34,15,10,4,0.4,0.5
2026-05-29T0000,4117A,114.2918,36.0769,安阳市,钢三路198号,颗粒物(PM10),54,55,54,24,17,67,67,131,98,15,12,5,7,0.4,0.6
2026-05-29T0000,1748A,123.0441,41.1201,鞍山市,深沟寺,,20,12,38,6,22,64,64,118,92,22,19,10,10,0.6,0.9
2026-05-29T0000,1749A,123.011,41.0931,鞍山市,太阳城,,21,14,39,6,29,67,67,118,94,17,17,8,11,0.5,1.1
2026-05-29T0000,1750A,123.0483,41.1445,鞍山市,太平,,35,35,52,11,22,40,40,118,82,31,22,8,9,0.9,1
2026-05-29T0000,1751A,122.964,41.0968,鞍山市,铁西三道街,颗粒物(PM10),54,55,56,15,29,42,42,118,82,47,26,9,10,0.9,1.2
2026-05-29T0000,1753A,123.0219,41.0822,鞍山市,明达新区,,19,14,43,3,29,60,60,111,86,19,20,6,10,0.4,0.9
2026-05-29T0000,4201A,122.944647,41.082639,鞍山市,兴盛南路290号,颗粒物(PM10),65,70,48,24,34,4,4,116,69,81,29,10,11,1.1,1
2026-05-29T0000,2195A,107.4206,40.7609,巴彦淖尔市,附二中,颗粒物(PM10),52,52,30,31,12,34,34,126,99,46,14,9,10,0.9,0.5
2026-05-29T0000,2196A,107.37,40.7372,巴彦淖尔市,市环保大楼,,33,33,29,15,7,76,76,131,115,19,9,7,8,0.6,0.4
2026-05-29T0000,1956A,86.1476,41.7529,巴音郭楞蒙古自治州,孔雀公园,颗粒物(PM10),142,229,171,96,68,69,69,95,84,12,26,4,4,0.3,0.4
2026-05-29T0000,1957A,86.1971,41.7166,巴音郭楞蒙古自治州,棉纺厂,细颗粒物(PM2.5),111,NA,202,72,79,87,87,99,92,7,20,/,/,/,/
2026-05-29T0000,1958A,86.236,41.7172,巴音郭楞蒙古自治州,经济开发区,细颗粒物(PM2.5),118,162,161,79,60,75,75,95,84,7,7,1,2,0.3,0.2
2026-05-29T0000,3181A,106.776805,31.852614,巴中市,市五中,,27,27,24,14,12,26,26,69,52,9,9,6,6,0.5,0.6
2026-05-29T0000,3183A,106.7419,31.8654,巴中市,圣泉水务公司,,26,26,20,18,12,13,13,84,63,37,9,7,7,0.5,0.5
2026-05-29T0000,3616A,106.7617,31.8343,巴中市,市中心医院,,25,25,22,14,13,37,37,78,67,13,11,6,6,0.7,0.7
2026-05-29T0000,2235A,122.7909,45.608,白城市,洮北区环保局,,34,29,26,10,8,5,5,133,83,67,14,6,4,0.3,0.3
2026-05-29T0000,2236A,122.8741,45.5725,白城市,市环保局,,39,39,23,11,7,33,33,105,69,49,18,6,5,0.3,0.2
2026-05-29T0000,2231A,126.4219,41.9172,白山市,喜丰,,31,31,29,6,12,24,24,109,69,24,14,9,10,0.6,0.7
2026-05-29T0000,2232A,126.4082,41.9416,白山市,环保局,,22,22,22,8,10,30,30,115,78,12,9,11,10,0.5,0.7
2026-05-29T0000,2647A,104.1727,36.5448,白银市,第三小学,,44,44,44,23,22,75,75,106,96,20,6,6,10,0.8,0.5
2026-05-29T0000,2648A,104.1467,36.5482,白银市,动力公司,,40,40,51,21,22,58,58,109,92,33,8,7,13,0.4,0.5
2026-05-29T0000,2512A,106.6102,23.901,百色市,市监测站,,19,NA,27,12,16,58,58,113,82,7,10,6,10,0.5,0.5
2026-05-29T0000,2513A,106.6524,23.8842,百色市,市中心血站,,30,30,35,7,24,38,38,113,82,23,9,7,12,0.6,0.7
2026-05-29T0000,4133A,106.6273,23.8798,百色市,龙景西路,,25,25,42,11,20,61,61,118,83,8,10,9,14,0.5,0.6
2026-05-29T0000,2270A,117.396,32.9389,蚌埠市,工人疗养院,颗粒物(PM10),60,63,66,15,19,107,107,161,139,20,17,7,6,0.3,0.5
2026-05-29T0000,2271A,117.3606,32.9428,蚌埠市,百货大楼,颗粒物(PM10),54,55,57,10,15,110,110,162,141,15,13,9,8,0.4,0.5
2026-05-29T0000,2273A,117.4183,32.8909,蚌埠市,蚌埠学院,颗粒物(PM10),53,53,56,10,18,120,120,166,148,11,12,7,6,0.3,0.4
2026-05-29T0000,2274A,117.3534,32.9672,蚌埠市,淮上区政府,颗粒物(PM10),58,61,60,16,17,98,98,164,135,23,15,7,6,0.3,0.4
2026-05-29T0000,2275A,117.3143,32.8977,蚌埠市,高新区,颗粒物(PM10),56,58,59,18,20,95,95,152,127,24,19,8,7,0.3,0.3
2026-05-29T0000,3715A,117.3091,32.9314,蚌埠市,蚌埠田家炳中学,颗粒物(PM10),65,70,68,20,21,95,95,160,129,21,19,7,8,0.4,0.5
2026-05-29T0000,1585A,109.8761,40.6533,包头市,市环境监测站,,41,41,18,17,8,47,47,112,89,47,14,6,7,0.7,0.4
2026-05-29T0000,1587A,109.9992,40.5843,包头市,包头八中,,45,45,18,30,10,39,39,113,NA,48,17,18,7,0.4,0.4
2026-05-29T0000,1589A,109.8641,40.6288,包头市,惠龙物流,,33,33,14,14,7,75,75,110,97,30,12,10,9,0.5,0.3
2026-05-29T0000,1590A,110.0376,40.5546,包头市,东河鸿龙湾,,46,46,17,29,10,38,38,116,NA,51,18,16,11,0.6,0.4
2026-05-29T0000,3283A,109.9154,40.5684,包头市,滨河大厦,,45,40,13,31,9,45,45,108,85,57,24,34,8,0.6,0.2
2026-05-29T0000,3419A,109.9449,40.6259,包头市,包头市委党校,,42,26,13,16,8,12,12,111,92,84,16,8,8,0.6,0.4
2026-05-29T0000,3683A,109.8332,40.6577,包头市,昆区政府,,24,20,10,14,10,76,76,106,93,33,13,6,9,0.5,0.6
2026-05-29T0000,1931A,107.0802,34.3129,宝鸡市,竹园沟,,36,36,52,14,19,68,68,66,59,6,5,8,8,0.2,0.3
2026-05-29T0000,1933A,107.1429,34.3549,宝鸡市,监测站,,44,44,55,17,20,43,43,64,59,9,10,7,7,0.2,0.3
2026-05-29T0000,1934A,107.1172,34.3759,宝鸡市,技工学校,,37,37,54,21,23,35,35,72,58,11,8,5,6,0.5,0.5
2026-05-29T0000,1936A,107.2025,34.3518,宝鸡市,文理学院,颗粒物(PM10),52,52,59,21,23,42,42,70,62,14,14,6,6,0.4,0.4
2026-05-29T0000,1937A,107.2396,34.3626,宝鸡市,三迪小学,颗粒物(PM10),53,54,63,22,24,34,34,72,62,18,16,6,7,0.4,0.4
2026-05-29T0000,4155A,107.1721,34.3558,宝鸡市,滨河北路,颗粒物(PM10),53,53,56,23,21,37,37,66,60,10,9,8,8,0.5,0.5
2026-05-29T0000,4308A,107.3898,34.3601,宝鸡市,陈仓区北开路21号,,47,47,62,21,26,35,35,64,47,24,18,8,6,0.4,0.4
2026-05-29T0000,1051A,115.4803,38.8568,保定市,游泳馆,,39,39,29,20,8,53,53,117,97,29,6,3,4,0.2,0.1
2026-05-29T0000,1052A,115.509,38.8895,保定市,华电二区,,33,33,23,15,6,56,56,110,95,24,11,5,3,0.4,0.3
2026-05-29T0000,1053A,115.4588,38.9037,保定市,接待中心,,47,47,31,23,9,46,46,116,99,31,11,1,2,0.4,0.2
2026-05-29T0000,1054A,115.4484,38.8344,保定市,地表水厂,NA,NA,77,32,33,8,18,18,118,90,NA,10,3,2,0.4,0.1
2026-05-29T0000,3581A,115.3136,38.9511,保定市,满城区生态环境分局,,34,34,33,21,7,45,45,124,94,39,14,1,1,0.1,0
2026-05-29T0000,3582A,115.4709,38.7628,保定市,清苑区第二中学,颗粒物(PM10),68,74,43,23,10,77,77,117,93,24,9,2,2,0.4,0.3
2026-05-29T0000,3583A,115.6231,39.0223,保定市,徐水物探局,颗粒物(PM10),58,60,32,27,9,43,43,117,93,34,11,2,2,0.4,0.4
2026-05-29T0000,4004A,115.4199,38.8665,保定市,双鹰农机,颗粒物(PM10),57,59,29,21,8,60,60,120,99,20,6,2,1,0.1,0
2026-05-29T0000,4034A,115.515,38.8589,保定市,植保所站,,48,48,37,11,6,57,57,119,99,40,8,3,2,0.2,0.1
2026-05-29T0000,2594A,99.1589,25.1137,保山市,市环境监测站,颗粒物(PM10),57,59,57,34,29,71,71,98,89,6,7,5,6,0.3,0.3
2026-05-29T0000,2595A,99.1616,25.1381,保山市,市环保局,颗粒物(PM10),64,69,64,34,35,80,80,99,NA,3,5,4,4,0.3,0.3
2026-05-29T0000,1867A,109.1435,21.4085,北海市,海滩公园,,30,30,40,18,19,92,92,98,88,6,7,1,2,0.4,0.5
2026-05-29T0000,1868A,109.0983,21.466,北海市,新市环保局,,30,12,26,11,21,96,96,100,90,6,8,1,3,0.4,0.4
2026-05-29T0000,1869A,109.1775,21.5232,北海市,北海工业园,,43,43,34,21,21,70,70,94,81,12,9,2,3,0.6,0.5
2026-05-29T0000,3400A,109.1844,21.4396,北海市,龙潭自来水厂,,26,26,26,17,16,79,79,96,77,7,7,4,3,0.6,0.6
2026-05-29T0000,1001A,116.3611,39.8786,北京市,万寿西宫,,38,38,16,10,5,76,76,114,101,32,12,3,3,0.2,0.2
2026-05-29T0000,1003A,116.4174,39.9289,北京市,东四,,33,33,16,11,5,86,86,118,108,28,14,4,4,0.4,0.3
2026-05-29T0000,1004A,116.4073,39.8858,北京市,天坛,,27,27,15,9,5,53,53,105,75,27,17,1,2,0.2,0.2
2026-05-29T0000,1005A,116.4622,39.9364,北京市,农展馆,,34,34,16,8,4,82,82,108,NA,26,15,3,3,0.2,0.2
2026-05-29T0000,1006A,116.3399,39.9293,北京市,官园,,32,32,15,10,5,84,84,106,98,31,19,5,5,0.1,0.1
2026-05-29T0000,1007A,116.2879,39.9613,北京市,海淀万柳,,31,31,18,10,5,65,65,101,82,28,16,3,3,0.2,0.2
2026-05-29T0000,1008A,116.6635,40.1349,北京市,顺义新城,,35,35,17,14,6,12,12,109,76,60,13,3,3,0.5,0.3
2026-05-29T0000,1009A,116.6275,40.327,北京市,怀柔镇,,23,13,11,6,4,72,72,123,93,6,6,1,1,0.2,0.2
2026-05-29T0000,1010A,116.2295,40.217,北京市,昌平镇,,21,17,17,7,5,67,67,107,91,15,12,3,3,0.3,0.3
2026-05-29T0000,1011A,116.3968,39.982,北京市,奥体中心,,29,29,17,9,6,75,75,92,85,26,18,3,3,0.2,0.1
2026-05-29T0000,3418A,116.8336,40.4095,北京市,密云新城,,23,23,15,8,6,25,25,102,66,22,14,1,1,0.2,0.1
2026-05-29T0000,3671A,116.0879,39.9725,北京市,门头沟三家店,,21,15,16,6,6,66,66,103,78,14,12,3,3,0.2,0.2
2026-05-29T0000,3672A,116.1507,39.8246,北京市,丰台云岗,颗粒物(PM10),74,83,20,3,5,30,30,110,77,49,18,2,3,0.2,0.2
2026-05-29T0000,3674A,115.9578,39.7602,北京市,房山燕山,,22,22,15,7,3,63,63,90,86,15,9,2,2,0.4,0.2
2026-05-29T0000,3675A,116.4669,39.7734,北京市,大兴旧宫,,32,32,16,11,6,57,57,111,88,35,14,2,1,0.4,0.3
2026-05-29T0000,3694A,115.9859,40.4562,北京市,延庆石河营,,42,42,13,14,5,2,2,107,60,62,18,2,2,0.2,0.2
2026-05-29T0000,3695A,116.6151,40.3052,北京市,怀柔新城,,23,12,10,3,3,72,72,103,90,9,8,3,3,0.4,0.3
2026-05-29T0000,3696A,116.2542,39.8764,北京市,丰台小屯,,50,50,17,13,5,35,35,102,80,49,12,2,2,0.3,0.2
2026-05-29T0000,3697A,116.8399,40.3843,北京市,密云镇,,22,22,20,6,8,46,46,107,73,21,18,2,2,0.4,0.4
2026-05-29T0000,4057A,115.9423,40.4431,北京市,延庆百泉,,30,27,13,8,3,1,1,109,72,59,8,1,1,0.3,0.2
2026-05-29T0000,4058A,116.6598,39.9164,北京市,通州新华,,29,29,23,11,6,68,68,102,88,27,18,2,2,0.4,0.3
2026-05-29T0000,4182A,116.1942,39.9158,北京市,石景山八角,颗粒物(PM10),109,141,36,10,6,52,52,103,85,26,12,2,2,0.2,0.2
2026-05-29T0000,4194A,117.078628,40.151726,北京市,平谷新城,,25,25,20,11,8,32,32,100,73,16,8,2,2,0.3,0.3
2026-05-29T0000,1761A,123.8274146,41.31234549,本溪市,大峪,,15,13,27,3,15,30,30,121,76,29,15,6,6,0.5,0.9
2026-05-29T0000,1763A,123.7169,41.3094,本溪市,彩屯,,23,22,28,7,24,21,21,120,62,45,23,5,7,0.6,0.8
2026-05-29T0000,1764A,123.7672166,41.28649327,本溪市,东明,,32,32,46,9,23,37,37,123,78,39,25,6,8,0.6,0.9
2026-05-29T0000,1765A,123.799345,41.266614,本溪市,新立屯,,19,19,39,3,23,49,49,129,70,35,24,8,9,0.4,0.8
2026-05-29T0000,1766A,123.829144,41.336777,本溪市,威宁,,31,31,32,3,14,19,19,122,67,34,22,7,7,0.5,0.8
2026-05-29T0000,2587A,105.287,27.3133,毕节市,八中,,19,12,15,9,7,58,58,62,42,3,6,6,7,0.5,0.6
2026-05-29T0000,2588A,105.3079,27.2987,毕节市,师专,,19,8,10,7,6,58,58,59,43,4,5,5,5,0.6,0.7
2026-05-29T0000,4263A,105.3688,27.3598,毕节市,工业大道,,22,NA,8,8,6,68,68,69,52,4,5,10,10,/,/
2026-05-29T0000,1629A,117.9961,37.3604,滨州市,第二水厂,,34,34,44,3,13,84,84,133,116,16,15,6,6,0.1,0.3
2026-05-29T0000,1630A,117.9789,37.3931,滨州市,北中新校,,31,31,36,3,12,59,59,136,98,32,17,6,6,0.3,0.3
2026-05-29T0000,3514A,117.9379,37.3959,滨州市,中海酒店,,34,34,31,3,13,52,52,140,110,49,18,7,8,0.4,0.4
2026-05-29T0000,3515A,117.9381509,37.35547456,滨州市,开发区一中,,31,31,34,3,14,66,66,134,117,39,19,5,6,0.4,0.4
2026-05-29T0000,3516A,118.0914,37.6938,滨州市,金海六路,,44,32,35,3,14,19,19,140,96,87,26,4,5,0.4,0.4
2026-05-29T0000,4028A,117.9955,37.3752,滨州市,滨州市西街道办事处,,25,19,31,3,13,79,79,134,109,19,13,5,5,0.6,0.5
2026-05-29T0000,2311A,115.8071,33.8399,亳州市,污水处理厂,,39,39,45,3,10,84,84,128,101,12,13,5,6,0.1,0.2
2026-05-29T0000,2312A,115.7789,33.8519,亳州市,三国揽胜宫,,40,40,51,3,11,99,99,133,115,8,10,4,5,0.0,0.1
2026-05-29T0000,3332A,115.7631,33.803,亳州市,亳州学院,,34,31,37,3,10,106,106,135,119,9,12,4,5,0.1,0.2
2026-05-29T0000,2693A,82.0482,44.8553,博尔塔拉蒙古自治州,市党校,,32,14,36,14,7,101,101,118,114,6,6,2,3,0.2,0.2
2026-05-29T0000,2694A,82.0805,44.8966,博尔塔拉蒙古自治州,市环保局,,30,27,33,14,19,96,96,121,116,10,9,3,3,0.3,0.3
2026-05-29T0000,1071A,116.8733,38.2922,沧州市,沧县城建局,,48,48,43,21,16,60,60,125,105,28,14,5,5,0.5,0.2
2026-05-29T0000,1072A,116.8462,38.3189,沧州市,电视转播站,,46,46,41,3,16,54,54,123,101,25,17,7,6,0.3,0.3
2026-05-29T0000,1073A,116.8588,38.3161,沧州市,市环保局,,48,48,46,17,17,70,70,132,110,23,14,3,3,0.3,0.2
2026-05-29T0000,3324A,116.8011,38.294,沧州市,河北水利电力学院,,37,27,29,17,16,33,33,130,108,73,20,1,2,0.4,0.2
2026-05-29T0000,2622A,97.1813,31.1289,昌都市,昌都监测站,,30,NA,7,3,3,95,95,112,104,6,7,1,6,0.4,0.4
2026-05-29T0000,3719A,97.1707,31.1428,昌都市,昌都会议中心,,34,13,8,3,4,107,107,127,118,4,4,9,9,0.6,0.6
2026-05-29T0000,2692A,87.2722,44.0298,昌吉回族自治州,新区政务中心,,43,43,46,13,16,93,93,128,114,18,10,7,5,0.3,0.3
2026-05-29T0000,3613A,87.3069,44.0093,昌吉回族自治州,亚心广场,颗粒物(PM10),56,58,64,21,16,103,103,131,119,26,14,8,7,0.2,0.1
2026-05-29T0000,4164A,87.2057,43.9289,昌吉回族自治州,财政所,颗粒物(PM10),60,64,68,16,17,88,88,128,115,8,7,9,8,0.3,0.3
2026-05-29T0000,1120A,125.2874,43.9024,长春市,客车厂,,42,42,25,22,16,38,38,97,48,52,33,6,6,0.3,0.3
2026-05-29T0000,1121A,125.2943,43.8508,长春市,邮电学院,,33,30,18,17,14,21,21,101,64,66,22,7,6,0.5,0.5
2026-05-29T0000,1122A,125.3648,43.8745,长春市,劳动公园,颗粒物(PM10),53,53,24,16,14,22,22,106,66,61,25,6,6,0.4,0.5
2026-05-29T0000,1123A,125.3233,43.8781,长春市,园林处,,36,36,20,17,15,39,39,103,69,43,19,4,3,0.5,0.5
2026-05-29T0000,1124A,125.4604,43.7904,长春市,净月潭,,18,18,13,8,9,25,25,102,74,30,11,4,5,0.3,0.3
2026-05-29T0000,1126A,125.38,43.8422,长春市,经开区环卫处,,40,40,22,16,16,9,9,106,65,76,24,5,5,0.4,0.4
2026-05-29T0000,1127A,125.234,43.7761,长春市,高新区管委会,,38,29,20,11,12,1,1,102,52,76,27,7,6,0.4,0.5
2026-05-29T0000,1128A,125.1695,43.83,长春市,岱山公园,颗粒物(PM10),51,51,27,18,12,3,3,110,56,86,33,4,3,0.4,0.4
2026-05-29T0000,4281A,125.334645,43.916281,长春市,北亚泰大街1068号,,42,42,24,17,16,42,42,99,57,50,29,5,5,0.4,0.4
2026-05-29T0000,1335A,113.082,28.2421,长沙市,经开区环保局,,39,38,31,27,18,73,73,107,92,16,10,5,4,0.6,0.6
2026-05-29T0000,1336A,112.8873,28.2202,长沙市,高开区环保局,,35,31,30,24,21,97,97,121,110,7,5,7,6,0.4,0.4
2026-05-29T0000,1337A,113.0785,28.2012,长沙市,马坡岭,细颗粒物(PM2.5),66,NA,33,43,26,82,82,114,99,16,12,7,6,0.8,0.8
2026-05-29T0000,1338A,112.9448,28.1894,长沙市,湖南师范大学,,31,30,26,21,21,99,99,121,107,6,7,6,6,1.0,0.8
2026-05-29T0000,1339A,113.0177,28.1322,长沙市,雨花区环保局,,36,28,29,25,19,88,88,115,102,8,6,6,5,0.9,0.9
2026-05-29T0000,1340A,112.9795,28.2593,长沙市,伍家岭,,38,35,32,26,20,88,88,111,96,10,9,4,4,0.6,0.6
2026-05-29T0000,1341A,113.002,28.1944,长沙市,火车新站,,40,31,31,28,20,90,90,111,98,9,9,8,8,0.5,0.5
2026-05-29T0000,1342A,112.9846,28.1177,长沙市,天心区环保局,,43,34,31,30,23,96,96,126,108,12,11,5,5,0.6,0.6
2026-05-29T0000,1343A,112.8906,28.1307,长沙市,湖南中医药大学,,36,30,30,25,21,101,101,123,110,10,10,7,6,0.6,0.6
2026-05-29T0000,1727A,113.1146,36.1547,长治市,清华站,,40,28,35,10,8,127,127,131,119,9,13,10,11,0.6,0.5
2026-05-29T0000,1730A,113.0887,36.2126,长治市,审计局,NA,NA,NA,33,NA,8,NA,NA,126,NA,14,14,14,11,0.5,0.4
2026-05-29T0000,1731A,113.0845,36.1856,长治市,长治八中,颗粒物(PM10),83,96,44,12,9,110,110,124,115,17,16,12,12,0.5,0.3
2026-05-29T0000,2845A,113.1561,36.1912,长治市,德盛苑,,37,19,29,8,10,117,117,131,120,10,14,10,13,0.3,0.3
2026-05-29T0000,3568A,113.0603,36.0464,长治市,向阳小学,颗粒物(PM10),58,61,69,8,12,96,96,133,118,14,15,14,12,0.9,0.5
2026-05-29T0000,3569A,112.8788,36.315,长治市,屯留一中,,22,20,28,12,10,68,68,121,101,31,18,10,10,0.2,0.1
2026-05-29T0000,4189A,113.113092,36.199482,长治市,英华南巷50号,,38,38,39,3,11,119,119,131,119,14,15,12,11,0.6,0.5
2026-05-29T0000,4190A,113.23666,36.33435,长治市,学府街1号,,35,35,44,10,12,111,111,119,115,15,17,7,9,0.5,0.5
2026-05-29T0000,1854A,111.696,28.9725,常德市,市二中,,38,38,25,20,19,57,57,83,NA,9,7,8,7,1.2,1.2
2026-05-29T0000,3138A,111.7152,29.0288,常德市,武陵区永安,,42,40,23,29,14,76,76,85,73,6,4,6,6,0.8,0.8
2026-05-29T0000,3139A,111.6891,28.9881,常德市,鼎城区玉霞,,35,35,24,21,20,62,62,86,66,10,10,9,7,1.0,1
2026-05-29T0000,3140A,111.6651,29.0526,常德市,武陵区长庚,,38,38,24,15,19,68,68,81,66,10,9,8,8,0.8,0.9
2026-05-29T0000,1196A,119.9524,31.7586,常州市,市监测站,,48,39,40,33,22,45,45,156,103,56,19,5,4,0.7,0.6
2026-05-29T0000,1200A,119.9351,31.703,常州市,武进监测站,颗粒物(PM10),54,55,34,32,18,53,53,134,100,42,12,9,7,1.0,0.9
2026-05-29T0000,3002A,119.9701,31.813,常州市,行政中心,NA,NA,74,41,37,22,24,24,142,105,82,18,NA,6,0.6,0.6
2026-05-29T0000,3003A,120.0434,31.7726,常州市,经开区,颗粒物(PM10),99,118,55,47,23,28,28,149,110,84,25,8,4,1.2,0.9
2026-05-29T0000,3010A,119.8919,31.7892,常州市,钟楼,细颗粒物(PM2.5),56,55,34,38,21,34,34,143,106,76,22,8,7,0.9,0.8
2026-05-29T0000,3429A,119.8595,31.706,常州市,武进经发区,NA,NA,66,40,33,21,34,34,126,101,NA,7,7,6,0.9,0.9
2026-05-29T0000,3430A,119.5812,31.7256,常州市,金坛城区,细颗粒物(PM2.5),76,78,36,48,20,90,90,137,126,22,10,13,7,0.9,0.8
2026-05-29T0000,4089A,119.9551,31.863,常州市,崇义南街5-H号,颗粒物(PM10),79,90,49,41,21,23,23,150,95,67,22,10,8,1.1,0.9
2026-05-29T0000,2220A,120.4318,41.588,朝阳市,西梁,,44,44,33,16,8,42,42,117,78,37,20,5,6,0.5,0.5
2026-05-29T0000,2221A,120.452,41.565,朝阳市,河畔小区,,20,20,30,11,9,62,62,120,92,26,15,7,8,0.3,0.3
2026-05-29T0000,2222A,120.4176,41.5648,朝阳市,八里堡,细颗粒物(PM2.5),56,52,43,38,14,30,30,120,79,47,21,4,5,0.6,0.5
2026-05-29T0000,3026A,116.6179,23.6608,潮州市,市政府,,36,31,52,25,29,60,60,143,93,15,13,6,10,0.6,0.7
2026-05-29T0000,4036A,116.646,23.676,潮州市,金山,,45,31,44,31,27,61,61,144,97,14,10,4,5,0.6,0.6
2026-05-29T0000,2473A,113.0116,25.8228,郴州市,市职中,,46,NA,30,32,39,26,26,91,48,16,8,7,8,1.2,1.2
2026-05-29T0000,2475A,113.0381,25.8074,郴州市,市审计局,,42,30,41,29,38,48,48,91,60,10,10,4,4,/,/
2026-05-29T0000,2476A,113.0348,25.7757,郴州市,市环保局,NA,NA,NA,38,NA,42,NA,NA,98,NA,NA,10,NA,7,NA,0.8
2026-05-29T0000,4252A,113.0138,25.8011,郴州市,好美居路49号,NA,NA,34,43,NA,29,NA,NA,95,64,16,9,NA,10,/,/
2026-05-29T0000,1431A,103.9727,30.7242,成都市,金泉两河,颗粒物(PM10),57,59,46,28,23,42,42,136,102,26,12,3,3,0.4,0.4
2026-05-29T0000,1432A,104.1423,30.6765,成都市,十里店,颗粒物(PM10),57,59,54,28,24,74,74,125,104,22,10,5,4,0.4,0.4
2026-05-29T0000,1433A,104.0594,30.5765,成都市,三瓦窑,,50,50,56,26,24,44,44,127,96,35,17,7,3,0.6,0.5
2026-05-29T0000,1434A,104.1122,30.6306,成都市,沙河铺,颗粒物(PM10),53,54,56,29,21,72,72,115,97,22,12,5,5,0.1,0.1
2026-05-29T0000,2880A,104.0219,30.6561,成都市,大石西路,颗粒物(PM10),53,54,54,26,25,51,51,123,98,29,15,4,4,0.4,0.4
2026-05-29T0000,3136A,104.2724,30.559,成都市,龙泉驿区区政府,,46,46,47,26,21,83,83,121,106,14,9,7,7,0.5,0.5
2026-05-29T0000,3357A,104.0028,30.6891,成都市,金博路,,37,37,42,25,23,52,52,135,106,27,14,6,6,0.6,0.5
2026-05-29T0000,3359A,104.056,30.5228,成都市,华阳,颗粒物(PM10),53,53,50,23,22,56,56,126,103,19,12,5,2,0.5,0.4
2026-05-29T0000,3488A,104.387954,30.746684,成都市,青石路225号,NA,NA,51,47,21,19,NA,NA,114,104,11,6,4,4,0.2,0.2
2026-05-29T0000,3489A,104.0788,30.4054,成都市,科学城,,38,38,45,17,21,61,61,125,104,18,11,5,5,0.7,0.7
2026-05-29T0000,4011A,103.8505,30.6946,成都市,光华大道三段,颗粒物(PM10),58,60,48,30,22,45,45,132,94,26,12,3,4,0.4,0.3
2026-05-29T0000,4144A,104.3257,30.6406,成都市,八角井街185号,颗粒物(PM10),53,53,56,25,20,82,82,114,99,12,9,6,6,0.4,0.4
2026-05-29T0000,4224A,104.2433276,30.53529463,成都市,鲸龙路1057号,颗粒物(PM10),57,59,51,29,20,97,97,127,114,11,12,7,7,0.5,0.5
2026-05-29T0000,1062A,117.9531,40.908,承德市,铁路,,26,26,21,7,6,32,32,104,64,16,11,1,2,0.2,0.2
2026-05-29T0000,1063A,117.9397,40.9763,承德市,中国银行,,22,22,20,3,7,25,25,101,66,14,8,2,2,0.2,0.2
2026-05-29T0000,4073A,117.9462,40.95,承德市,杏林街1号,,20,NA,22,14,13,26,26,106,69,26,14,2,2,0.4,0.2
2026-05-29T0000,4274A,117.7994,40.9605,承德市,滨河大街98号,,25,25,17,14,6,33,33,108,71,20,8,2,2,0.4,0.2
2026-05-29T0000,2314A,117.4698,30.6617,池州市,池州学院,,43,43,32,25,19,82,82,148,128,18,17,4,4,0.7,0.5
2026-05-29T0000,3237A,117.4918,30.6617,池州市,展览馆,,37,37,32,21,18,90,90,154,126,14,13,2,3,0.6,0.4
2026-05-29T0000,3333A,117.5626,30.695,池州市,第八中学,,39,39,32,20,17,80,80,145,118,18,12,4,4,0.6,0.3
2026-05-29T0000,3334A,117.5037,30.6242,池州市,第十二中学,,37,37,33,22,18,70,70,153,114,21,16,6,5,1.6,0.7
2026-05-29T0000,1744A,118.9229,42.2816,赤峰市,松山一中,,26,20,17,7,8,81,81,131,93,17,18,7,8,0.4,0.4
2026-05-29T0000,1745A,118.9588,42.2733,赤峰市,哈达街,,30,30,19,9,8,71,71,126,90,19,16,9,10,0.4,0.4
2026-05-29T0000,1746A,118.8792,42.2551,赤峰市,天义路,,21,NA,11,7,6,66,66,106,74,11,14,5,5,0.3,0.4
2026-05-29T0000,3058A,119.2656,42.0356,赤峰市,银河街,,22,20,28,8,9,69,69,124,95,12,10,8,10,0.5,0.5
2026-05-29T0000,3286A,118.9359,42.3146,赤峰市,桥北物流园区,,23,17,20,6,8,72,72,120,77,15,18,3,3,0.3,0.3
2026-05-29T0000,2521A,107.3473,22.4137,崇左市,市环保局江州分局,,36,36,32,17,17,43,43,102,76,10,11,3,2,0.5,0.4
2026-05-29T0000,4256A,107.375,22.3736,崇左市,石景林东路7号,,33,29,27,23,17,26,26,106,76,36,16,2,2,0.6,0.6
2026-05-29T0000,3207A,118.31131,32.3033,滁州市,市政府原办公楼,细颗粒物(PM2.5),56,55,28,38,27,104,104,142,127,12,5,5,5,0.5,0.5
2026-05-29T0000,3331A,118.3268,32.2633,滁州市,图书馆,颗粒物(PM10),57,59,39,38,19,97,97,140,120,10,4,9,10,0.9,0.7
2026-05-29T0000,4101A,118.3196,32.3335,滁州市,银山路666号,颗粒物(PM10),53,54,43,29,22,98,98,141,119,18,9,5,6,0.4,0.4
2026-05-29T0000,4102A,118.3426,32.2979,滁州市,黄山路555号,颗粒物(PM10),63,67,45,37,23,90,90,155,129,11,6,5,7,0.6,0.6
2026-05-29T0000,2606A,101.5379,25.0492,楚雄彝族自治州,市经济开发区,颗粒物(PM10),122,175,63,40,26,75,75,89,81,7,10,2,2,0.7,0.6
2026-05-29T0000,4153A,101.5536,25.0343,楚雄彝族自治州,团结路562号,,44,44,45,25,25,86,86,100,93,5,8,3,3,0.5,0.5
2026-05-29T0000,2549A,107.5087,31.2186,达州市,市环境监测站,,14,13,16,3,2,44,44,75,NA,16,12,9,7,0.2,0.2
2026-05-29T0000,2550A,107.4988,31.2132,达州市,凤凰小区,,16,14,14,3,2,49,49,80,65,16,8,8,5,0.1,0.2
2026-05-29T0000,2551A,107.5081,31.1987,达州市,达县机关宾馆,,19,19,14,3,5,36,36,71,42,33,22,8,5,0.3,0.4
2026-05-29T0000,2552A,107.4644,31.2124,达州市,市政中心,,24,19,20,3,3,74,74,80,72,10,11,9,5,0.3,0.3
2026-05-29T0000,2614A,100.2168,25.5818,大理白族自治州,大理市环境监测站,颗粒物(PM10),61,65,47,28,24,94,94,103,100,7,7,4,4,0.6,0.6
2026-05-29T0000,2615A,100.1542,25.7055,大理白族自治州,大理古城,,45,45,45,20,22,66,66,101,87,14,8,8,8,0.6,0.6
2026-05-29T0000,1109A,121.6119,38.974,大连市,甘井子,,37,33,34,10,15,117,117,130,123,7,6,7,8,0.5,0.6
2026-05-29T0000,1110A,121.565,38.9509,大连市,周水子,,38,36,41,10,19,121,121,137,131,18,16,4,6,0.4,0.4
2026-05-29T0000,1111A,121.5637,38.8849,大连市,星海三站,,40,34,47,6,18,128,128,142,136,9,9,6,7,0.4,0.6
2026-05-29T0000,1112A,121.6301,38.9117,大连市,青泥洼桥,,36,29,39,12,17,113,113,138,122,20,16,6,6,0.4,0.5
2026-05-29T0000,1113A,121.6248,38.8643,大连市,傅家庄,,39,21,17,3,14,123,123,135,132,7,7,5,6,0.3,0.3
2026-05-29T0000,1114A,121.5117,38.8636,大连市,七贤岭,,41,24,27,3,12,131,131,139,136,6,9,6,6,0.2,0.3
2026-05-29T0000,1116A,121.7507,39.1339,大连市,金州,,39,32,45,13,23,122,122,136,135,13,14,8,9,0.5,0.5
2026-05-29T0000,1117A,121.7811,39.0495,大连市,开发区,,41,28,36,7,18,129,129,130,130,10,13,6,5,0.7,0.7
2026-05-29T0000,1118A,121.9762,39.0631,大连市,双D港,,41,23,32,6,15,131,131,133,131,4,7,6,6,0.4,0.5
2026-05-29T0000,4082A,121.2548,38.8188,大连市,旅顺,,37,14,25,6,18,118,118,129,126,8,11,6,7,0.4,0.4
2026-05-29T0000,1789A,124.8085,46.0381,大庆市,大同区,,27,17,34,10,10,84,84,110,94,14,10,3,4,0.3,0.3
2026-05-29T0000,1790A,125.1166,46.5255,大庆市,龙凤区,,39,39,32,17,13,43,43,90,73,34,14,6,5,1.3,0.4
2026-05-29T0000,1791A,124.8894,46.4007,大庆市,红岗区,,47,47,41,15,10,67,67,94,80,10,10,7,8,0.4,0.3
2026-05-29T0000,1792A,125.1391,46.578,大庆市,萨尔图区,,29,29,29,10,9,63,63,92,78,15,11,5,5,0.2,0.2
2026-05-29T0000,1793A,124.9026,46.6217,大庆市,让胡路区,,25,25,33,14,11,62,62,95,80,8,13,3,4,0.3,0.4
2026-05-29T0000,3481A,125.127,46.6277,大庆市,萨区政府监测点,,23,21,23,8,10,72,72,100,85,6,6,9,8,0.3,0.2
2026-05-29T0000,1723A,113.2926,40.0759,大同市,云冈宾馆,,38,38,16,16,8,46,46,108,88,38,11,10,6,0.9,0.4
2026-05-29T0000,1724A,113.3437,40.0921,大同市,大同大学,,30,30,16,9,6,55,55,104,81,25,11,20,7,0.8,0.2
2026-05-29T0000,1725A,113.2637,40.129,大同市,安家小村,,21,21,15,3,5,50,50,107,86,27,10,8,9,0.4,0.3
2026-05-29T0000,3282A,113.3399,40.0586,大同市,大同市卫生学校,,46,46,18,16,8,50,50,117,91,38,13,10,7,0.7,0.3
2026-05-29T0000,3565A,113.1371,40.1122,大同市,云冈站,颗粒物(PM10),56,58,19,11,7,3,3,105,63,54,13,7,5,0.4,0.3
2026-05-29T0000,3566A,113.1186,40.2556,大同市,图书馆,,22,22,17,7,5,31,31,104,72,12,9,5,6,0.4,0.5
2026-05-29T0000,3567A,113.5931,40.0459,大同市,区一中,,20,6,10,6,5,63,63,86,82,10,10,7,7,0.3,0.3
2026-05-29T0000,4199A,113.2798248,40.09972476,大同市,魏都大道141号,,28,28,21,13,7,48,48,108,84,34,13,7,5,0.4,0.3
2026-05-29T0000,2269A,124.1068,50.4091,大兴安岭地区,科技局,,23,23,22,7,9,50,50,88,69,2,4,6,7,0.2,0.4
2026-05-29T0000,3663A,124.117,50.4279,大兴安岭地区,红旗社区,,18,12,14,9,7,57,57,99,72,8,7,7,7,0.2,0.3
2026-05-29T0000,1600A,124.33,40.0625,丹东市,江湾东路,,26,26,27,11,17,65,65,136,108,20,13,4,4,0.4,0.5
2026-05-29T0000,1601A,124.4242,40.1513,丹东市,临江后街,,32,32,27,14,18,49,49,126,100,32,13,3,2,0.4,0.5
2026-05-29T0000,1602A,124.3935,40.1461,丹东市,元宝山,,31,22,26,3,16,97,97,124,116,11,9,5,5,0.4,0.5
2026-05-29T0000,1603A,124.3634,40.1093,丹东市,民主桥,,38,38,39,8,20,60,60,128,93,27,14,6,6,0.4,0.5
2026-05-29T0000,3541A,109.5726195,19.51688767,儋州市,第一中学子站,,40,40,30,22,13,61,61,86,79,9,6,7,4,0.7,0.4
2026-05-29T0000,3542A,109.5567,19.5187,儋州市,东坡学校子站,,36,34,21,25,15,59,59,91,80,8,4,3,4,0.7,0.5
2026-05-29T0000,2616A,98.5611,24.4273,德宏傣族景颇族自治州,德宏州监测站,细颗粒物(PM2.5),70,58,58,45,36,44,44,97,78,12,11,7,7,0.5,0.4
2026-05-29T0000,3677A,98.5887,24.4366,德宏傣族景颇族自治州,芒市人民政府综合楼,颗粒物(PM10),95,112,92,45,38,47,47,93,75,13,11,5,5,0.7,0.6
2026-05-29T0000,1901A,104.424,31.1209,德阳市,东山公园,,41,41,44,24,21,85,85,120,106,8,4,3,2,0.3,0.3
2026-05-29T0000,1902A,104.3827,31.1318,德阳市,西小区,颗粒物(PM10),51,51,54,22,18,77,77,113,99,17,10,5,5,0.5,0.4
2026-05-29T0000,1904A,104.3553,31.1091,德阳市,耐火材料厂,,42,42,51,24,21,81,81,123,107,16,12,3,3,0.3,0.2
2026-05-29T0000,4145A,104.4144,31.1495,德阳市,市林业局,,46,46,49,25,20,77,77,122,100,25,12,6,6,0.5,0.4
2026-05-29T0000,1622A,116.3034,37.4675,德州市,儿童乐园,颗粒物(PM10),67,73,46,19,7,21,21,122,85,82,21,8,9,0.6,0.6
2026-05-29T0000,1624A,116.2992,37.4449,德州市,监理站,颗粒物(PM10),65,70,42,18,5,22,22,127,102,63,18,2,3,0.6,0.3
2026-05-29T0000,3066A,116.2722,37.438,德州市,九衢泉纯净水厂,颗粒物(PM10),74,83,40,21,7,5,5,120,82,101,30,15,12,0.8,0.6
2026-05-29T0000,3371A,116.3693,37.44,德州市,开发区人民医院,颗粒物(PM10),63,68,41,28,8,32,32,119,86,46,20,7,7,0.7,0.4
2026-05-29T0000,3511A,116.5687,37.3331,德州市,陵城艺术中心,,46,46,44,12,10,109,109,120,109,18,16,10,7,0.4,0.4
2026-05-29T0000,4292A,116.352738,37.420875,德州市,新河东路,,36,36,35,8,5,50,50,119,98,39,23,8,9,0.7,0.6
2026-05-29T0000,2621A,99.7054,27.8319,迪庆藏族自治州,迪庆州站,,27,26,23,12,12,84,84,108,92,8,9,9,8,0.4,0.3
2026-05-29T0000,3180A,99.7122,27.8129,迪庆藏族自治州,质量技术监督局,,29,21,29,11,12,90,90,111,96,6,10,8,9,0.3,0.3
2026-05-29T0000,4257A,104.6092,35.5962,定西市,将台街,颗粒物(PM10),60,63,48,21,19,92,92,125,114,12,6,3,3,0.2,0.2
2026-05-29T0000,4309A,104.6159,35.5701,定西市,正龙路62号,颗粒物(PM10),64,69,58,17,16,88,88,118,107,10,6,4,4,0.2,0.2
2026-05-29T0000,4071A,114.9883,38.5232,定州市,交通局,,29,29,34,10,7,91,91,123,96,20,14,7,7,0.3,0.3
2026-05-29T0000,4072A,115.0045,38.5136,定州市,第五中学,,23,NA,40,9,7,71,71,116,78,29,13,3,3,0.4,0.4
2026-05-29T0000,1390A,113.7943,23.0132,东莞市,东城石井,,28,28,33,15,17,54,54,187,117,17,15,4,3,0.6,0.7
2026-05-29T0000,1391A,113.7384,22.9659,东莞市,南城西平,,30,30,30,9,14,71,71,163,104,16,13,4,4,0.5,0.5
2026-05-29T0000,3319A,113.7283,23.041,东莞市,万江金泰,,33,28,32,23,22,45,45,174,112,24,16,7,7,0.5,0.6
2026-05-29T0000,4129A,113.8666,23.1062,东莞市,裕兴路,,30,30,37,17,17,60,60,182,140,21,15,7,7,0.7,0.7
2026-05-29T0000,4130A,114.0076,22.9739,东莞市,教育路1号,,41,41,35,20,17,43,43,175,116,32,17,5,5,0.8,0.7
2026-05-29T0000,4131A,113.7981,22.8124,东莞市,长怡路1号,,29,29,33,16,15,50,50,140,84,19,14,3,4,0.6,0.6
2026-05-29T0000,1666A,118.6612,37.4313,东营市,市环保局,,30,22,34,3,17,94,94,137,114,16,14,2,3,0.2,0.3
2026-05-29T0000,3036A,118.6903,37.4337,东营市,开发区管委会,,30,30,40,3,13,84,84,140,112,30,27,7,8,0.3,0.4
2026-05-29T0000,3365A,118.5721,37.5654,东营市,垦利区民丰路,,31,24,31,3,6,97,97,143,120,19,16,7,9,0.3,0.4
2026-05-29T0000,3498A,118.5063,37.8606,东营市,河口城区,,26,22,33,3,12,83,83,140,112,19,20,12,15,0.7,0.9
2026-05-29T0000,3646A,118.4979,37.4623,东营市,胜利站,,28,16,33,3,15,87,87,136,113,18,15,3,4,0.5,0.5
2026-05-29T0000,3734A,118.5753,37.4405,东营市,理想之城,,30,24,35,3,14,96,96,136,109,14,20,6,8,0.2,0.4
2026-05-29T0000,1591A,110.0024,39.8127,鄂尔多斯市,综合楼,颗粒物(PM10),60,63,26,23,11,44,44,122,100,62,18,11,8,1.0,0.5
2026-05-29T0000,1592A,109.9485,39.8259,鄂尔多斯市,巴音孟克林场办事处,,30,24,25,14,10,49,49,123,96,59,27,5,6,0.6,0.4
2026-05-29T0000,1593A,109.7734,39.5987,鄂尔多斯市,康泽苑,,21,12,19,6,6,65,65,125,105,16,11,5,6,0.2,0.2
2026-05-29T0000,1594A,109.8121,39.5987,鄂尔多斯市,华泰汽车城,,26,24,22,13,8,14,14,111,78,51,16,7,7,0.7,0.4
2026-05-29T0000,1595A,109.9734,39.7884,鄂尔多斯市,奥林花园,颗粒物(PM10),55,56,29,28,9,25,25,122,91,74,21,5,6,0.6,0.4
2026-05-29T0000,2436A,114.894,30.3989,鄂州市,市政府,颗粒物(PM10),62,66,53,38,23,72,72,150,124,15,19,12,7,0.9,1
2026-05-29T0000,2437A,114.8986,30.3714,鄂州市,赵家坝,细颗粒物(PM2.5),68,55,41,44,22,91,91,172,142,8,15,17,14,0.6,1
2026-05-29T0000,3654A,114.8093,30.4091,鄂州市,精准医疗中心,细颗粒物(PM2.5),70,51,35,45,19,114,114,169,140,17,17,4,4,0.5,0.8
2026-05-29T0000,2454A,109.4978,30.2979,恩施土家族苗族自治州,湖北民院,,28,28,21,19,10,67,67,71,58,2,3,8,8,0.5,0.7
2026-05-29T0000,3549A,109.5061,30.3771,恩施土家族苗族自治州,龙凤新区,,19,19,14,10,8,24,24,49,22,3,3,8,7,0.5,0.6
2026-05-29T0000,2499A,108.3411,21.6159,防城港市,沙万,,26,26,27,10,17,66,66,72,70,14,11,2,3,0.6,0.6
2026-05-29T0000,2500A,108.3515,21.7733,防城港市,防城档案局,,32,32,24,20,14,49,49,76,69,6,5,4,4,0.6,0.6
2026-05-29T0000,2501A,108.3506,21.6414,防城港市,大海花园,,28,28,24,15,16,81,81,90,86,5,7,5,6,0.5,0.5
2026-05-29T0000,1371A,113.1293,23.0065,佛山市,湾梁,,27,27,29,18,16,40,40,148,97,16,10,/,/,/,/
2026-05-29T0000,1372A,113.1082,23.0477,佛山市,华材职中,,27,27,28,15,18,38,38,138,97,11,6,6,6,0.7,0.7
2026-05-29T0000,1373A,113.1439,23.045,佛山市,南海气象局,,26,25,33,18,19,41,41,143,96,20,13,/,/,/,/
2026-05-29T0000,1374A,113.2879,22.8094,佛山市,顺德苏岗,,18,18,16,12,18,34,34,130,81,20,11,/,/,0.6,0.6
2026-05-29T0000,1376A,112.8384,22.8678,佛山市,高明孔堂,,20,20,21,12,13,48,48,91,76,8,6,/,/,/,/
2026-05-29T0000,1377A,112.8835,23.1584,佛山市,三水监测站,,36,36,30,20,20,29,29,108,74,31,20,8,4,0.6,0.6
2026-05-29T0000,1378A,112.8668,23.185,佛山市,三水云东海,颗粒物(PM10),56,58,41,25,19,32,32,115,78,25,9,/,/,/,/
2026-05-29T0000,3625A,113.2568,22.7629,佛山市,容桂街道办,,23,22,19,16,17,33,33,128,79,21,13,/,/,/,/
2026-05-29T0000,1282A,119.2681,26.0506,福州市,师大,,23,20,26,16,11,40,40,107,40,14,13,4,4,0.4,0.4
2026-05-29T0000,1283A,119.2983,26.1028,福州市,五四北路,,23,19,25,16,13,32,32,109,38,23,17,4,4,0.3,0.3
2026-05-29T0000,1284A,119.2648,26.0769,福州市,杨桥西路,,22,22,24,14,10,38,38,105,44,18,13,4,4,/,/
2026-05-29T0000,3048A,119.5799,26.0937,福州市,九龙,,45,NA,28,31,13,122,122,103,66,5,11,5,5,0.3,0.2
2026-05-29T0000,3526A,119.5188,25.9666,福州市,吴航,,43,43,25,24,12,112,112,97,59,7,15,5,6,0.6,0.6
2026-05-29T0000,4104A,119.3106,26.0648,福州市,路通桥巷6号,,30,23,26,21,16,42,42,115,39,14,13,/,/,/,/
2026-05-29T0000,1755A,123.7974,41.8494,抚顺市,望花区,,38,38,42,24,23,13,13,117,72,55,30,11,10,0.7,0.6
2026-05-29T0000,1756A,123.9161,41.8827,抚顺市,顺城区,,34,27,30,10,23,1,1,117,58,67,30,10,11,0.5,0.6
2026-05-29T0000,1757A,124.0437,41.8615,抚顺市,东洲区,,16,15,53,3,22,35,35,110,72,31,22,9,9,0.4,0.6
2026-05-29T0000,1758A,123.9246,41.8638,抚顺市,新抚区,,36,36,39,8,19,0,0,126,72,64,25,7,7,0.4,0.6
2026-05-29T0000,1759A,124.0972,41.8961,抚顺市,大伙房水库,,21,21,32,3,13,36,36,113,73,32,28,8,9,0.3,0.4
2026-05-29T0000,1760A,123.708,41.8386,抚顺市,沈抚新城,,35,33,33,7,18,0,0,117,59,70,36,8,10,0.5,0.5
2026-05-29T0000,2377A,116.3544,27.9833,抚州市,市站,,41,41,31,20,16,59,59,74,72,12,7,20,6,0.8,0.8
2026-05-29T0000,2378A,116.3562,27.9631,抚州市,血防站,,36,36,33,23,18,59,59,79,76,15,6,10,5,0.8,0.7
2026-05-29T0000,2379A,116.3561,28.0007,抚州市,采茶剧团,,35,33,38,24,16,49,49,71,66,13,6,16,15,1.1,1
2026-05-29T0000,2380A,116.3854,27.9648,抚州市,医学分院,,38,38,34,20,18,63,63,72,71,7,5,8,10,1.0,1
2026-05-29T0000,2207A,121.6095,41.9978,阜新市,工业园区,,41,40,37,15,8,4,4,117,64,82,23,7,7,0.3,0.3
2026-05-29T0000,2208A,121.6567,42.0188,阜新市,长青街,,34,28,23,21,9,11,11,114,71,67,16,6,6,0.5,0.3
2026-05-29T0000,2209A,121.6672,42.07,阜新市,农业园区,,37,37,25,9,5,59,59,112,83,36,16,5,5,0.3,0.3
2026-05-29T0000,2211A,121.6343,42.0455,阜新市,玉龙新城,颗粒物(PM10),67,73,39,19,12,3,3,79,49,69,32,6,6,0.6,0.4
2026-05-29T0000,2301A,115.8276,32.8929,阜阳市,市监测站,颗粒物(PM10),84,97,61,30,21,75,75,150,113,27,14,11,7,0.3,0.3
2026-05-29T0000,2303A,115.8551,32.8606,阜阳市,开发区,颗粒物(PM10),96,114,69,26,23,81,81,151,115,22,17,9,5,0.5,0.5
2026-05-29T0000,2875A,115.783962,32.889217,阜阳市,阜阳职业技术学院,颗粒物(PM10),97,115,69,31,24,69,69,154,110,27,15,13,8,0.5,0.4
2026-05-29T0000,3468A,115.79,32.8614,阜阳市,市规划展馆,颗粒物(PM10),110,144,61,26,23,72,72,161,114,NA,13,NA,8,0.6,0.6
2026-05-29T0000,3469A,115.835101,32.918568,阜阳市,枣园社区,颗粒物(PM10),79,90,60,29,14,69,69,154,115,27,13,10,8,0.5,0.6
2026-05-29T0000,2669A,102.9097,34.9841,甘南藏族自治州,州政府,,35,35,16,8,8,48,48,86,71,10,8,1,2,0.3,0.3
2026-05-29T0000,3380A,102.8915,34.9618,甘南藏族自治州,甘肃民族师范学院,颗粒物(PM10),51,51,16,14,12,30,30,90,70,37,16,2,2,0.4,0.2
2026-05-29T0000,2570A,101.96,30.048,甘孜藏族自治州,水桥子,,23,12,6,6,4,71,71,78,76,10,7,6,6,0.3,0.3
2026-05-29T0000,3065A,101.9534,29.9976,甘孜藏族自治州,州环保局,,22,6,11,3,3,70,70,80,NA,7,10,4,4,0.2,0.3
2026-05-29T0000,2363A,114.9368,25.8663,赣州市,地委,,32,32,29,7,12,42,42,74,62,17,7,1,2,0.6,0.6
2026-05-29T0000,2364A,114.946,25.8483,赣州市,气象台,,31,31,27,19,20,39,39,72,60,20,11,3,3,0.4,0.4
2026-05-29T0000,2365A,114.932,25.8332,赣州市,市图书馆,,24,24,29,13,15,56,56,91,76,15,10,4,4,0.8,0.6
2026-05-29T0000,2366A,114.8905,25.8472,赣州市,华坚鞋城,,24,24,33,7,11,44,44,77,63,20,13,1,8,0.2,0.5
2026-05-29T0000,3109A,115.0094,25.8614,赣州市,赣县区卫计委,,20,20,25,6,14,22,22,82,49,27,10,2,3,0.4,0.4
2026-05-29T0000,2684A,106.2753,36.0057,固原市,监测站,,38,38,58,13,19,79,79,117,100,19,12,7,7,0.3,0.3
2026-05-29T0000,2685A,106.2384,36.0189,固原市,新区,,35,35,57,16,15,51,51,110,89,33,12,8,6,0.5,0.4
2026-05-29T0000,2544A,106.6307,30.4577,广安市,市委,,21,16,20,12,14,66,66,78,70,4,4,7,7,0.3,0.3
2026-05-29T0000,2545A,106.6266,30.4662,广安市,友谊中学,,20,19,21,11,12,61,61,82,74,7,5,7,8,0.5,0.5
2026-05-29T0000,2547A,106.6386,30.4551,广安市,广电花园,,20,20,21,12,15,64,64,76,67,7,7,6,6,0.4,0.4
2026-05-29T0000,2902A,106.6347,30.4868,广安市,北辰小学,,22,22,24,12,14,62,62,79,73,6,5,6,6,0.4,0.4
2026-05-29T0000,2524A,105.8211,32.4444,广元市,老城,颗粒物(PM10),56,58,56,16,20,97,97,112,105,10,6,2,2,0.4,0.3
2026-05-29T0000,2526A,105.8629,32.429,广元市,监测站,颗粒物(PM10),52,52,57,16,20,88,88,107,100,14,7,6,5,0.4,0.4
2026-05-29T0000,3617A,105.8047,32.4167,广元市,经开区,颗粒物(PM10),67,73,64,27,25,82,82,106,97,19,10,4,4,0.3,0.3
2026-05-29T0000,1345A,113.2346,23.1423,广州市,广雅中学,,33,33,32,15,17,35,35,155,104,22,13,3,2,0.6,0.5
2026-05-29T0000,1346A,113.2611,23.105,广州市,市五中,,34,34,30,18,17,40,40,174,116,26,13,4,3,/,/
2026-05-29T0000,1348A,113.3477,23.0916,广州市,广东商学院,,28,28,19,19,16,23,23,156,94,42,16,6,5,0.6,0.5
2026-05-29T0000,1349A,113.4332,23.105,广州市,市八十六中,,30,27,26,16,16,7,7,150,81,60,26,6,5,/,/
2026-05-29T0000,1350A,113.3506,22.9488,广州市,番禺中学,,28,28,33,14,16,37,37,131,81,19,14,7,5,0.5,0.5
2026-05-29T0000,1351A,113.2147,23.3918,广州市,花都师范,,47,47,38,22,24,67,67,162,131,31,15,7,8,0.8,0.7
2026-05-29T0000,1352A,113.2599,23.1329,广州市,市监测站,,34,34,32,16,15,41,41,158,105,21,11,3,2,/,/
2026-05-29T0000,1353A,113.5618,23.3119,广州市,九龙镇镇龙,,41,41,34,19,19,18,18,160,110,60,25,10,7,1.0,0.7
2026-05-29T0000,1354A,113.2764,23.1544,广州市,麓湖,,36,36,30,22,17,37,37,147,98,21,11,7,7,0.8,0.7
2026-05-29T0000,2846A,113.3209,23.1323,广州市,体育西,,47,47,29,21,16,38,38,158,103,33,11,5,4,0.7,0.5
2026-05-29T0000,3298A,113.5718,23.5493,广州市,从化街口,细颗粒物(PM2.5),114,NA,77,75,64,77,77,170,138,30,20,6,6,0.7,0.2
2026-05-29T0000,3299A,113.3463,23.369,广州市,白云竹料,,36,36,39,20,22,54,54,176,132,32,17,3,2,0.6,0.6
2026-05-29T0000,3300A,113.2981,23.2365,广州市,白云嘉禾,,45,45,35,25,18,45,45,168,115,35,18,7,7,/,/
2026-05-29T0000,3301A,113.4256,23.1716,广州市,黄埔科学城,NA,NA,39,33,18,17,14,14,137,103,42,17,7,7,NA,0.3
2026-05-29T0000,3302A,113.3942,23.0485,广州市,番禺大学城,,27,27,26,16,14,23,23,153,95,42,19,4,3,0.5,0.4
2026-05-29T0000,3303A,113.4923,22.8169,广州市,南沙黄阁,,34,34,31,11,19,20,20,139,75,38,16,6,6,/,/
2026-05-29T0000,3304A,113.534,22.7893,广州市,南沙街,,29,25,30,20,16,27,27,123,67,26,13,6,6,0.4,0.4
2026-05-29T0000,3443A,113.2905,23.5541,广州市,花都梯面,,39,39,37,27,20,28,28,98,71,39,15,8,8,/,/
2026-05-29T0000,3445A,113.786,23.7479,广州市,从化良口,,35,28,29,24,21,83,83,134,114,9,11,4,4,/,/
2026-05-29T0000,3446A,113.805,23.2614,广州市,增城荔城,,40,40,34,17,19,31,31,172,116,40,17,7,6,1.0,0.8
2026-05-29T0000,2506A,109.604387,23.066791,贵港市,江南子站,颗粒物(PM10),53,53,35,32,22,28,28,108,72,35,14,2,4,0.6,0.6
2026-05-29T0000,2508A,109.5669,23.1065,贵港市,荷城子站,,48,48,30,29,23,34,34,97,73,32,14,3,6,0.6,0.7
2026-05-29T0000,3405A,109.5886,23.1172,贵港市,新世纪学校,,49,41,33,34,22,33,33,104,69,25,15,/,/,0.7,0.6
2026-05-29T0000,4260A,109.5933,23.095,贵港市,中山路155-3号,颗粒物(PM10),51,51,39,32,24,41,41,120,87,29,14,/,/,0.5,0.5
2026-05-29T0000,1439A,106.6863,26.6035,贵阳市,马鞍山,,14,14,18,3,11,40,40,63,27,10,11,3,3,/,/
2026-05-29T0000,1441A,106.6241,26.6266,贵阳市,鉴湖路,,27,27,31,3,14,44,44,86,39,4,9,10,10,1.1,0.6
2026-05-29T0000,1442A,106.7468,26.6344,贵阳市,燕子冲,,22,22,25,3,10,51,51,64,50,10,11,7,8,0.8,0.7
2026-05-29T0000,1443A,106.6556,26.4362,贵阳市,碧云窝,,22,22,28,3,9,53,53,79,65,15,11,1,3,/,/
2026-05-29T0000,1445A,106.6963,26.6063,贵阳市,红边门,,19,12,19,3,11,58,58,79,53,11,12,2,5,/,/
2026-05-29T0000,1446A,106.7162383,26.56964667,贵阳市,新华路,,19,14,23,6,9,59,59,80,63,14,13,8,14,0.4,0.4
2026-05-29T0000,1447A,106.6742,26.542,贵阳市,太慈桥,,13,12,21,9,10,37,37,46,38,12,12,3,2,/,/
2026-05-29T0000,4230A,106.688212,26.56952,贵阳市,花果园大街66号,,17,NA,9,3,10,52,52,70,50,10,12,1,2,/,/
2026-05-29T0000,4231A,106.687268,26.516892,贵阳市,漓江路57号,,16,9,14,3,9,49,49,65,53,14,13,2,2,0.6,0.6
2026-05-29T0000,1864A,110.3091,25.2705,桂林市,龙隐路小学,,40,30,29,28,17,57,57,99,77,7,7,4,3,0.5,0.4
2026-05-29T0000,1865A,110.2849361,25.22909545,桂林市,八中,,23,18,29,16,14,59,59,105,77,12,11,6,3,0.6,0.5
2026-05-29T0000,3531A,110.296,25.1254,桂林市,旅游学院,NA,NA,26,26,15,18,43,43,95,64,NA,6,6,6,0.2,0.3
2026-05-29T0000,4222A,110.1835,25.2444,桂林市,环湖路276号,,29,27,25,20,18,64,64,100,84,6,12,3,3,0.4,0.4
2026-05-29T0000,4301A,110.2803,25.2773,桂林市,信义路13号,,42,42,30,17,15,62,62,98,81,5,7,3,4,0.6,0.5
2026-05-29T0000,2674A,100.2262,34.4854,果洛藏族自治州,玛沁县大武镇,,25,25,19,11,6,72,72,91,82,1,2,19,18,0.3,0.3
2026-05-29T0000,1130A,126.5557,45.8109,哈尔滨市,松北商大,,34,34,14,21,11,63,63,100,77,19,12,4,4,0.3,0.2
2026-05-29T0000,1132A,126.6162,45.719,哈尔滨市,南岗学府路,颗粒物(PM10),57,59,22,12,7,71,71,105,88,12,8,6,6,0.4,0.4
2026-05-29T0000,1133A,126.6894,45.7733,哈尔滨市,太平宏伟公园,,45,45,23,13,10,71,71,101,90,16,13,6,6,0.3,0.3
2026-05-29T0000,1134A,126.6361,45.7672,哈尔滨市,道外承德广场,颗粒物(PM10),63,68,30,10,9,69,69,96,85,16,13,5,5,0.3,0.4
2026-05-29T0000,1136A,126.644,45.7261,哈尔滨市,动力和平路,颗粒物(PM10),60,64,21,12,8,66,66,101,83,21,14,4,4,0.3,0.3
2026-05-29T0000,1137A,126.5933,45.7479,哈尔滨市,道里建国路,,49,49,19,8,7,67,67,105,87,21,14,4,4,0.3,0.3
2026-05-29T0000,1138A,126.6127,45.6119,哈尔滨市,平房东轻厂,,41,41,13,9,7,40,40,107,76,40,14,10,11,0.5,0.5
2026-05-29T0000,1139A,126.5875,45.9827,哈尔滨市,呼兰师专,,30,30,26,9,7,30,30,93,68,45,17,6,11,0.3,0.3
2026-05-29T0000,1140A,126.6299,45.6799,哈尔滨市,省农科院,颗粒物(PM10),79,90,28,12,12,33,33,92,57,31,11,5,5,0.4,0.4
2026-05-29T0000,4282A,126.6769,45.7379,哈尔滨市,华山路1号,,48,48,29,8,6,77,77,105,90,17,11,5,5,0.2,0.2
2026-05-29T0000,4283A,126.9717,45.5356,哈尔滨市,解放大街52号,,31,31,20,17,4,30,30,104,72,49,17,3,3,0.4,0.3
2026-05-29T0000,2688A,93.5124,42.8176,哈密市,地区监测站,,43,43,13,30,10,61,61,138,121,63,15,2,3,0.9,0.2
2026-05-29T0000,2689A,93.5014,42.8312,哈密市,哈密师范学校,细颗粒物(PM2.5),126,121,26,88,15,13,13,136,102,88,23,4,4,1.6,0.3
2026-05-29T0000,2671A,100.9016,36.9464,海北藏族自治州,海晏县西海镇,,32,17,36,17,21,101,101,119,110,2,2,8,8,0.4,0.4
2026-05-29T0000,3867A,102.074,36.5056,海东市,平安区公安局北苑,,46,46,47,30,28,89,89,132,111,15,13,19,13,0.5,0.5
2026-05-29T0000,4163A,102.0984,36.5119,海东市,滨河路,,40,40,46,27,26,45,45,108,76,46,25,10,9,0.7,0.7
2026-05-29T0000,1410A,110.3189,20.0596,海口市,海南大学,,33,33,25,18,16,55,55,94,66,6,5,5,5,0.4,0.4
2026-05-29T0000,1411A,110.2827,20.0051,海口市,秀英海南医院,,26,20,21,18,14,31,31,96,58,24,11,6,6,0.4,0.4
2026-05-29T0000,1412A,110.3391,19.9979,海口市,海南师范大学,,24,24,25,14,15,55,55,95,65,5,6,3,3,0.3,0.4
2026-05-29T0000,1413A,110.3303,20.0359,海口市,龙华路环保局宿舍,,31,31,23,16,16,56,56,92,65,4,5,/,/,0.4,0.4
2026-05-29T0000,3539A,110.5111,19.9737,海口市,桂林洋子站,,20,19,22,14,13,53,53,74,58,4,4,/,/,/,/
2026-05-29T0000,4134A,110.1952,20.0451,海口市,长滨二路9号,,27,27,23,17,14,41,41,92,64,5,4,/,/,/,/
2026-05-29T0000,2673A,100.6158,36.2985,海南藏族自治州,共和县恰卜恰镇,,37,37,29,20,16,58,58,109,86,14,6,12,10,0.6,0.5
2026-05-29T0000,2676A,97.373,37.376,海西蒙古族藏族自治州,德令哈市,,49,34,19,34,14,122,122,124,118,2,1,17,18,0.3,0.3
2026-05-29T0000,1049A,114.492,36.5712,邯郸市,矿院,,40,40,39,28,16,60,60,137,100,27,17,1,10,0.3,0.6
2026-05-29T0000,1050A,114.4839,36.6136,邯郸市,丛台公园,,43,43,35,15,12,79,79,135,110,24,16,6,10,0.4,0.6
2026-05-29T0000,3458A,114.7893,36.5592,邯郸市,香泉濮院小区,,48,48,56,14,14,76,76,122,93,22,18,1,4,0.3,0.3
2026-05-29T0000,3580A,114.1998,36.4439,邯郸市,峰峰矿区临水派出所,,41,41,35,14,13,100,100,138,120,22,20,5,8,0.6,0.7
2026-05-29T0000,4068A,114.5209,36.7697,邯郸市,建安街268号,颗粒物(PM10),60,63,50,24,10,15,15,116,79,62,17,3,3,0.5,0.3
2026-05-29T0000,4069A,114.5488,36.6177,邯郸市,丛台东路558号,,40,40,42,15,13,22,22,127,74,66,32,3,7,0.5,0.4
2026-05-29T0000,2635A,107.0155,33.0707,汉中市,市监测站,NA,NA,NA,49,NA,23,39,39,83,72,14,10,5,5,0.5,0.6
2026-05-29T0000,2636A,107.0083,33.114,汉中市,鑫源开发区,"颗粒物(PM10),细颗粒物(PM2.5)",58,60,54,39,26,9,9,87,66,27,15,5,7,0.6,0.6
2026-05-29T0000,2637A,107.0072,33.0323,汉中市,南郑大河坎水厂,,48,48,48,29,22,21,21,71,58,10,11,2,3,0.6,0.6
2026-05-29T0000,1223A,120.2073,30.2111,杭州市,滨江,,48,48,28,30,17,59,59,123,100,24,12,8,8,0.8,0.7
2026-05-29T0000,1224A,120.0625,30.2737,杭州市,西溪,,35,26,22,24,19,13,13,108,78,46,10,3,4,0.8,0.9
2026-05-29T0000,1226A,120.3417,30.315,杭州市,下沙,,44,44,26,24,18,78,78,124,99,26,12,5,5,0.7,0.7
2026-05-29T0000,1227A,120.1252,30.2465,杭州市,卧龙桥,,29,29,25,17,16,17,17,116,68,31,13,8,8,0.4,0.4
2026-05-29T0000,1228A,120.1902,30.2691,杭州市,浙江农大,颗粒物(PM10),63,68,28,28,16,4,4,112,81,77,19,6,6,0.5,0.4
2026-05-29T0000,1230A,120.1195,30.3121,杭州市,和睦小学,,40,40,25,24,11,74,74,114,104,18,8,8,8,0.7,0.6
2026-05-29T0000,1231A,120.3076,30.4146,杭州市,临平镇,颗粒物(PM10),53,53,31,33,19,54,54,131,109,36,7,7,7,0.8,0.7
2026-05-29T0000,1232A,120.2753,30.1839,杭州市,城厢镇,,38,38,28,23,19,57,57,133,104,31,13,6,5,0.8,0.7
2026-05-29T0000,1233A,120.0883,30.1808,杭州市,云栖,,30,30,30,19,17,29,29,108,60,23,16,8,8,0.9,0.9
2026-05-29T0000,3557A,119.9463,30.0496,杭州市,镇二中,,31,31,24,20,20,28,28,115,79,42,21,5,4,0.7,0.7
2026-05-29T0000,3558A,119.7184,30.2367,杭州市,市府大楼,,30,28,23,21,19,54,54,124,100,16,11,7,7,0.7,0.6
2026-05-29T0000,3656A,120.1554,30.2863,杭州市,消防大队,,33,32,24,23,16,67,67,120,102,26,16,7,7,0.7,0.7
2026-05-29T0000,1270A,117.1957,31.7845,合肥市,明珠广场,颗粒物(PM10),68,75,46,23,20,113,113,153,130,14,19,9,7,0.4,0.5
2026-05-29T0000,1271A,117.307,31.8765,合肥市,三里街,颗粒物(PM10),67,73,46,20,18,110,110,135,117,12,17,9,8,0.5,0.6
2026-05-29T0000,1272A,117.2587,31.8703,合肥市,琥珀山庄,颗粒物(PM10),68,75,47,19,17,105,105,136,114,12,15,8,7,0.7,0.8
2026-05-29T0000,1275A,117.2593,31.9376,合肥市,庐阳区,颗粒物(PM10),78,88,49,16,19,115,115,135,118,16,18,10,9,0.5,0.6
2026-05-29T0000,1276A,117.345251,31.861615,合肥市,瑶海区,颗粒物(PM10),75,85,49,18,17,118,118,146,125,15,19,9,8,0.5,0.6
2026-05-29T0000,1277A,117.3033,31.7967,合肥市,包河区,颗粒物(PM10),72,80,48,17,17,106,106,130,103,21,35,10,9,0.5,0.6
2026-05-29T0000,1278A,117.278,31.7392,合肥市,滨湖新区,颗粒物(PM10),75,85,49,12,15,100,100,147,112,22,32,10,9,0.5,0.6
2026-05-29T0000,1279A,117.1324,31.8395,合肥市,高新区,颗粒物(PM10),72,80,48,18,16,98,98,140,124,13,13,8,7,0.4,0.5
2026-05-29T0000,3464A,117.3802,31.9148,合肥市,高教基地,颗粒物(PM10),72,80,53,18,22,121,121,150,121,14,20,11,9,0.6,0.6
2026-05-29T0000,4098A,117.2518,31.8404,合肥市,中国科学技术大学,颗粒物(PM10),68,75,41,20,15,123,123,162,139,13,13,11,8,0.5,0.6
2026-05-29T0000,3614A,79.9241,37.0878,和田地区,地区环保局,颗粒物(PM10),300,420,408,70,130,118,118,112,112,2,4,2,2,0.2,0.3
2026-05-29T0000,3615A,79.9132,37.1137,和田地区,市环保局,颗粒物(PM10),500,653,746,66,146,116,116,120,116,4,5,3,2,0.2,0.3
2026-05-29T0000,2517A,108.0496,24.6957,河池市,市环保站,,29,NA,24,14,12,91,91,99,93,6,7,5,6,0.5,0.6
2026-05-29T0000,4302A,108.0901,24.6945,河池市,上任中路54号,,31,NA,25,19,14,97,97,101,90,3,9,8,9,0.7,0.8
2026-05-29T0000,1697A,114.6962,23.7538,河源市,东埔,,25,25,31,17,22,75,75,115,96,12,11,4,4,0.2,0.4
2026-05-29T0000,1698A,114.6895,23.7232,河源市,老城,,29,NA,31,20,20,72,72,120,86,13,13,5,5,0.3,0.7
2026-05-29T0000,3374A,115.5562,35.089,菏泽市,定陶老年大学,NA,NA,29,49,3,11,48,48,130,107,24,16,4,5,NA,0.3
2026-05-29T0000,4114A,115.4239,35.2593,菏泽市,黄河路600号,颗粒物(PM10),54,55,56,11,12,50,50,120,99,33,17,5,6,0.4,0.4
2026-05-29T0000,4115A,115.5025,35.2727,菏泽市,菏泽市人社局,,35,35,44,9,11,66,66,115,94,18,12,6,8,0.2,0.2
2026-05-29T0000,4184A,115.479691,35.244011,菏泽市,永昌路1号,,34,34,49,8,9,87,87,128,110,17,14,6,7,0.4,0.4
2026-05-29T0000,4193A,115.471542,35.280012,菏泽市,长城路999号,,41,41,53,8,11,68,68,124,101,20,13,6,7,0.1,0.1
2026-05-29T0000,2514A,111.5264,24.4178,贺州市,环保小区,,42,41,37,29,24,32,32,98,60,16,13,8,8,0.5,0.4
2026-05-29T0000,2515A,111.561,24.4074,贺州市,政协大楼,,42,30,22,29,24,37,37,110,68,21,16,14,14,0.7,0.6
2026-05-29T0000,3534A,111.4744,24.455,贺州市,西湾,颗粒物(PM10),83,95,49,27,24,21,21,100,62,20,13,7,8,0.6,0.6
2026-05-29T0000,2385A,114.17,35.9019,鹤壁市,市监测站,,33,33,40,10,22,78,78,132,93,18,10,2,5,0.4,0.5
2026-05-29T0000,2386A,114.2953,35.7512,鹤壁市,市交警支队,,30,30,48,12,20,70,70,130,96,16,15,7,7,0.6,0.5
2026-05-29T0000,2387A,114.2877,35.7302,鹤壁市,迎宾馆,,28,28,57,17,15,58,58,132,96,14,14,10,9,0.4,0.5
2026-05-29T0000,3474A,114.2616,35.6824,鹤壁市,大新区,,34,34,50,15,20,89,89,137,107,9,10,9,10,0.2,0.3
2026-05-29T0000,3596A,114.1573,35.9607,鹤壁市,南山宾馆,,35,35,54,18,26,102,102,126,107,7,9,8,9,0.4,0.5
2026-05-29T0000,2244A,130.2537,47.3416,鹤岗市,哈啤分公司,,26,26,19,10,9,36,36,75,56,13,8,10,10,0.0,0.1
2026-05-29T0000,2245A,130.2683,47.3087,鹤岗市,斯达机电,,31,31,25,9,8,49,49,79,67,14,7,9,9,0.3,0.3
2026-05-29T0000,2246A,130.3114,47.3388,鹤岗市,东山纸板厂,,45,45,47,8,15,37,37,70,52,14,13,9,10,0.2,0.3
2026-05-29T0000,2263A,127.4832,50.2524,黑河市,交通局,,22,16,22,9,12,69,69,76,63,3,12,6,6,0.7,0.7
2026-05-29T0000,2264A,127.5146,50.2339,黑河市,环保局,,18,13,19,9,10,56,56,68,51,6,11,6,7,0.3,0.4
2026-05-29T0000,1074A,115.6839,37.754,衡水市,电机北厂,,50,50,42,10,12,86,86,120,106,22,10,3,3,0.1,0.2
2026-05-29T0000,1075A,115.6303,37.7318,衡水市,市监测站,颗粒物(PM10),52,52,42,12,10,73,73,118,100,23,11,5,5,0.5,0.5
2026-05-29T0000,3188A,115.6684,37.7216,衡水市,市城管局,,47,47,45,19,15,59,59,116,89,32,12,3,3,0.4,0.3
2026-05-29T0000,3459A,115.599,37.5491,衡水市,地表水厂,,43,43,41,8,6,19,19,117,65,66,16,9,6,0.4,0.3
2026-05-29T0000,2457A,112.6209,26.9268,衡阳市,衡阳化工总厂,,31,31,32,15,19,77,77,96,92,10,9,2,6,0.8,0.9
2026-05-29T0000,2458A,112.621,26.8957,衡阳市,珠晖区环保局,,27,22,30,11,19,84,84,97,92,11,12,5,8,0.8,0.9
2026-05-29T0000,2459A,112.628,26.8654,衡阳市,市委党校,,29,23,30,14,23,91,91,98,94,5,7,10,10,0.8,0.9
2026-05-29T0000,2460A,112.6007,26.8977,衡阳市,市监测站,,30,30,30,20,22,82,82,99,94,8,7,6,9,0.8,0.9
2026-05-29T0000,2461A,112.5658,26.9013,衡阳市,真空机电公司,,29,NA,26,15,21,90,90,102,95,7,11,6,10,0.9,0.9
2026-05-29T0000,3399A,112.6703,26.8817,衡阳市,师范学院,,30,26,33,18,22,93,93,101,98,5,6,7,11,0.8,0.8
2026-05-29T0000,3038A,103.3757,23.3679,红河哈尼族彝族自治州,州图书馆,,40,40,34,28,24,84,84,82,78,4,4,2,2,0.3,0.3
2026-05-29T0000,4154A,103.401,23.3561,红河哈尼族彝族自治州,蒙自市朝阳路,,32,27,23,22,19,86,86,78,77,6,3,4,4,0.4,0.3
2026-05-29T0000,1090A,111.6506,40.7517,呼和浩特市,呼市一监,,31,31,10,8,6,29,29,97,80,38,6,8,8,0.3,0.2
2026-05-29T0000,1094A,111.7516,40.8369,呼和浩特市,如意水处理厂,颗粒物(PM10),107,138,22,12,8,46,46,101,76,26,8,7,7,0.3,0.3
2026-05-29T0000,1095A,111.727798,40.806187,呼和浩特市,二十九中,,31,31,11,14,7,45,45,97,81,30,8,8,8,0.3,0.3
2026-05-29T0000,1097A,111.717,40.7617,呼和浩特市,化肥厂生活区,,25,25,13,10,6,42,42,97,76,30,11,8,8,0.4,0.3
2026-05-29T0000,3699A,111.6519,40.8389,呼和浩特市,海东办,,19,17,7,3,2,36,36,96,74,38,9,5,5,0.5,0.4
2026-05-29T0000,4275A,111.591512,40.827312,呼和浩特市,成吉思汗西街8号,,18,9,8,3,3,57,57,90,70,24,12,2,3,0.2,0.2
2026-05-29T0000,4276A,111.6597,40.8077,呼和浩特市,公园东路75号,,22,22,9,13,5,52,52,97,83,29,10,8,8,0.4,0.3
2026-05-29T0000,4277A,111.5427,40.7846,呼和浩特市,金海路35号,,25,18,11,17,6,67,67,91,79,15,9,4,4,0.2,0.2
2026-05-29T0000,3061A,119.7511,49.1576,呼伦贝尔市,国华电力东,,47,47,31,15,10,17,17,94,72,39,8,4,4,0.4,0.3
2026-05-29T0000,4279A,119.7569,49.2222,呼伦贝尔市,伊敏大街东7号,,42,42,26,21,11,30,30,82,63,25,9,6,5,0.5,0.3
2026-05-29T0000,1250A,120.075,30.867,湖州市,城西水厂,颗粒物(PM10),51,51,33,34,22,57,57,112,81,48,23,6,6,0.8,0.8
2026-05-29T0000,2873A,120.083,30.8929,湖州市,仁皇山新区,颗粒物(PM10),53,53,32,34,22,53,53,115,94,58,20,6,6,0.8,0.7
2026-05-29T0000,2907A,120.1846,30.8592,湖州市,吴兴区站,,49,38,26,34,21,42,42,112,85,49,16,6,7,0.6,0.5
2026-05-29T0000,3562A,120.4146,30.8538,湖州市,南浔区站,,50,NA,28,35,20,70,70,129,114,31,12,7,7,0.8,0.7
2026-05-29T0000,1607A,120.904878,40.721091,葫芦岛市,龙港区,,36,36,42,15,17,24,24,123,75,67,28,9,11,0.3,0.3
2026-05-29T0000,1608A,120.8382,40.7521,葫芦岛市,化工街,,46,31,37,19,16,10,10,124,64,91,37,9,17,0.4,0.4
2026-05-29T0000,1609A,120.8339,40.7078,葫芦岛市,新区,,31,31,34,12,13,37,37,121,81,52,25,8,10,0.4,0.4
2026-05-29T0000,1610A,120.8697,40.7679,葫芦岛市,东城区,,46,46,53,27,17,11,11,124,70,88,36,28,15,0.6,0.5
2026-05-29T0000,2483A,109.9297,27.5383,怀化市,河西地税局,,19,NA,22,13,22,59,59,57,56,3,5,6,6,/,/
2026-05-29T0000,2484A,109.9783,27.5342,怀化市,市四医院,,16,NA,23,11,17,51,51,54,52,4,5,6,6,0.5,0.5
2026-05-29T0000,2485A,109.9971,27.5579,怀化市,监测楼,,18,11,24,8,17,56,56,58,57,4,4,6,7,0.5,0.5
2026-05-29T0000,1210A,119.0566,33.5991,淮安市,钵池山,,46,46,46,32,19,113,113,155,142,14,13,13,13,0.6,0.7
2026-05-29T0000,1211A,119.0083,33.578,淮安市,北京南路,,50,44,50,35,21,123,123,156,143,9,12,8,9,0.8,0.8
2026-05-29T0000,1212A,118.9938,33.6083,淮安市,市监测站,,45,39,42,31,20,123,123,154,137,10,13,8,8,0.6,0.7
2026-05-29T0000,1213A,119.135,33.5038,淮安市,楚州区监测站,细颗粒物(PM2.5),58,54,51,39,27,110,110,156,132,12,12,8,7,0.5,0.6
2026-05-29T0000,3426A,118.8757,33.2897,淮安市,新华书店,颗粒物(PM10),61,65,48,37,21,92,92,149,139,23,10,10,8,0.8,1
2026-05-29T0000,4092A,119.119691,33.550006,淮安市,枚皋中路89号,细颗粒物(PM2.5),58,54,45,39,21,117,117,153,130,11,11,8,8,0.9,0.9
2026-05-29T0000,4206A,119.028838,33.631911,淮安市,承德北路606号,,48,48,51,29,20,120,120,156,139,12,12,8,8,0.6,0.7
2026-05-29T0000,2282A,116.8005,33.9749,淮北市,监测站,,42,42,56,9,20,99,99,150,127,12,13,7,6,0.5,0.6
2026-05-29T0000,2283A,116.8094,33.9008,淮北市,烈山区政府,颗粒物(PM10),53,53,58,3,14,103,103,154,132,11,13,8,8,0.2,0.4
2026-05-29T0000,4017A,116.7926,33.9534,淮北市,市博物馆,,37,37,51,8,18,104,104,156,135,10,11,37,9,0.4,0.5
2026-05-29T0000,4100A,116.8322,33.9884,淮北市,杜集区第一实验学校,颗粒物(PM10),66,72,76,3,15,104,104,165,132,14,13,5,6,0.2,0.4
2026-05-29T0000,2277A,116.8304,32.7726,淮南市,潘集区政府,颗粒物(PM10),63,67,58,15,16,98,98,156,122,19,13,14,8,0.3,0.4
2026-05-29T0000,2279A,116.8569,32.5949,淮南市,谢家集区政府,,46,46,44,12,19,102,102,159,124,16,15,9,8,0.3,0.3
2026-05-29T0000,2280A,116.8279,32.6333,淮南市,八公山区政府,颗粒物(PM10),61,65,51,15,16,100,100,156,123,9,7,6,6,0.2,0.3
2026-05-29T0000,2894A,117.0561,32.6536,淮南市,经济技术开发区消防队,颗粒物(PM10),68,75,59,32,21,94,94,156,126,20,13,9,9,0.4,0.5
2026-05-29T0000,3329A,117.011,32.5891,淮南市,山南新区,颗粒物(PM10),65,70,58,25,22,108,108,158,128,10,9,11,10,0.3,0.4
2026-05-29T0000,4209A,117.003137,32.644456,淮南市,国庆中路369号,颗粒物(PM10),60,63,57,29,22,93,93,146,114,12,12,6,6,0.2,0.2
2026-05-29T0000,2446A,114.9021,30.474,黄冈市,职工中心,细颗粒物(PM2.5),62,52,38,41,21,107,107,164,136,6,10,5,4,0.7,0.9
2026-05-29T0000,2929A,114.8858,30.4519,黄冈市,红卫路,,49,49,35,31,20,99,99,156,127,4,5,8,7,0,0.3
2026-05-29T0000,3398A,114.9134,30.4446,黄冈市,市林业局,颗粒物(PM10),61,65,41,38,25,98,98,154,129,13,18,4,4,0.2,0.4
2026-05-29T0000,2672A,102.02,35.5101,黄南藏族自治州,同仁县隆务镇,,32,32,38,13,17,84,84,130,113,1,1,8,8,0.1,0.2
2026-05-29T0000,2295A,118.2905,29.6965,黄山市,延安路89号,,31,31,24,19,15,36,36,98,79,9,5,5,5,0.5,0.5
2026-05-29T0000,2297A,118.1369,30.2755,黄山市,黄山区政府5号楼,,35,35,31,22,16,36,36,119,83,5,4,2,2,0.5,0.4
2026-05-29T0000,4210A,118.335445,29.720283,黄山市,滨江东路7-2号,,49,49,34,18,13,36,36,91,75,7,5,/,/,/,/
2026-05-29T0000,2423A,115.0547,30.2332,黄石市,沈家营,颗粒物(PM10),71,79,54,26,20,78,78,135,113,8,10,4,6,0.4,0.4
2026-05-29T0000,2426A,114.899,30.211,黄石市,铁山,,48,48,37,28,21,49,49,142,110,18,11,8,8,1.0,0.8
2026-05-29T0000,2427A,115.0259,30.2108,黄石市,团城山,颗粒物(PM10),61,65,44,24,21,88,88,155,128,10,8,3,8,1.0,0.9
2026-05-29T0000,3149A,115.0174,30.1591,黄石市,笔架山北路,颗粒物(PM10),81,93,66,25,22,74,74,160,121,10,14,3,9,0.4,0.5
2026-05-29T0000,4185A,115.078022,30.21118,黄石市,磁湖东路29号,颗粒物(PM10),74,83,53,28,23,82,82,150,125,9,7,9,10,0.7,0.7
2026-05-29T0000,1392A,114.4181,23.0528,惠州市,河南岸金山湖子站,,39,39,37,12,23,87,87,180,152,20,15,6,6,0.7,0.6
2026-05-29T0000,1393A,114.4055,23.0824,惠州市,下埔横江三路子站,颗粒物(PM10),54,55,43,31,22,91,91,185,163,21,12,5,4,0.8,0.7
2026-05-29T0000,1395A,114.4645,22.7832,惠州市,惠阳区承修路船湖子站,,46,46,35,20,17,58,58,142,111,27,15,6,4,0.6,0.5
2026-05-29T0000,1396A,114.5316,22.7423,惠州市,大亚湾管委会子站,,39,39,30,17,14,20,20,132,79,46,22,3,4,0.7,0.6
2026-05-29T0000,3314A,114.4334,22.8134,惠州市,惠阳秋长,NA,NA,46,33,27,19,NA,NA,135,116,36,15,/,/,/,/
2026-05-29T0000,3452A,114.6521,22.7755,惠州市,大亚湾霞涌,,15,11,21,3,9,46,46,99,76,19,10,/,/,/,/
2026-05-29T0000,4300A,114.4089,23.1147,惠州市,文华一路1号,颗粒物(PM10),59,62,40,34,22,103,103,181,162,22,14,/,/,/,/
2026-05-29T0000,2240A,130.9618,45.2926,鸡西市,环保局,,22,19,9,15,10,26,26,73,55,23,11,7,7,0.3,0.2
2026-05-29T0000,2243A,130.9294,45.2959,鸡西市,第一中学,,15,15,9,7,8,47,47,72,62,8,6,7,7,0.2,0.2
2026-05-29T0000,3707A,131.0069,45.2988,鸡西市,欧美日汽修厂,,29,29,12,14,9,21,21,72,52,13,6,7,6,0.4,0.3
2026-05-29T0000,2367A,114.9753,27.0803,吉安市,红声器材厂,,28,28,35,17,16,61,61,79,68,10,11,4,3,0.5,0.5
2026-05-29T0000,2369A,114.9903,27.1313,吉安市,市环境监测站,,33,33,33,20,18,57,57,79,68,10,9,7,10,/,/
2026-05-29T0000,2370A,115.009527,27.096792,吉安市,青原区法院,,34,34,34,11,17,54,54,72,62,10,12,7,8,0.5,0.5
2026-05-29T0000,1772A,126.54,43.8622,吉林市,哈达湾,,20,19,21,14,31,60,60,112,88,29,15,5,8,0.2,0.3
2026-05-29T0000,1773A,126.5843,43.8358,吉林市,东局子,,36,NA,27,25,21,58,58,104,79,31,16,4,4,0.6,0.6
2026-05-29T0000,1774A,126.5051,43.8243,吉林市,电力学院,,21,19,23,11,14,43,43,105,70,42,17,5,7,0.5,0.6
2026-05-29T0000,1775A,126.6133,43.8971,吉林市,江北,,20,20,20,12,12,62,62,94,79,19,10,5,5,0.4,0.5
2026-05-29T0000,1776A,126.5549,43.8304,吉林市,江南公园,,20,20,24,10,13,47,47,102,77,24,13,6,7,0.3,0.3
2026-05-29T0000,2868A,126.4737,43.953,吉林市,九站,,21,21,25,14,17,45,45,104,84,34,19,5,7,0.4,0.5
2026-05-29T0000,1299A,116.9866,36.6118,济南市,科干所,,31,31,28,7,8,48,48,121,95,32,16,5,6,0.6,0.4
2026-05-29T0000,1300A,116.9379,36.6652,济南市,农科所,,44,44,34,6,10,11,11,122,81,80,18,2,3,0.2,0.3
2026-05-29T0000,1301A,117.1265,36.6736,济南市,开发区,,42,42,37,3,8,42,42,124,95,39,15,5,6,0.5,0.4
2026-05-29T0000,1303A,117.0616,36.6865,济南市,省种子仓库,,44,44,41,8,10,29,29,112,77,63,28,4,6,0.4,0.4
2026-05-29T0000,1304A,116.9495185,36.644937,济南市,机床二厂,颗粒物(PM10),51,51,40,12,10,32,32,122,95,58,19,5,5,0.5,0.4
2026-05-29T0000,1305A,117.0496,36.6629,济南市,市监测站,,37,37,37,7,8,45,45,118,89,35,19,3,4,0.4,0.3
2026-05-29T0000,1306A,116.7674,36.5458,济南市,长清党校,NA,NA,NA,41,NA,9,NA,NA,125,97,NA,16,NA,5,NA,0.2
2026-05-29T0000,1961A,117.5323,36.6865,济南市,东山小学,,34,34,38,3,7,41,41,123,88,28,16,3,3,0.1,0.2
2026-05-29T0000,3059A,117.7181,36.205,济南市,泰兴公司,,41,41,40,3,14,18,18,133,100,69,26,7,9,0.4,0.5
2026-05-29T0000,3064A,117.6861,36.2172,济南市,莱芜战役纪念馆,,46,46,39,9,14,64,64,131,108,36,26,3,6,0.1,0.2
2026-05-29T0000,3494A,117.1673,36.9782,济南市,济阳区政府,,44,44,46,3,13,47,47,112,80,52,27,7,8,0.1,0.2
2026-05-29T0000,3495A,117.1168,36.6299,济南市,锦屏中学,,24,24,33,3,7,53,53,123,91,19,14,6,7,0.3,0.3
2026-05-29T0000,4108A,117.7107,36.2385,济南市,山财大街5号,,27,27,35,3,15,73,73,126,105,34,25,5,6,0.3,0.6
2026-05-29T0000,4109A,116.9744,36.6889,济南市,无影山路12号,,24,24,32,3,9,59,59,116,88,44,20,1,2,0.3,0.4
2026-05-29T0000,1653A,116.6229,35.4288,济宁市,火炬城,,25,22,46,3,13,80,80,124,98,12,12,3,5,0.3,0.4
2026-05-29T0000,3500A,116.5808,35.3703,济宁市,北湖一中,,27,26,44,3,15,86,86,130,106,3,10,3,4,0.3,0.4
2026-05-29T0000,3501A,116.8251,35.5592,济宁市,服务中心,,38,38,49,3,16,68,68,138,104,26,20,1,2,0,0.2
2026-05-29T0000,3678A,116.5907,35.4054,济宁市,市第七中学,,27,24,54,3,15,84,84,132,104,7,11,4,5,0.2,0.3
2026-05-29T0000,4111A,116.6075,35.4566,济宁市,任和路,,28,28,52,3,14,72,72,129,97,12,12,2,3,0.4,0.6
2026-05-29T0000,4112A,116.5648,35.3921,济宁市,文体南路1号,,27,27,49,3,15,85,85,132,104,8,18,4,4,0.5,0.5
2026-05-29T0000,4122A,112.6071,35.1015,济源市,市委党校,,46,46,60,10,18,104,104,111,98,10,22,11,11,0.5,0.5
2026-05-29T0000,4123A,112.596,35.0702,济源市,沁园中路1号,,49,49,59,11,18,99,99,110,92,12,17,9,8,0.6,0.8
2026-05-29T0000,2255A,130.2749,46.8028,佳木斯市,佳纺,,29,29,18,10,9,40,40,81,54,17,12,4,3,0.2,0.1
2026-05-29T0000,2257A,130.3258,46.7975,佳木斯市,环保局,,18,18,17,9,13,46,46,80,62,16,12,3,2,0.3,0.2
2026-05-29T0000,4285A,130.363,46.806,佳木斯市,顺和街,,23,21,18,16,9,25,25,78,56,30,11,2,1,0.1,0.1
2026-05-29T0000,4286A,130.3952,46.8268,佳木斯市,长安路196号,,28,28,21,17,8,32,32,84,60,25,10,6,4,0.3,0.2
2026-05-29T0000,1252A,120.7439,30.778,嘉兴市,清河小学,,47,47,30,30,19,95,95,126,117,24,14,8,8,0.5,0.6
2026-05-29T0000,1253A,120.7261,30.7477,嘉兴市,嘉兴学院,,48,48,23,33,19,55,55,128,117,61,14,6,5,0.6,0.8
2026-05-29T0000,2872A,120.7845,30.7524,嘉兴市,南湖区残联,,46,43,25,32,20,86,86,138,126,30,10,6,6,0.8,0.7
2026-05-29T0000,3407A,120.6915,30.7741,嘉兴市,秀洲住建,,50,50,28,34,16,52,52,127,102,50,15,7,6,0.8,0.7
2026-05-29T0000,1945A,98.291,39.7705,嘉峪关市,气象局,细颗粒物(PM2.5),74,NA,32,47,11,111,111,133,127,10,12,3,3,0.4,0.4
2026-05-29T0000,2884A,98.2672,39.7978,嘉峪关市,酒钢宾馆,,40,29,36,14,13,126,126,140,136,14,8,11,8,0.1,0.2
2026-05-29T0000,3248A,98.2644,39.7723,嘉峪关市,雄关区,,40,40,37,11,9,126,126,136,133,12,19,4,4,0.2,0.1
2026-05-29T0000,1383A,113.1063,22.6058,江门市,北街,,22,16,23,15,14,37,37,96,62,16,8,/,/,/,/
2026-05-29T0000,1384A,113.073,22.5835,江门市,西区,,26,26,25,14,14,39,39,92,59,18,10,/,/,/,/
2026-05-29T0000,1385A,113.0218,22.531,江门市,圭峰西,,22,NA,26,15,14,45,45,84,57,7,7,/,/,/,/
2026-05-29T0000,1386A,113.0826,22.5947,江门市,东湖,,25,25,24,13,13,35,35,91,59,18,9,8,8,0.3,0.3
2026-05-29T0000,3311A,113.1077,22.5647,江门市,江海富民,,32,32,43,16,15,37,37,104,66,16,10,/,/,0.3,0.4
2026-05-29T0000,3449A,113.0496,22.4669,江门市,新会银湖,,40,NA,27,28,21,29,29,88,52,17,12,3,2,0.5,0.5
2026-05-29T0000,3335A,113.3137,35.2643,焦作市,马村街道办,,50,50,58,19,18,87,87,137,112,20,12,7,8,0.5,0.3
2026-05-29T0000,3336A,113.2464,35.2374,焦作市,焦作技师学院,,43,43,49,14,12,92,92,128,108,11,10,8,8,0.5,0.4
2026-05-29T0000,3477A,113.1656,35.2536,焦作市,中站许衡医院,,47,47,48,11,15,105,105,123,116,14,10,7,8,0.3,0.4
2026-05-29T0000,3981A,113.2456,35.18,焦作市,原李万街道办,,47,47,68,19,20,83,83,129,102,14,14,11,8,0.4,0.5
2026-05-29T0000,4264A,113.234,35.219,焦作市,新安路1731号,,47,47,62,8,16,93,93,132,112,21,20,10,11,0.4,0.4
2026-05-29T0000,4295A,113.2722,35.2121,焦作市,人民路3066号,,49,49,59,14,16,83,83,130,102,20,15,7,7,0.3,0.4
2026-05-29T0000,1708A,116.3701,23.5345,揭阳市,新兴,,45,41,31,31,17,55,55,99,74,23,8,8,5,1.1,0.7
2026-05-29T0000,1709A,116.3261,23.5442,揭阳市,西马,,44,44,29,30,17,53,53,100,79,24,9,8,4,0.9,0.6
2026-05-29T0000,1710A,116.361,23.5627,揭阳市,东兴,,45,43,29,31,18,42,42,104,72,27,9,7,3,/,/
2026-05-29T0000,1711A,116.4151,23.5295,揭阳市,渔湖,,45,40,34,31,19,35,35,106,70,26,8,2,2,/,/
2026-05-29T0000,3320A,116.4028,23.5699,揭阳市,曲溪,,48,47,24,33,17,25,25,114,73,39,9,11,6,0.9,0.6
2026-05-29T0000,1944A,102.1691,38.5166,金昌市,天庆家园,颗粒物(PM10),56,58,62,3,18,77,77,129,117,17,11,24,12,0.6,0.2
2026-05-29T0000,4022A,102.1648,38.5369,金昌市,金川区人防中心,颗粒物(PM10),53,53,57,27,20,111,111,133,122,14,11,8,10,0.5,0.4
2026-05-29T0000,4239A,102.193042,38.531887,金昌市,长春路96号,颗粒物(PM10),60,64,63,29,21,125,125,132,126,8,11,4,11,0.6,0.4
2026-05-29T0000,1262A,119.6478,29.0773,金华市,十五中,颗粒物(PM10),53,53,41,35,29,64,64,109,96,23,21,2,1,0.6,0.8
2026-05-29T0000,1263A,119.6859,29.1032,金华市,监测站,,50,50,37,33,24,59,59,98,85,34,26,4,4,0.6,0.7
2026-05-29T0000,3659A,119.656,29.1132,金华市,气象局,颗粒物(PM10),52,52,41,35,32,76,76,73,73,21,25,2,2,0.5,0.6
2026-05-29T0000,1767A,121.1114,41.0879,锦州市,南山,,45,37,35,31,10,47,47,130,96,42,17,10,8,0.7,0.5
2026-05-29T0000,1768A,121.060361,40.842794,锦州市,开发区,颗粒物(PM10),57,59,51,20,16,1,1,134,64,99,33,8,8,0.5,0.5
2026-05-29T0000,1769A,121.1836,41.1118,锦州市,百股街道,,26,23,39,18,11,50,50,133,98,27,13,7,7,0.5,0.4
2026-05-29T0000,1770A,121.1176,41.1224,锦州市,天安街道,,36,34,37,25,10,52,52,127,98,38,15,7,8,0.7,0.6
2026-05-29T0000,1771A,121.1303,41.1385,锦州市,北湖公园,,35,35,31,22,10,74,74,130,110,22,10,8,8,0.4,0.3
2026-05-29T0000,2160A,112.8496,35.5051,晋城市,自来水公司,,49,49,52,11,8,111,111,132,115,12,15,5,5,0.4,0.3
2026-05-29T0000,2162A,112.8509,35.4886,晋城市,市环保局,,36,36,49,12,9,96,96,132,114,16,13,4,5,0.3,0.3
2026-05-29T0000,3620A,112.8258,35.4804,晋城市,泽州一中,,43,43,55,12,8,89,89,132,114,25,14,5,5,0.5,0.4
2026-05-29T0000,4078A,112.8246,35.5152,晋城市,前书院路,,40,40,48,11,12,74,74,121,102,22,14,5,5,0.6,0.5
2026-05-29T0000,4079A,112.8864,35.4773,晋城市,祥云街666号,,37,34,47,3,13,118,118,131,118,12,11,7,7,0.4,0.4
2026-05-29T0000,2174A,112.6992,37.6984,晋中市,榆次区政府,,48,48,38,21,13,36,36,126,91,46,24,4,5,0.2,0.1
2026-05-29T0000,2865A,112.7195,37.683,晋中市,榆次三中,,29,29,40,13,11,45,45,128,96,36,23,4,6,0.1,0.1
2026-05-29T0000,4080A,112.7375,37.7215,晋中市,广安街188号,颗粒物(PM10),82,94,45,20,12,17,17,107,92,58,26,11,5,0.4,0.3
2026-05-29T0000,4200A,112.7478,37.6954,晋中市,迎宾街26号,,31,31,37,10,10,36,36,127,96,47,23,4,5,0.0,0
2026-05-29T0000,2439A,112.2012,31.048,荆门市,竹园小学,,40,40,35,16,22,82,82,100,98,14,12,4,4,0.5,0.9
2026-05-29T0000,2440A,112.1968,30.9892,荆门市,掇刀,,37,37,33,21,24,102,102,108,108,9,10,10,10,0.5,0.8
2026-05-29T0000,3012A,112.1849,31.0361,荆门市,西山林语,,48,48,36,20,20,98,98,105,105,8,7,7,8,1.0,1.1
2026-05-29T0000,3547A,112.1631,31.0134,荆门市,龙泉中学南校,,37,29,31,9,14,118,118,117,117,5,7,6,6,0.4,0.6
2026-05-29T0000,4124A,112.2213,31.0654,荆门市,新台西路6号,颗粒物(PM10),70,77,44,22,24,67,67,94,91,12,10,10,10,0.4,0.7
2026-05-29T0000,1844A,112.2493,30.3198,荆州市,市图书馆,,42,42,34,21,22,93,93,95,95,10,11,6,6,0.3,0.5
2026-05-29T0000,1845A,112.2009,30.3543,荆州市,市委党校,,32,31,36,22,24,77,77,89,89,18,11,8,8,0.3,0.5
2026-05-29T0000,3194A,112.2749,30.3124,荆州市,管委会,,28,26,33,14,21,89,89,92,92,9,11,6,7,0.4,0.7
2026-05-29T0000,4268A,112.1722,30.3366,荆州市,学苑路85号,,35,35,31,14,23,90,90,97,97,5,7,13,12,0.4,0.6
2026-05-29T0000,2343A,117.2114,29.2931,景德镇市,老干部活动中心,,29,25,24,20,23,70,70,80,78,4,4,3,5,0.8,0.8
2026-05-29T0000,2344A,117.1893,29.2789,景德镇市,兽医站,,39,39,31,16,17,72,72,100,93,10,8,4,4,0.6,0.6
2026-05-29T0000,2346A,117.246,29.2958,景德镇市,陶研所,,29,27,25,20,20,62,62,95,86,13,12,3,5,0.6,0.7
2026-05-29T0000,4289A,117.154766,29.256967,景德镇市,青少年活动中心,,38,38,33,24,22,74,74,90,81,10,12,7,15,/,/
2026-05-29T0000,1803A,115.9873,29.6816,九江市,十里,颗粒物(PM10),60,64,44,38,21,102,102,138,124,34,20,6,6,1.2,1.2
2026-05-29T0000,1804A,115.9583,29.7047,九江市,茅山头,颗粒物(PM10),53,54,38,33,24,95,95,148,129,30,23,3,5,0.8,0.8
2026-05-29T0000,1805A,115.9877,29.7295,九江市,西园,颗粒物(PM10),55,57,37,37,23,56,56,129,106,80,38,6,7,1.1,1.1
2026-05-29T0000,1808A,115.9112,29.6038,九江市,综合工业园,,47,47,34,30,21,99,99,164,135,44,27,6,8,0.9,0.9
2026-05-29T0000,3190A,116.0254,29.6995,九江市,外国语学校,细颗粒物(PM2.5),54,48,35,37,22,93,93,125,112,30,23,11,12,0.9,0.8
2026-05-29T0000,4253A,116.010205,29.659402,九江市,莲花大道8号,,39,32,32,27,21,90,90,123,108,13,12,6,6,0.9,0.9
2026-05-29T0000,4240A,98.495752,39.733935,酒泉市,玉门东路5号,,31,29,36,16,14,98,98,117,114,10,10,7,6,0.3,0.2
2026-05-29T0000,4241A,98.5099,39.7506,酒泉市,北大街108号,,34,27,36,16,18,108,108,134,NA,12,12,8,9,0.3,0.3
2026-05-29T0000,2698A,76.0071,39.466,喀什地区,巡警大队,颗粒物(PM10),56,58,37,36,18,84,84,137,126,30,9,4,4,0.4,0.3
2026-05-29T0000,2699A,75.9756,39.4693,喀什地区,吾办,颗粒物(PM10),78,89,39,42,13,51,51,130,116,47,9,7,8,0.6,0.3
2026-05-29T0000,4027A,75.9485,39.4688,喀什地区,老干局,颗粒物(PM10),76,86,41,34,15,68,68,137,124,28,6,3,3,0.5,0.3
2026-05-29T0000,1824A,114.3389,34.778,开封市,肿瘤医院,,34,34,63,9,24,94,94,139,110,12,16,10,10,0.5,0.6
2026-05-29T0000,1826A,114.2884,34.7966,开封市,世纪星幼儿园,,31,31,63,8,24,96,96,150,124,12,15,8,8,0.3,0.5
2026-05-29T0000,3147A,114.3434,34.8101,开封市,龙亭公园,,39,39,73,16,20,88,88,147,119,18,15,9,8,0.5,0.6
2026-05-29T0000,3210A,114.3645,34.7955,开封市,汴京公园,,34,34,56,13,24,81,81,146,112,22,19,13,10,0.4,0.6
2026-05-29T0000,3473A,114.2485,34.8306,开封市,技师学院,,38,38,69,9,22,97,97,153,125,18,22,9,8,0.4,0.6
2026-05-29T0000,3592A,114.4518,34.7503,开封市,祥符区生态环境局,,47,47,62,16,25,64,64,140,100,39,24,10,11,0.6,0.7
2026-05-29T0000,1951A,84.886,45.6029,克拉玛依市,长征新村,颗粒物(PM10),87,101,37,41,11,147,147,121,121,2,8,1,3,0.3,0.3
2026-05-29T0000,1952A,84.8894,45.5827,克拉玛依市,南林小区,颗粒物(PM10),68,75,38,19,5,113,113,112,111,2,12,4,4,0.1,0.2
2026-05-29T0000,1954A,84.896,44.3328,克拉玛依市,独山子区,,45,45,50,13,11,105,105,116,108,5,9,6,6,0.2,0.3
2026-05-29T0000,1955A,85.6888,46.0909,克拉玛依市,乌尔禾区商贸楼,NA,NA,NA,35,NA,13,113,113,116,116,4,6,5,6,0.1,0.2
2026-05-29T0000,3612A,85.1045,45.6895,克拉玛依市,白碱滩区新站,颗粒物(PM10),122,176,43,22,14,126,126,130,129,2,8,9,10,0.1,0.2
2026-05-29T0000,2697A,76.1457,39.7143,克孜勒苏柯尔克孜自治州,市人民政府,颗粒物(PM10),65,71,38,32,21,61,61,126,115,48,6,5,6,0.3,0.1
2026-05-29T0000,3665A,76.1654,39.7157,克孜勒苏柯尔克孜自治州,克州文化中心,细颗粒物(PM2.5),72,61,41,46,24,102,102,134,127,16,4,3,4,0.3,0.2
2026-05-29T0000,1450A,102.8203,24.889,昆明市,呈贡新区,,30,27,39,21,22,71,71,106,79,16,13,4,4,0.5,0.6
2026-05-29T0000,1452A,102.7253,25.0904,昆明市,龙泉镇,,36,34,44,25,26,71,71,111,81,13,15,6,6,0.4,0.5
2026-05-29T0000,1453A,102.7267,25.0378,昆明市,东风东路,,36,36,44,20,23,68,68,109,80,17,17,4,3,0.4,0.4
2026-05-29T0000,1454A,102.6744,25.0671,昆明市,金鼎山,,35,34,49,24,26,70,70,109,80,10,13,5,5,0.5,0.5
2026-05-29T0000,1455A,102.6643,25.0401,昆明市,碧鸡广场,,50,50,52,29,26,60,60,101,68,12,16,2,3,0.5,0.6
2026-05-29T0000,3179A,102.7491,25.012,昆明市,官渡区博物馆,,39,39,44,22,22,56,56,108,78,21,13,9,5,0.7,0.6
2026-05-29T0000,3375A,102.8016,24.8336,昆明市,青年创业园,,30,30,40,20,21,70,70,96,79,10,11,5,6,0.4,0.4
2026-05-29T0000,3550A,102.8,24.9787,昆明市,昆明学院,,42,42,46,23,22,58,58,97,74,21,11,5,6,0.5,0.6
2026-05-29T0000,3551A,102.5969,24.6738,昆明市,晋宁区生态环境分局,,50,50,38,35,25,59,59,92,80,13,7,4,5,0.5,0.5
2026-05-29T0000,3552A,102.6673,24.9861,昆明市,云天化总部,,40,40,44,22,23,69,69,101,75,8,12,5,6,0.5,0.5
2026-05-29T0000,1456A,91.132,29.6515,拉萨市,八廓街,,41,NA,17,11,8,131,131,148,144,6,5,5,5,0.3,0.3
2026-05-29T0000,1457A,91.1221,29.6748,拉萨市,市环保局,,40,21,19,7,6,125,125,144,140,11,11,6,6,0.3,0.2
2026-05-29T0000,1458A,91.0874,29.6476,拉萨市,区监测站,,43,6,11,3,6,136,136,152,148,11,9,5,5,0.2,0.3
2026-05-29T0000,1459A,91.1774,29.6541,拉萨市,西藏大学,,42,10,10,3,6,133,133,149,146,9,8,6,5,0.1,0.3
2026-05-29T0000,1460A,90.9798,29.6586,拉萨市,区辐射站,,42,14,18,3,8,132,132,142,136,8,13,5,5,0.3,0.3
2026-05-29T0000,1461A,91.0831,29.6292,拉萨市,拉萨火车站,,46,8,16,7,10,145,145,154,151,5,7,3,3,0.2,0.1
2026-05-29T0000,2520A,109.2203,23.7252,来宾市,来宾技工学校,,30,29,33,21,21,86,86,122,106,9,9,7,8,0.6,0.6
2026-05-29T0000,3535A,109.1781,23.7293,来宾市,兴宾区政府,颗粒物(PM10),51,51,36,29,20,68,68,120,103,19,10,6,8,0.7,0.6
2026-05-29T0000,4002A,109.2312,23.7428,来宾市,中南小学,,36,36,32,23,20,93,93,124,110,10,10,5,5,0.3,0.4
2026-05-29T0000,1479A,103.8309,36.0467,兰州市,铁路设计院,,50,50,59,19,26,83,83,106,98,18,20,5,6,0.8,0.9
2026-05-29T0000,3241A,103.7439,36.0841,兰州市,百合公园,,41,41,48,19,29,57,57,110,89,33,19,9,8,1.0,1
2026-05-29T0000,3242A,103.9613,35.9985,兰州市,和平,,31,31,40,19,22,72,72,112,96,9,9,9,9,0.4,0.4
2026-05-29T0000,4236A,103.629272,36.093822,兰州市,庄浪东路808号,,45,45,53,20,25,52,52,108,85,42,16,6,6,0.2,0.3
2026-05-29T0000,4237A,103.7251,36.104344,兰州市,安宁西路88号,颗粒物(PM10),55,56,56,16,26,62,62,120,98,32,14,9,9,0.3,0.3
2026-05-29T0000,4238A,103.846982,36.067567,兰州市,北滨河东路1号,,38,38,43,20,25,22,22,77,56,59,30,10,10,0.5,0.5
2026-05-29T0000,1067A,116.6712,39.5109,廊坊市,药材公司,,32,32,21,15,9,48,48,112,83,30,14,1,1,0.3,0.3
2026-05-29T0000,1068A,116.7215,39.5592,廊坊市,开发区,,33,33,24,17,11,43,43,116,78,41,18,3,3,0.5,0.3
2026-05-29T0000,1070A,116.7246,39.5273,廊坊市,北华航天学院,,44,44,27,16,6,42,42,113,82,38,12,3,3,0.5,0.2
2026-05-29T0000,2919A,116.7022,39.5454,廊坊市,河北工业大学,,32,32,20,12,8,60,60,114,88,29,15,3,3,0.4,0.2
2026-05-29T0000,2536A,103.7629,29.5844,乐山市,牛耳桥,颗粒物(PM10),70,77,50,19,17,70,70,80,72,18,16,6,4,0.6,0.4
2026-05-29T0000,2537A,103.7501,29.6002,乐山市,市第三水厂,颗粒物(PM10),55,56,44,17,15,64,64,80,70,20,16,4,4,0.7,0.7
2026-05-29T0000,2538A,103.7571,29.5664,乐山市,市监测站,颗粒物(PM10),54,55,40,19,14,70,70,85,78,16,13,3,3,0.9,0.8
2026-05-29T0000,3361A,103.7313,29.563,乐山市,理工大学,颗粒物(PM10),54,55,44,18,15,59,59,86,72,17,14,8,7,0.7,0.5
2026-05-29T0000,2599A,100.2497,26.8802,丽江市,丽江古城,,39,34,30,27,18,47,47,103,69,12,9,8,9,0.7,0.7
2026-05-29T0000,2600A,100.2203,26.8906,丽江市,市中心,,37,37,32,17,15,65,65,101,66,8,9,4,5,0.5,0.5
2026-05-29T0000,1267A,119.9141,28.4513,丽水市,监测站大楼,,26,26,28,17,14,17,17,82,52,21,15,4,5,0.7,0.5
2026-05-29T0000,1268A,119.93,28.4589,丽水市,莲都小学,,25,25,32,15,15,39,39,88,62,15,13,/,/,/,/
2026-05-29T0000,1269A,119.8794,28.4232,丽水市,余庄前,,26,26,30,14,14,1,1,78,28,12,11,4,4,0.7,0.6
2026-05-29T0000,1173A,119.1759,34.5885,连云港市,市环境监测站,,41,12,44,7,36,129,129,186,160,8,17,8,9,0.4,0.5
2026-05-29T0000,3000A,119.3577,34.6971,连云港市,德源药业,,40,27,58,9,32,126,126,157,139,6,14,5,6,0.3,0.6
2026-05-29T0000,3007A,119.178,34.8442,连云港市,新城一中,,50,50,65,11,22,99,99,168,140,21,17,5,6,0.5,0.8
2026-05-29T0000,3008A,119.3607,34.7519,连云港市,胡沟管理处,,39,12,28,3,19,122,122,164,145,12,21,12,12,0.5,0.8
2026-05-29T0000,3009A,119.1478,34.5913,连云港市,矿山设计院,,40,19,50,7,34,126,126,185,164,9,18,3,4,0.2,0.4
2026-05-29T0000,3434A,119.2414,34.6539,连云港市,工贸学校,,40,22,43,9,23,127,127,183,156,12,13,5,5,0.6,0.9
2026-05-29T0000,3664A,119.4171,34.734,连云港市,连云街道,,37,22,39,6,20,117,117,167,146,10,14,10,10,0.4,0.8
2026-05-29T0000,2573A,102.2629,27.8981,凉山彝族自治州,西昌市政府,,24,24,26,9,22,53,53,118,84,3,5,4,5,0.5,0.5
2026-05-29T0000,2574A,102.2686,27.885,凉山彝族自治州,凉山州政府,,16,16,26,9,16,49,49,107,80,4,6,3,5,0.6,0.6
2026-05-29T0000,4229A,102.2342,27.8859,凉山彝族自治州,凯乐南路30号,,29,29,29,17,19,47,47,107,77,8,9,5,8,0.5,0.6
2026-05-29T0000,2212A,123.1978,41.2036,辽阳市,宏伟区,,25,25,46,6,24,56,56,127,92,21,15,6,6,0.4,0.8
2026-05-29T0000,2213A,123.1684,41.2497,辽阳市,新华园,颗粒物(PM10),59,62,56,16,28,18,18,126,NA,56,25,6,5,0.5,0.8
2026-05-29T0000,2214A,123.2355,41.2663,辽阳市,滨河路,,32,32,51,9,16,48,48,118,78,32,23,6,7,0.4,0.8
2026-05-29T0000,4083A,123.153,41.2874,辽阳市,铁西路150号,颗粒物(PM10),63,67,59,19,29,34,34,122,71,47,26,7,7,0.4,0.8
2026-05-29T0000,2227A,125.1359,42.8845,辽源市,环保局,,40,40,26,9,8,7,7,116,59,51,32,8,7,0.6,0.6
2026-05-29T0000,4085A,125.0998,42.9134,辽源市,安宁大街333号,,40,33,33,3,9,3,3,109,56,80,43,3,3,0.6,0.5
2026-05-29T0000,1625A,115.9789,36.4372,聊城市,区政府,,30,20,47,3,6,95,95,119,106,13,12,8,8,0.3,0.3
2026-05-29T0000,3200A,115.9772,36.4986,聊城市,监控中心,,27,27,49,3,7,83,83,116,95,15,14,7,9,0.2,0.3
2026-05-29T0000,3513A,116.0443,36.436,聊城市,九州社区,,45,45,46,7,6,76,76,124,109,37,16,4,4,0.4,0.4
2026-05-29T0000,4018A,116.0564,36.4609,聊城市,星美广场,NA,NA,40,42,7,8,NA,NA,121,NA,26,12,19,7,0.4,0.3
2026-05-29T0000,4113A,116.0091,36.4495,聊城市,利民路,,31,23,31,3,6,99,99,124,110,16,14,9,9,0.2,0.4
2026-05-29T0000,2632A,94.3683,29.6373,林芝市,林芝监测站,,24,NA,10,15,8,76,76,107,90,5,5,4,4,0.6,0.5
2026-05-29T0000,2633A,94.3616,29.6634,林芝市,林芝人民医院,,28,10,12,3,7,87,87,116,105,7,5,2,2,0.4,0.4
2026-05-29T0000,2603A,100.0779,23.8981,临沧市,市环保局,细颗粒物(PM2.5),60,60,61,40,37,36,36,84,57,12,10,6,6,0.5,0.5
2026-05-29T0000,2604A,100.0894,23.882,临沧市,市气象局,细颗粒物(PM2.5),62,58,58,41,36,52,52,94,72,9,10,8,10,0.8,0.7
2026-05-29T0000,1733A,111.5552,36.0791,临汾市,临钢医院,颗粒物(PM10),78,88,61,24,14,58,58,116,84,20,17,12,9,1.1,0.6
2026-05-29T0000,1734A,111.4984,36.0734,临汾市,技工学校,颗粒物(PM10),92,108,82,48,22,45,45,116,78,26,22,12,9,1.0,0.6
2026-05-29T0000,1736A,111.5017,36.0857,临汾市,市委,颗粒物(PM10),96,114,80,43,19,50,50,119,82,26,22,11,8,1.3,0.8
2026-05-29T0000,3018A,111.5048,36.1015,临汾市,唐尧大酒店,颗粒物(PM10),93,110,80,40,19,48,48,119,83,27,21,11,8,1.0,0.6
2026-05-29T0000,4244A,111.4879,36.053,临汾市,启星学校,颗粒物(PM10),84,97,65,36,19,43,43,113,73,27,26,8,7,1.1,0.6
2026-05-29T0000,4271A,103.2464,35.6123,临夏回族自治州,滨河东路1号,颗粒物(PM10),59,62,47,32,23,24,24,91,62,28,10,8,9,0.6,0.4
2026-05-29T0000,4310A,103.207136,35.599807,临夏回族自治州,新华街21号,细颗粒物(PM2.5),60,54,44,40,28,29,29,88,70,16,5,9,9,0.7,0.5
2026-05-29T0000,1618A,118.3429,35.0532,临沂市,沂河小区,,48,48,56,9,20,94,94,168,126,26,32,12,14,0.3,0.4
2026-05-29T0000,1619A,118.2962,35.0568,临沂市,鲁南制药厂,,41,41,61,7,25,99,99,171,127,29,41,11,15,0.3,0.5
2026-05-29T0000,1620A,118.2793,34.9976,临沂市,新光毛纺厂,,48,48,53,11,21,99,99,168,123,24,30,12,12,0.3,0.5
2026-05-29T0000,1621A,118.3955,35.0889,临沂市,河东保险公司,,34,34,43,9,18,86,86,167,125,41,34,12,14,0.2,0.2
2026-05-29T0000,3370A,118.3563,35.0215,临沂市,十里堡居委,,41,41,56,9,23,86,86,177,129,30,30,11,13,0.5,0.7
2026-05-29T0000,3496A,118.359,35.1067,临沂市,南坊新区,,34,34,52,3,20,99,99,165,125,25,28,9,16,0.2,0.4
2026-05-29T0000,3860A,118.3915,35.0297,临沂市,皇山花园小区,颗粒物(PM10),58,61,56,13,22,79,79,174,123,39,31,12,13,0.4,0.6
2026-05-29T0000,1870A,109.4854,24.3898,柳州市,柳东小学,,42,34,30,29,22,84,84,130,108,18,11,15,6,0.6,0.6
2026-05-29T0000,1871A,109.4109,24.3304,柳州市,环保监测站,,38,34,30,26,16,82,82,117,107,21,15,6,6,0.7,0.6
2026-05-29T0000,1872A,109.3886,24.3408,柳州市,河西水厂,,40,40,30,22,20,101,101,126,117,13,10,8,8,0.5,0.5
2026-05-29T0000,1873A,109.4263,24.2951,柳州市,市四中,颗粒物(PM10),51,51,35,29,19,75,75,126,109,26,14,6,7,0.6,0.6
2026-05-29T0000,1874A,109.396,24.3658,柳州市,市九中,,42,42,33,27,19,94,94,120,110,13,10,5,5,0.5,0.5
2026-05-29T0000,1875A,109.4912,24.3164,柳州市,古亭山,,36,32,33,25,21,64,64,126,92,24,13,3,4,0.7,0.7
2026-05-29T0000,3402A,109.5422,24.3994,柳州市,市二中,,45,35,34,31,20,36,36,132,98,39,11,31,12,0.7,0.6
2026-05-29T0000,2307A,116.5078,31.7369,六安市,监测大楼,,48,48,32,15,20,119,119,152,135,8,10,5,4,0.2,0.4
2026-05-29T0000,2308A,116.4738,31.7642,六安市,皖西学院,颗粒物(PM10),51,51,37,12,20,114,114,150,129,8,9,6,6,0.2,0.4
2026-05-29T0000,2309A,116.4997,31.7904,六安市,朝阳厂,,37,37,30,14,21,108,108,143,122,11,11,7,7,0.2,0.4
2026-05-29T0000,2310A,116.5566,31.7885,六安市,开发区,颗粒物(PM10),69,76,32,17,22,116,116,152,130,10,16,7,6,0.2,0.3
2026-05-29T0000,2577A,104.8293,26.592,六盘水市,黄土坡,,21,21,24,14,15,32,32,79,45,15,12,3,3,0.7,0.4
2026-05-29T0000,2579A,104.8481,26.5898,六盘水市,民中,,23,22,21,16,15,40,40,83,41,12,14,1,2,0.6,0.5
2026-05-29T0000,2580A,104.9541,26.5506,六盘水市,双水,,19,19,17,12,12,39,39,91,43,6,7,5,4,0.4,0.2
2026-05-29T0000,4151A,104.8899,26.5685,六盘水市,钟山大道中段564号,,20,16,25,14,12,40,40,85,42,8,8,4,4,0.8,0.8
2026-05-29T0000,2336A,117.022,25.1031,龙岩市,龙岩市监测站,,26,NA,23,18,17,52,52,93,58,10,11,10,6,0.3,0.3
2026-05-29T0000,2337A,117.0257,25.0662,龙岩市,闽西职业技术学院,,29,20,31,20,18,46,46,88,39,9,10,9,6,0.5,0.5
2026-05-29T0000,2338A,117.0195,25.0306,龙岩市,龙岩学院,,29,29,25,19,14,27,27,94,34,13,6,3,3,/,/
2026-05-29T0000,2885A,104.9344,33.3827,陇南市,滨江中学,颗粒物(PM10),53,53,64,20,18,61,61,105,86,11,8,3,12,0.4,0.4
2026-05-29T0000,3247A,104.9551,33.3709,陇南市,市总工会,颗粒物(PM10),53,53,52,19,18,76,76,107,95,4,6,6,7,0.5,0.4
2026-05-29T0000,2488A,111.9984,27.7346,娄底市,市监测站,,28,22,24,19,17,89,89,89,88,11,7,5,3,0.5,0.5
2026-05-29T0000,2491A,111.9888,27.7035,娄底市,市政府,,33,18,22,6,2,103,103,97,97,5,5,2,3,0.5,0.5
2026-05-29T0000,4127A,111.9812,27.7591,娄底市,涟钢职大,,33,NA,20,15,14,105,105,100,99,4,6,3,5,0.5,0.4
2026-05-29T0000,4128A,112.0303,27.7457,娄底市,娄底体校,,33,19,26,19,16,103,103,102,100,6,6,1,4,0.6,0.4
2026-05-29T0000,1894A,105.4427,28.9063,泸州市,小市上码头,,22,19,23,6,9,70,70,90,81,10,10,5,5,0.3,0.4
2026-05-29T0000,1895A,105.4241,28.8573,泸州市,兰田宪桥,,43,43,38,18,16,46,46,86,62,20,13,3,2,0.4,0.5
2026-05-29T0000,1896A,105.4378,28.8833,泸州市,市环监站,,22,22,23,10,8,63,63,86,73,14,11,8,8,0.6,0.8
2026-05-29T0000,4272A,105.3689,28.7783,泸州市,纳溪中医医院,,39,39,36,21,18,68,68,81,58,12,13,4,4,0.6,0.6
2026-05-29T0000,2183A,111.1447,37.5212,吕梁市,环保局,,49,49,41,7,7,43,43,121,89,30,22,6,8,0.3,0.3
2026-05-29T0000,2185A,111.1285,37.5338,吕梁市,自来水公司,颗粒物(PM10),73,81,44,12,9,29,29,118,90,47,26,2,4,0.3,0.3
2026-05-29T0000,2867A,111.1225,37.5093,吕梁市,马茂庄小学,颗粒物(PM10),58,60,45,12,9,35,35,123,89,39,24,3,7,0.2,0.2
2026-05-29T0000,1812A,112.3934,34.6517,洛阳市,市委党校,,50,50,69,22,33,79,79,96,89,16,15,11,13,0.4,0.6
2026-05-29T0000,1815A,112.494,34.6883,洛阳市,河南林校,颗粒物(PM10),60,63,76,24,32,73,73,104,90,20,19,15,15,0.5,0.8
2026-05-29T0000,1816A,112.3843,34.623,洛阳市,开发区管委会,颗粒物(PM10),51,51,64,15,30,92,92,102,94,12,10,12,13,0.3,0.5
2026-05-29T0000,1817A,112.4263,34.6249,洛阳市,市委新办公区,颗粒物(PM10),60,63,66,23,30,83,83,97,88,12,11,12,14,0.0,0.3
2026-05-29T0000,3340A,112.6005,34.6323,洛阳市,伊滨,颗粒物(PM10),53,53,67,22,31,77,77,100,90,13,13,10,11,0.4,0.6
2026-05-29T0000,3341A,112.495,34.6338,洛阳市,中移产业园,,42,42,65,16,29,76,76,95,85,12,13,11,13,0.4,0.7
2026-05-29T0000,3593A,112.5736,34.8993,洛阳市,吉利监测站,,46,46,59,11,21,68,68,108,94,25,15,9,10,0.3,0.5
2026-05-29T0000,3635A,112.3678,34.6623,洛阳市,河科大西苑校区,颗粒物(PM10),53,54,73,22,32,81,81,102,95,18,15,12,14,0.4,0.5
2026-05-29T0000,3636A,112.4387,34.678,洛阳市,英才小学,颗粒物(PM10),56,58,76,20,34,68,68,95,85,16,15,12,14,0.4,0.6
2026-05-29T0000,4214A,112.460027,34.694929,洛阳市,春都路1号院,颗粒物(PM10),54,55,72,29,32,64,64,95,82,17,15,12,12,0.2,0.4
2026-05-29T0000,2399A,114.051,33.5721,漯河市,三五一五工厂,颗粒物(PM10),54,55,72,18,22,77,77,144,98,16,16,5,8,0.3,0.5
2026-05-29T0000,2400A,114.0055,33.5698,漯河市,漯河大学,,46,46,67,21,26,74,74,136,91,19,19,6,8,0.3,0.5
2026-05-29T0000,2401A,114.0134,33.5826,漯河市,市水利局,颗粒物(PM10),51,51,77,23,30,70,70,133,91,18,18,5,7,0.3,0.5
2026-05-29T0000,2402A,114.0261,33.5697,漯河市,市广电局,,46,46,68,19,22,74,74,141,93,17,18,5,7,0.3,0.6
2026-05-29T0000,3478A,113.9691,33.568,漯河市,市图书馆,颗粒物(PM10),55,56,76,20,30,71,71,130,87,18,17,6,8,0.3,0.6
2026-05-29T0000,4250A,114.089259,33.588274,漯河市,韶山路11号,颗粒物(PM10),51,51,72,17,29,74,74,133,95,12,14,7,10,0.4,0.7
2026-05-29T0000,1798A,118.5084,31.6838,马鞍山市,湖东路四小,颗粒物(PM10),69,76,51,33,20,75,75,138,110,48,26,8,12,0.6,0.8
2026-05-29T0000,1799A,118.5019,31.6449,马鞍山市,开发区,颗粒物(PM10),74,83,46,34,20,39,39,144,98,63,19,6,7,0.7,0.6
2026-05-29T0000,3633A,118.4914,31.681,马鞍山市,雨山,颗粒物(PM10),70,77,43,31,22,68,68,136,109,52,23,8,11,0.6,0.8
2026-05-29T0000,4191A,118.527362,31.722269,马鞍山市,慈湖高新区,颗粒物(PM10),68,74,41,33,22,70,70,138,103,46,23,6,9,0.7,0.7
2026-05-29T0000,1686A,111.0285,21.469,茂名市,电白南海,,19,19,22,10,11,56,56,71,60,4,5,4,4,0.6,0.6
2026-05-29T0000,1687A,110.9294,21.6533,茂名市,茂石化七小,,22,22,27,12,14,53,53,79,62,10,9,5,6,0.4,0.5
2026-05-29T0000,1688A,110.9108,21.6688,茂名市,健康路,,18,12,18,11,13,55,55,83,69,8,7,4,4,0.5,0.6
2026-05-29T0000,1689A,110.8592,21.6826,茂名市,高岭,,24,24,28,10,13,53,53,72,59,5,6,3,2,/,/
2026-05-29T0000,3450A,111.0101,21.5165,茂名市,电白水东,,19,12,16,9,12,59,59,73,64,4,4,2,1,/,/
2026-05-29T0000,2540A,103.8414,30.0871,眉山市,气象局,,49,49,41,19,14,21,21,107,70,49,21,8,7,0.6,0.7
2026-05-29T0000,3148A,103.829,30.0563,眉山市,区人社局,,50,50,48,6,6,33,33,99,68,38,22,10,9,0.5,0.6
2026-05-29T0000,4148A,103.8836,30.0695,眉山市,眉职院,,34,34,33,10,9,40,40,102,78,30,16,10,10,0.6,0.7
2026-05-29T0000,1690A,116.1248,24.3307,梅州市,梅江月梅,,25,25,30,12,18,52,52,99,68,11,10,/,/,/,/
2026-05-29T0000,1691A,116.0798,24.2719,梅州市,梅县新城,,26,NA,27,18,19,59,59,107,76,12,11,8,8,0.4,0.4
2026-05-29T0000,3315A,116.1234,24.2994,梅州市,梅龙,NA,NA,29,27,21,19,NA,NA,108,NA,12,8,6,6,0.5,0.5
2026-05-29T0000,1878A,104.7775,31.4741,绵阳市,富乐山,,43,43,50,18,19,86,86,117,104,4,5,9,9,0.5,0.5
2026-05-29T0000,1880A,104.6698,31.4668,绵阳市,高新区自来水公司,颗粒物(PM10),55,56,51,21,18,80,80,115,104,17,9,9,8,0.7,0.7
2026-05-29T0000,3491A,104.6899,31.5324,绵阳市,西科大附属小学,颗粒物(PM10),60,63,54,21,20,93,93,114,103,7,11,6,5,0.5,0.4
2026-05-29T0000,3492A,104.5647,31.5343,绵阳市,安州区旅游局,颗粒物(PM10),51,51,55,16,18,81,81,120,104,11,7,5,6,0.6,0.6
2026-05-29T0000,4146A,104.7092,31.4972,绵阳市,科技城新区公安局,颗粒物(PM10),53,53,50,24,17,84,84,118,110,8,6,8,8,0.4,0.5
2026-05-29T0000,4226A,104.765114,31.453094,绵阳市,绵阳市气象局,,50,50,50,22,20,82,82,114,106,14,8,8,8,0.3,0.3
2026-05-29T0000,1784A,129.61,44.561,牡丹江市,环保大楼,,17,17,17,3,6,40,40,75,58,14,9,4,4,0.1,0.1
2026-05-29T0000,1787A,129.6364,44.6075,牡丹江市,机车工厂,,24,24,22,14,7,33,33,72,54,20,10,6,5,0.2,0.2
2026-05-29T0000,1788A,129.6386,44.5462,牡丹江市,第一中学,,9,9,15,3,5,28,28,73,56,11,6,5,5,0.2,0.2
2026-05-29T0000,4287A,129.5992,44.5964,牡丹江市,东晓云街98号,,27,27,22,11,7,26,26,72,53,23,8,4,4,0.2,0.2
2026-05-29T0000,2531A,105.0703,29.61,内江市,市监测站,,34,34,32,15,15,72,72,98,84,9,10,9,10,0.7,0.5
2026-05-29T0000,2533A,105.0657,29.5807,内江市,内江二中,,23,22,31,16,15,69,69,99,86,13,9,8,8,0.3,0.3
2026-05-29T0000,2534A,105.0407,29.5828,内江市,内江日报社,,29,29,34,16,17,73,73,104,86,12,10,9,11,0.4,0.4
2026-05-29T0000,4147A,105.0433,29.6105,内江市,玉峰路西段888号,,25,25,37,15,15,69,69,97,81,10,8,8,9,0.4,0.4
2026-05-29T0000,2628A,92.0653,31.4846,那曲市,那曲监测站,,37,23,16,10,8,116,116,160,148,15,10,6,5,0.4,0.4
2026-05-29T0000,4243A,92.0515,31.4787,那曲市,那曲市委宣传部,,36,22,10,18,8,113,113,157,142,19,9,10,9,0.6,0.3
2026-05-29T0000,1291A,115.8887,28.7006,南昌市,省林业公司,,34,34,18,20,12,88,88,96,87,13,8,5,5,0.7,0.7
2026-05-29T0000,1292A,115.813,28.7443,南昌市,林科所,NA,NA,22,14,NA,9,98,98,81,75,5,5,7,8,0.6,0.6
2026-05-29T0000,1294A,115.8518,28.687,南昌市,建工学校,,35,35,18,19,12,103,103,91,89,10,6,8,8,0.9,0.8
2026-05-29T0000,1295A,115.8926,28.6425,南昌市,象湖,,39,39,16,24,13,75,75,93,88,38,13,8,8,0.8,0.7
2026-05-29T0000,3046A,115.9084,28.6062,南昌市,机电学校,,48,48,26,24,13,86,86,99,95,26,11,6,5,0.8,0.7
2026-05-29T0000,3690A,115.9718,28.7032,南昌市,外国语学校,,35,35,24,20,14,60,60,90,73,13,10,10,9,0.7,0.7
2026-05-29T0000,4106A,115.7923,28.6873,南昌市,工业二路,,44,44,25,26,12,105,105,84,82,4,5,6,5,0.8,0.7
2026-05-29T0000,4192A,115.931587,28.686774,南昌市,南京东路235号,,28,23,18,19,13,88,88,100,88,18,16,6,6,0.9,0.8
2026-05-29T0000,1906A,106.0791,30.8022,南充市,南充市委,,29,29,26,15,15,53,53,90,62,15,10,6,5,0.3,0.2
2026-05-29T0000,1907A,106.1038,30.8215,南充市,南充炼油厂,,38,38,32,14,14,60,60,88,63,11,10,6,6,0.3,0.3
2026-05-29T0000,4227A,106.108336,30.788436,南充市,梨树横街98号,,32,32,27,17,14,50,50,94,64,19,9,7,7,0.3,0.2
2026-05-29T0000,4304A,106.1172,30.843,南充市,清泉寺北路188号,,41,41,35,14,13,60,60,91,67,10,7,6,7,0.3,0.3
2026-05-29T0000,4305A,106.067,30.7616,南充市,同庆路1号,,29,29,26,17,13,45,45,91,67,14,9,6,6,0.3,0.3
2026-05-29T0000,1151A,118.8033,32.1085,南京市,迈皋桥,,40,40,31,26,13,98,98,170,125,40,15,7,6,0.5,0.5
2026-05-29T0000,1152A,118.7487,32.057,南京市,草场门,,42,41,34,29,13,68,68,167,132,63,18,5,5,0.7,0.6
2026-05-29T0000,1154A,118.770105,32.004342,南京市,中华门,,40,31,32,28,12,75,75,141,112,25,9,6,6,0.6,0.5
2026-05-29T0000,1155A,118.8059,32.0329,南京市,瑞金路,,42,41,36,29,13,77,77,150,110,35,15,4,4,0.9,0.7
2026-05-29T0000,1156A,118.7946,32.0774,南京市,玄武湖,,49,49,38,27,10,81,81,148,117,36,16,4,5,0.5,0.4
2026-05-29T0000,1157A,118.6415,32.0964,南京市,浦口,,39,39,33,19,10,71,71,138,110,12,11,3,4,0.4,0.4
2026-05-29T0000,1158A,118.730129,32.000956,南京市,奥体中心,,44,44,38,30,13,64,64,152,118,50,18,6,6,0.4,0.4
2026-05-29T0000,1159A,118.9072,32.1047,南京市,仙林大学城,颗粒物(PM10),55,56,42,24,13,90,90,165,120,34,16,5,7,0.8,0.8
2026-05-29T0000,3422A,118.8443,31.919,南京市,江宁彩虹桥,,46,46,40,27,13,98,98,154,114,24,17,4,4,0.7,0.5
2026-05-29T0000,3427A,118.8497,32.3599,南京市,六合雄州,细颗粒物(PM2.5),78,81,38,49,17,57,57,131,99,35,15,4,4,0.7,0.6
2026-05-29T0000,4086A,118.7641,32.0841,南京市,新模范马路66号,,46,46,36,25,11,84,84,171,138,53,14,4,4,0.7,0.5
2026-05-29T0000,4249A,118.8707617,31.34017673,南京市,汶溪路181号,,46,46,32,28,15,118,118,166,153,16,12,8,8,0.3,0.4
2026-05-29T0000,4312A,119.019,31.6512,南京市,中山西路1号,,46,46,32,23,13,106,106,133,123,14,14,4,4,0.5,0.5
2026-05-29T0000,1401A,108.3098,22.788,南宁市,二十一中,,33,33,24,21,16,72,72,91,80,14,8,6,3,0.7,0.6
2026-05-29T0000,1402A,108.3135,22.8529,南宁市,北湖,,36,36,26,20,20,84,84,102,84,10,8,3,2,0.8,0.6
2026-05-29T0000,1403A,108.3205,22.8222,南宁市,市监测站,,30,30,26,18,15,88,88,107,93,8,5,5,4,0.8,0.7
2026-05-29T0000,1404A,108.3828,22.8038,南宁市,大自然花园,,41,41,26,24,15,82,82,96,87,12,8,5,4,1.0,0.8
2026-05-29T0000,1406A,108.2397,22.8462,南宁市,区农职院,,35,27,27,24,16,81,81,106,84,11,7,3,2,0.7,0.6
2026-05-29T0000,1407A,108.3285,22.7356,南宁市,英华嘉园,,34,34,29,20,16,74,74,96,84,17,11,6,4,0.7,0.4
2026-05-29T0000,3401A,108.4829,22.762,南宁市,红星社区,,38,29,27,26,18,80,80,96,89,11,7,7,5,0.5,0.4
2026-05-29T0000,4132A,108.2927,23.1477,南宁市,起凤路9号,细颗粒物(PM2.5),70,65,24,45,18,63,63,116,82,25,13,5,5,0.9,0.8
2026-05-29T0000,4221A,108.2177,22.7774,南宁市,乐贤路16号,,36,36,29,20,16,60,60,99,73,22,13,4,4,0.6,0.7
2026-05-29T0000,2332A,118.1682,26.6371,南平市,南平市监测站,,15,9,20,3,13,45,45,80,65,8,7,3,4,0.4,0.4
2026-05-29T0000,2334A,118.1757,26.6276,南平市,南平七中,,13,13,24,3,10,39,39,79,NA,8,8,2,3,0.3,0.4
2026-05-29T0000,1168A,120.9056,31.9669,南通市,狼山街道,,39,38,33,27,28,90,90,121,110,11,18,4,4,1.0,0.9
2026-05-29T0000,1170A,120.8635,32.0231,南通市,城中,颗粒物(PM10),54,55,47,30,29,113,113,120,NA,12,16,5,5,0.8,0.9
2026-05-29T0000,1171A,120.9376,31.9301,南通市,星湖花园,细颗粒物(PM2.5),60,57,43,40,33,96,96,113,105,18,32,5,4,1.0,0.8
2026-05-29T0000,1172A,120.8053,32.046,南通市,紫琅学院,,32,32,36,22,29,101,101,126,118,12,10,6,5,1.0,0.9
2026-05-29T0000,3291A,121.0631,32.0644,南通市,通州监测站,细颗粒物(PM2.5),60,56,39,40,31,113,113,128,127,9,6,5,5,1.0,0.9
2026-05-29T0000,3432A,120.9348,31.9874,南通市,环境教育馆,细颗粒物(PM2.5),72,61,43,46,31,73,73,123,109,31,14,5,5,0.9,0.7
2026-05-29T0000,4091A,120.8692,31.9885,南通市,洪江路,,45,44,38,31,32,98,98,105,100,13,20,3,3,1.0,0.9
2026-05-29T0000,2404A,112.5338,33.0086,南阳市,瓦房庄,,47,47,51,16,19,41,41,91,64,12,11,4,5,0.6,0.9
2026-05-29T0000,2405A,112.5002,32.9734,南阳市,汉画馆,颗粒物(PM10),58,61,56,21,21,17,17,81,55,34,19,7,6,0.9,0.8
2026-05-29T0000,2406A,112.5778,33.0144,南阳市,气象站,,47,47,54,15,20,42,42,82,61,15,15,6,7,0.3,0.7
2026-05-29T0000,2407A,112.548,32.9687,南阳市,理工学院,,50,50,52,20,22,27,27,93,64,26,17,7,7,0.5,0.7
2026-05-29T0000,4008A,112.5233,32.9921,南阳市,卧龙区政府,颗粒物(PM10),55,56,47,14,19,28,28,87,59,20,15,6,6,0.7,0.9
2026-05-29T0000,1234A,121.8352,29.9111,宁波市,区环保大楼,,43,43,49,21,27,58,58,114,87,39,39,9,9,0.8,0.7
2026-05-29T0000,1235A,121.5595,29.8208,宁波市,万里学院,细颗粒物(PM2.5),68,59,38,44,26,14,14,135,92,61,20,5,6,0.9,0.8
2026-05-29T0000,1236A,121.713,29.9564,宁波市,龙赛医院,颗粒物(PM10),72,80,48,35,26,5,5,120,78,85,28,9,9,0.8,0.7
2026-05-29T0000,1240A,121.5855,29.8635,宁波市,太古小学,颗粒物(PM10),56,58,37,34,26,5,5,124,97,76,16,4,4,0.5,0.5
2026-05-29T0000,1241A,121.5239,29.8673,宁波市,市环境监测中心,细颗粒物(PM2.5),60,50,37,40,29,61,61,132,116,40,16,10,10,0.8,0.7
2026-05-29T0000,2871A,121.6156,29.9015,宁波市,万里国际学校,细颗粒物(PM2.5),70,59,31,45,24,45,45,126,109,57,17,6,6,0.6,0.5
2026-05-29T0000,3710A,121.5593,29.8976,宁波市,白沙活动中心,细颗粒物(PM2.5),58,NA,29,39,26,79,79,128,115,27,16,6,6,0.7,0.6
2026-05-29T0000,4095A,121.8962,29.7529,宁波市,中科路88号,,37,37,34,24,26,21,21,123,90,46,21,5,6,0.6,0.6
2026-05-29T0000,2341A,119.5387,26.6611,宁德市,宁德市监测站,,29,26,23,20,12,31,31,88,38,27,22,4,4,0.8,0.6
2026-05-29T0000,3209A,119.5231,26.6562,宁德市,宁德一中,,32,NA,16,22,14,29,29,85,40,23,13,5,6,0.7,0.5
2026-05-29T0000,2618A,98.859,25.8541,怒江傈僳族自治州,州监测站,颗粒物(PM10),51,51,50,33,25,58,58,104,86,16,5,4,5,0.5,0.4
2026-05-29T0000,2619A,98.8607,25.8168,怒江傈僳族自治州,泸水一中,,43,38,46,30,28,55,55,86,67,13,16,5,5,0.5,0.7
2026-05-29T0000,1888A,101.6891,26.571,攀枝花市,弄弄坪,颗粒物(PM10),53,53,53,26,24,77,77,113,96,11,11,2,3,0.4,0.5
2026-05-29T0000,1889A,101.577,26.5914,攀枝花市,河门口,颗粒物(PM10),69,76,53,32,27,53,53,123,94,24,12,58,22,0.8,0.9
2026-05-29T0000,1891A,101.7365,26.4986,攀枝花市,仁和,颗粒物(PM10),53,54,49,26,28,76,76,100,81,6,8,7,7,0.4,0.4
2026-05-29T0000,2835A,101.7222,26.567,攀枝花市,四十中小,,45,45,41,21,22,87,87,107,95,5,7,8,9,0.7,0.8
2026-05-29T0000,1604A,122.0303,41.1489,盘锦市,开发区,,40,NA,29,28,20,15,15,134,83,51,17,7,9,0.3,0.3
2026-05-29T0000,1605A,122.0486,41.0883,盘锦市,兴隆台,,46,33,32,15,29,2,2,124,67,91,25,7,8,0.6,0.4
2026-05-29T0000,1606A,121.8297,41.1026,盘锦市,新生街道,,19,12,23,10,20,28,28,116,62,38,30,6,5,0.3,0.2
2026-05-29T0000,1832A,113.3257,33.7423,平顶山市,新华旅馆,颗粒物(PM10),53,53,76,16,27,69,69,108,78,14,10,5,5,0.1,0.2
2026-05-29T0000,1833A,113.2917,33.737,平顶山市,规划设计院,颗粒物(PM10),55,57,81,22,29,36,36,102,68,17,8,7,10,0.5,0.6
2026-05-29T0000,1834A,113.182,33.7738,平顶山市,平顶山工学院,,49,49,65,19,25,39,39,98,66,20,13,5,7,0.3,0.5
2026-05-29T0000,3594A,112.8736,33.9068,平顶山市,石龙区,颗粒物(PM10),56,58,80,34,28,28,28,91,62,33,16,9,12,0.3,0.2
2026-05-29T0000,4116A,113.284,33.7139,平顶山市,姚电大道23号,颗粒物(PM10),62,66,85,18,27,46,46,105,69,20,12,7,10,0.4,0.6
2026-05-29T0000,2656A,106.6633,35.5338,平凉市,聚贤嘉苑,颗粒物(PM10),55,56,70,18,21,72,72,107,89,22,19,11,9,0.5,0.5
2026-05-29T0000,2657A,106.7021,35.5307,平凉市,博物馆,颗粒物(PM10),53,53,63,12,18,69,69,112,94,20,15,10,10,0.4,0.6
2026-05-29T0000,2348A,113.8384,27.6436,萍乡市,中医院,,16,NA,49,11,32,43,43,82,69,7,19,4,15,0.7,1.3
2026-05-29T0000,2350A,113.8677,27.6438,萍乡市,市环保局,,15,12,43,10,36,45,45,81,68,4,15,8,12,0.8,1.2
2026-05-29T0000,2351A,113.8663,27.6202,萍乡市,安源区政府,,28,NA,37,19,30,44,44,88,75,8,12,5,13,0.9,0.6
2026-05-29T0000,4107A,113.8686,27.6668,萍乡市,联洪村委会,,14,NA,53,9,33,44,44,81,69,5,18,5,12,0.8,1
2026-05-29T0000,2319A,119.0142,25.4324,莆田市,荔城区仓后路,,35,35,30,9,12,12,12,81,39,19,10,/,/,/,/
2026-05-29T0000,2320A,119.0016,25.4553,莆田市,莆田市监测站,,30,30,26,9,12,22,22,94,43,6,3,2,2,0.6,0.5
2026-05-29T0000,2321A,119.112,25.4561,莆田市,涵江区六中,,32,32,24,18,12,59,59,74,47,15,12,/,/,0.7,0.4
2026-05-29T0000,2322A,119.1014,25.3215,莆田市,秀屿区政府,,32,32,29,12,13,69,69,87,65,10,10,4,5,0.5,0.4
2026-05-29T0000,2392A,115.0312,35.7636,濮阳市,环保局,颗粒物(PM10),52,52,45,14,11,66,66,122,104,22,13,5,7,0.6,0.7
2026-05-29T0000,3021A,115,35.7667,濮阳市,濮水河管理处,,18,13,32,12,13,52,52,108,93,18,15,3,4,0.6,0.6
2026-05-29T0000,4118A,115.0552,35.7816,濮阳市,中原东路68号,NA,NA,NA,NA,NA,NA,NA,NA,NA,NA,NA,NA,NA,NA,NA,NA
2026-05-29T0000,4216A,115.0923632,35.76857718,濮阳市,任丘路479号,,32,32,48,15,13,62,62,123,102,23,13,5,4,0.4,0.6
2026-05-29T0000,2601A,100.9801,22.7634,普洱市,市环保局,,50,50,51,27,23,21,21,79,51,12,8,6,5,0.7,0.7
2026-05-29T0000,2602A,100.9763,22.8237,普洱市,普洱第二中学,颗粒物(PM10),53,53,52,25,22,18,18,81,44,22,10,5,6,0.7,0.7
2026-05-29T0000,3345A,131.0413,45.7795,七台河市,中波台,,13,NA,7,9,8,38,38,79,57,8,8,4,4,0.5,0.5
2026-05-29T0000,3637A,131.0136,45.7688,七台河市,人民广场,,29,29,16,3,8,42,42,80,54,13,11,6,7,0.5,0.4
2026-05-29T0000,3684A,130.8639,45.8144,七台河市,新建矿广场,,15,14,8,10,7,20,20,68,45,23,15,8,5,0.4,0.5
2026-05-29T0000,1779A,123.9307,47.3641,齐齐哈尔市,安居小区,,21,21,26,3,6,60,60,89,63,6,9,3,3,0.2,0.3
2026-05-29T0000,1780A,123.9497,47.3389,齐齐哈尔市,中心广场,,20,18,24,3,7,63,63,89,66,12,15,4,5,0.4,0.4
2026-05-29T0000,1781A,123.9483,47.3229,齐齐哈尔市,农牧车辆厂,,24,24,25,3,6,67,67,98,74,7,8,6,6,0.2,0.1
2026-05-29T0000,1783A,123.9442,47.2994,齐齐哈尔市,市环境监测站,,22,17,20,7,6,70,70,93,73,6,9,4,3,0.4,0.5
2026-05-29T0000,3662A,123.6341,47.2079,齐齐哈尔市,富区青少年活动中心,,22,16,30,7,8,69,69,96,70,14,16,5,7,0.2,0.3
2026-05-29T0000,2591A,107.9765,26.5724,黔东南苗族侗族自治州,市环境监测站,,18,11,17,9,13,55,55,92,70,9,8,2,2,0.4,0.4
2026-05-29T0000,2881A,107.8909,26.531,黔东南苗族侗族自治州,凯里学院,,19,9,13,8,12,58,58,94,67,6,7,2,2,0.5,0.5
2026-05-29T0000,2593A,107.5223,26.2371,黔南布依族苗族自治州,小围寨,,15,NA,12,8,9,47,47,78,56,10,6,4,4,0.7,0.7
2026-05-29T0000,3538A,107.5175,26.2977,黔南布依族苗族自治州,沙坝,,17,17,17,3,10,46,46,79,51,7,5,4,4,0.8,0.8
2026-05-29T0000,2589A,104.9022,25.0943,黔西南布依族苗族自治州,场坝街,,19,19,25,10,15,40,40,89,55,12,9,14,10,0.4,0.4
2026-05-29T0000,2590A,104.8812,25.0994,黔西南布依族苗族自治州,坪东大道,,23,23,25,12,18,33,33,86,41,9,9,6,6,0.2,0.4
2026-05-29T0000,2502A,108.6238,21.9667,钦州市,市环保站,,34,34,32,15,14,52,52,110,80,15,10,3,3,0.9,0.7
2026-05-29T0000,2503A,108.655,21.9481,钦州市,沙埠小学,,49,49,37,32,22,28,28,115,69,37,14,11,4,0.8,0.6
2026-05-29T0000,2504A,108.5989,21.7435,钦州市,港区一小,,43,43,40,20,16,63,63,94,75,16,11,3,4,0.7,0.7
2026-05-29T0000,3404A,108.5959,21.9634,钦州市,北职校,,37,37,32,23,17,46,46,111,80,18,10,4,5,0.7,0.6
2026-05-29T0000,1046A,119.5247,39.9346,秦皇岛市,建设大厦,,44,44,45,16,14,25,25,124,90,69,24,5,6,0.3,0.3
2026-05-29T0000,3132A,119.5979,39.938,秦皇岛市,文明里,,31,31,47,17,16,71,71,130,99,33,23,5,5,0.4,0.4
2026-05-29T0000,4066A,119.7458,39.9952,秦皇岛市,南园路157号,,35,35,34,3,13,78,78,123,87,31,28,7,7,0.2,0.3
2026-05-29T0000,4067A,119.5131,39.8858,秦皇岛市,翠岛大街1号,,28,28,33,18,14,46,46,125,95,54,20,10,11,0.4,0.4
2026-05-29T0000,4198A,119.509013,39.825305,秦皇岛市,北戴河轮滑馆,,27,24,42,11,19,86,86,118,97,24,18,8,8,0.2,0.4
2026-05-29T0000,1310A,120.404,36.0625,青岛市,市南区东部子站,,39,39,43,7,20,111,111,144,119,23,17,7,7,0.4,0.4
2026-05-29T0000,1311A,120.362344,36.10282,青岛市,四方区子站,,48,48,38,9,19,95,95,158,121,37,16,9,8,0.7,0.7
2026-05-29T0000,1312A,120.294373,36.054183,青岛市,市南区西部子站,,41,41,43,7,19,69,69,136,101,36,23,6,5,0.8,0.8
2026-05-29T0000,1313A,120.4581,36.0858,青岛市,崂山区子站,,37,31,34,9,16,117,117,151,122,16,14,8,9,0.3,0.4
2026-05-29T0000,1315A,120.3945,36.3083,青岛市,城阳区子站,颗粒物(PM10),51,51,41,16,18,97,97,144,120,28,18,9,8,0.5,0.6
2026-05-29T0000,3642A,120.3454,36.0735,青岛市,市北区南部,,37,32,35,6,19,117,117,158,128,19,15,6,5,0.7,0.8
2026-05-29T0000,3643A,120.3897,36.18,青岛市,李沧区北部,颗粒物(PM10),58,61,41,14,17,86,86,143,106,36,21,11,11,0.6,0.6
2026-05-29T0000,4110A,120.5222,36.4089,青岛市,盟旺路653号,,47,47,39,14,17,108,108,149,119,16,11,8,7,0.7,1
2026-05-29T0000,4290A,120.196923,35.954556,青岛市,珠江路669号,颗粒物(PM10),90,105,56,11,17,10,10,148,75,128,37,10,6,0.7,0.7
2026-05-29T0000,4291A,120.0424,35.8656,青岛市,黄岛区人民政府广场,,44,44,48,12,17,63,63,143,112,38,21,10,10,0.7,0.7
2026-05-29T0000,1703A,113.0218,23.7086,清远市,凤城街办,,32,32,37,8,22,68,68,137,119,20,13,/,/,/,/
2026-05-29T0000,3025A,113.0479,23.6343,清远市,技师学院,颗粒物(PM10),67,73,41,39,23,46,46,149,111,45,16,8,6,0.6,0.5
2026-05-29T0000,3318A,112.9898,23.7403,清远市,清新太和,,34,34,39,18,23,98,98,126,121,12,11,8,7,0.5,0.4
2026-05-29T0000,3455A,113.076,23.72,清远市,清城东城,,31,31,33,10,13,79,79,151,120,17,15,/,/,/,/
2026-05-29T0000,2661A,107.6325,35.7357,庆阳市,庆阳五中,颗粒物(PM10),55,56,45,22,14,80,80,95,87,19,11,6,4,0.4,0.3
2026-05-29T0000,2662A,107.6361,35.7067,庆阳市,市环保局,颗粒物(PM10),53,54,48,19,13,79,79,96,85,20,13,4,4,0.4,0.3
2026-05-29T0000,1916A,103.7897,25.5036,曲靖市,环境监测站,,40,40,42,18,21,69,69,106,70,6,11,4,5,0.4,0.4
2026-05-29T0000,1917A,103.8013,25.5357,曲靖市,烟厂办公区,,32,32,39,18,18,61,61,100,73,8,10,3,5,0.4,0.5
2026-05-29T0000,3376A,103.7926,25.4651,曲靖市,南苑二区,,39,39,40,21,22,63,63,101,70,11,10,5,4,0.5,0.5
2026-05-29T0000,3377A,103.7442,25.5259,曲靖市,曲靖师范学院,,35,35,41,19,22,69,69,107,73,8,9,3,4,0.4,0.5
2026-05-29T0000,1264A,118.8694,28.94,衢州市,环保大楼,NA,NA,NA,40,NA,27,NA,NA,82,70,25,14,/,/,/,/
2026-05-29T0000,1266A,118.8622,28.9809,衢州市,衢州学院,细颗粒物(PM2.5),78,63,35,49,26,62,62,86,70,23,16,7,8,0.6,0.5
2026-05-29T0000,4097A,118.9646,28.9832,衢州市,衢州三中,细颗粒物(PM2.5),82,71,39,51,27,53,53,83,64,28,16,5,6,0.8,0.7
2026-05-29T0000,1611A,118.5818,24.9116,泉州市,涂山街,,34,34,33,20,19,32,32,130,56,19,14,3,3,0.6,0.5
2026-05-29T0000,1612A,118.597,24.8976,泉州市,津头埔,,33,33,34,18,17,30,30,124,54,18,16,1,2,0.5,0.4
2026-05-29T0000,1613A,118.6669,24.9422,泉州市,万安,,30,30,33,13,16,34,34,106,49,10,12,3,3,0.4,0.4
2026-05-29T0000,4105A,118.6355,24.9148,泉州市,霞新路6号,,25,24,33,17,23,33,33,102,53,20,19,/,/,0.4,0.4
2026-05-29T0000,2626A,88.8873,29.2723,日喀则市,日喀则监测站,,47,NA,8,12,5,149,149,152,150,3,4,6,6,0.5,0.5
2026-05-29T0000,3726A,88.8775,29.2425,日喀则市,林业技术推广中心,,43,6,10,3,3,137,137,144,141,2,3,6,6,0.4,0.4
2026-05-29T0000,1659A,119.4711,35.421,日照市,监测站,,33,24,34,3,18,104,104,150,126,22,22,9,8,0.4,0.5
2026-05-29T0000,1660A,119.523,35.4216,日照市,市政府广场,,34,27,36,3,17,108,108,152,134,19,22,5,5,0.7,0.8
2026-05-29T0000,1661A,119.5511,35.4113,日照市,港务局,NA,NA,NA,52,NA,30,NA,NA,174,NA,NA,26,NA,6,NA,1
2026-05-29T0000,3507A,119.5326,35.4627,日照市,职业技术学院,,46,27,39,3,17,146,146,152,141,14,22,9,8,0.5,0.7
2026-05-29T0000,3604A,119.3267,35.1043,日照市,岚山环保分局,,46,46,66,6,29,97,97,167,132,44,33,39,18,3.1,1.4
2026-05-29T0000,1835A,111.1922,34.7752,三门峡市,市政府,颗粒物(PM10),64,69,74,28,31,20,20,87,74,50,22,10,13,0.3,0.4
2026-05-29T0000,1836A,111.1588,34.794,三门峡市,开发区,颗粒物(PM10),53,54,65,22,32,56,56,87,77,9,12,8,9,0.3,0.4
2026-05-29T0000,3039A,111.1911,34.7829,三门峡市,三门峡市第一小学,颗粒物(PM10),60,63,80,27,35,38,38,85,75,40,22,11,13,0.3,0.4
2026-05-29T0000,3598A,111.1031,34.719,三门峡市,富达温泉假日酒店,NA,NA,NA,94,NA,26,NA,NA,90,87,30,20,10,12,0.4,0.6
2026-05-29T0000,2324A,117.621,26.2626,三明市,三钢,,20,18,25,14,19,17,17,56,38,18,19,4,12,0.9,1.2
2026-05-29T0000,2325A,117.6352,26.2714,三明市,三明二中,,19,19,27,11,17,19,19,55,37,15,18,4,8,0.8,1.1
2026-05-29T0000,2326A,117.6028,26.2377,三明市,三元区政府,,28,24,25,19,17,9,9,57,33,21,19,4,9,0.6,1.2
2026-05-29T0000,1877A,109.4962,18.2682,三亚市,河西子站,,22,19,21,13,11,69,69,85,76,5,3,3,3,0.5,0.5
2026-05-29T0000,3540A,109.7348,18.3443,三亚市,君悦子站,,32,32,23,10,15,24,24,73,59,23,6,2,2,0.5,0.4
2026-05-29T0000,4135A,109.1714,18.3739,三亚市,城东小学站,,29,24,22,20,13,45,45,77,61,9,5,/,/,/,/
2026-05-29T0000,2624A,91.7592,29.234,山南市,山南监测站,,45,6,16,3,3,142,142,146,146,2,3,7,7,0.3,0.3
2026-05-29T0000,2625A,91.7701,29.2436,山南市,山南人民医院,,43,12,20,3,4,137,137,150,149,6,3,5,5,0.3,0.3
2026-05-29T0000,1674A,116.6795,23.3666,汕头市,金平子站,,32,32,29,20,17,54,54,121,84,19,9,4,4,0.7,0.6
2026-05-29T0000,1675A,116.7248,23.3632,汕头市,龙湖子站,,29,24,30,20,17,52,52,106,75,13,7,6,6,/,/
2026-05-29T0000,1676A,116.7257,23.2774,汕头市,濠江子站,,34,34,34,21,17,38,38,90,68,21,11,8,8,/,/
2026-05-29T0000,1677A,116.7518,23.4712,汕头市,澄海子站,NA,NA,27,34,15,18,NA,NA,147,NA,10,11,5,5,0.6,0.8
2026-05-29T0000,1678A,116.6088,23.2539,汕头市,潮阳子站,,40,37,28,28,19,49,49,105,80,14,6,6,6,0.6,0.5
2026-05-29T0000,3444A,116.4539,23.2684,汕头市,潮南峡山,,47,47,29,29,19,50,50,117,86,22,10,6,7,0.6,0.5
2026-05-29T0000,3624A,116.4069,23.2533,汕头市,潮南子站,,42,42,40,21,18,71,71,104,82,8,6,6,6,/,/
2026-05-29T0000,1693A,115.3653,22.7751,汕尾市,市环保局,,19,16,24,13,12,54,54,83,66,6,4,4,5,0.4,0.4
2026-05-29T0000,1695A,115.362,22.7926,汕尾市,新城中学,,20,20,24,13,12,61,61,87,72,6,6,6,6,0.5,0.5
2026-05-29T0000,2645A,109.9155,33.8714,商洛市,监测站,颗粒物(PM10),52,52,54,19,23,52,52,76,68,21,13,10,7,0.5,0.5
2026-05-29T0000,3045A,109.9647,33.8486,商洛市,商州区中学,颗粒物(PM10),53,53,62,19,21,49,49,73,63,21,17,5,5,0.4,0.5
2026-05-29T0000,2408A,115.6701,34.4283,商丘市,环境监测站,NA,NA,NA,52,18,14,77,77,129,110,NA,12,4,4,0.5,0.4
2026-05-29T0000,2409A,115.6458,34.4047,商丘市,粮食局,,31,31,49,3,15,94,94,127,110,10,11,6,7,0.3,0.4
2026-05-29T0000,3171A,115.6069,34.4465,商丘市,梁园区档案局,,45,45,52,9,15,82,82,127,107,18,14,2,2,0.2,0.3
2026-05-29T0000,4119A,115.6701,34.3767,商丘市,北海东路185号,,31,31,38,7,15,91,91,132,115,13,17,4,4,0.3,0.4
2026-05-29T0000,4120A,115.6172,34.3704,商丘市,中山大街3号,,34,34,45,12,15,93,93,129,114,8,10,5,6,0.2,0.3
2026-05-29T0000,1141A,121.401,31.2382,上海市,普陀,,37,37,43,23,31,100,100,141,124,22,30,6,6,0.6,0.7
2026-05-29T0000,1142A,121.4774,31.2043,上海市,十五厂,,42,38,40,29,30,89,89,139,116,26,22,6,6,0.7,0.8
2026-05-29T0000,1143A,121.4673,31.3011,上海市,虹口,细颗粒物(PM2.5),60,53,48,40,35,66,66,93,74,26,25,3,3,0.8,0.9
2026-05-29T0000,1147A,121.4253,31.226,上海市,静安监测站,颗粒物(PM10),54,55,42,32,31,90,90,140,114,22,24,8,8,0.9,0.9
2026-05-29T0000,1148A,121.7029,31.1905,上海市,浦东川沙,,50,44,37,35,29,111,111,124,113,15,22,7,7,0.8,0.9
2026-05-29T0000,1149A,121.5339,31.229,上海市,浦东新区监测站,,50,46,39,35,30,92,92,115,101,23,28,7,7,0.6,0.8
2026-05-29T0000,1150A,121.5776,31.2038,上海市,浦东张江,,48,40,39,33,32,80,80,131,114,30,24,7,7,0.7,0.8
2026-05-29T0000,3265A,121.4242,31.3303,上海市,宝山庙行,颗粒物(PM10),61,65,66,39,35,75,75,128,88,30,29,10,9,0.5,0.6
2026-05-29T0000,3266A,121.8789,31.4662,上海市,崇明上实东滩,细颗粒物(PM2.5),54,45,31,37,26,75,75,118,112,9,5,7,6,0.7,0.5
2026-05-29T0000,3268A,121.316,31.2839,上海市,嘉定南翔,细颗粒物(PM2.5),58,46,41,39,32,82,82,131,96,22,27,5,5,0.7,0.8
2026-05-29T0000,3269A,121.3357,30.7455,上海市,金山新城,,43,33,29,30,26,99,99,143,126,12,16,4,5,0.9,0.8
2026-05-29T0000,3270A,121.4996,31.0741,上海市,闵行浦江,,46,39,41,32,32,89,89,132,110,14,20,6,6,0.4,0.5
2026-05-29T0000,3271A,121.2886,31.1663,上海市,青浦徐泾,NA,NA,69,41,44,32,NA,NA,160,NA,NA,27,NA,5,NA,0.6
2026-05-29T0000,3272A,121.2193,31.0382,上海市,松江图书馆,细颗粒物(PM2.5),107,88,39,67,25,66,66,158,129,29,14,7,7,0.4,0.4
2026-05-29T0000,3273A,121.3904,31.206,上海市,长宁仙霞,,48,38,41,33,32,98,98,133,107,14,25,7,7,0.4,0.5
2026-05-29T0000,3274A,121.7964,31.0507,上海市,浦东惠南,,44,44,36,28,27,58,58,124,102,43,23,8,7,0.8,0.9
2026-05-29T0000,3544A,121.4891,30.925,上海市,奉贤南桥新城,细颗粒物(PM2.5),68,55,40,44,32,84,84,146,108,13,19,6,6,0.7,0.6
2026-05-29T0000,4183A,121.417401,31.16637,上海市,冠生园路458号,细颗粒物(PM2.5),56,46,43,38,33,82,82,131,105,19,23,4,4,1.0,1
2026-05-29T0000,4205A,121.541914,31.268301,上海市,宁武路151号,细颗粒物(PM2.5),68,52,44,44,36,90,90,122,103,28,28,7,7,0.3,0.5
2026-05-29T0000,2382A,117.9758,28.4439,上饶市,市监测站,,32,32,48,22,23,52,52,83,66,18,14,15,19,/,/
2026-05-29T0000,2383A,117.9521,28.4637,上饶市,凤凰光学,,35,30,33,24,22,59,59,89,71,11,8,12,10,0.7,0.7
2026-05-29T0000,3685A,117.897,28.4316,上饶市,双创科技城,,35,34,37,24,20,60,60,88,66,19,14,20,17,0.4,0.4
2026-05-29T0000,4211A,118.190438,28.444845,上饶市,裕丰大道,,38,38,40,20,23,64,64,92,77,10,10,17,14,0.7,0.6
2026-05-29T0000,1669A,113.5821,24.7733,韶关市,市八中,,19,10,45,6,27,58,58,119,74,8,13,3,10,0.6,0.6
2026-05-29T0000,1671A,113.5916,24.7973,韶关市,园林处,,22,22,29,13,19,60,60,107,68,9,13,3,11,/,/
2026-05-29T0000,1673A,113.5971,24.6864,韶关市,曲江监测站,,25,25,36,9,21,35,35,114,66,22,16,11,8,0.6,0.7
2026-05-29T0000,2809A,113.6668,24.7756,韶关市,大学路288号,,17,NA,35,11,21,52,52,112,70,11,13,6,8,/,/
2026-05-29T0000,3622A,113.5556,24.8082,韶关市,碧湖山庄,,17,14,31,8,16,53,53,116,62,9,13,2,3,0.5,0.5
2026-05-29T0000,2464A,111.5277,27.2442,邵阳市,市化工厂,,46,NA,25,32,25,66,66,99,86,3,5,3,3,0.6,0.6
2026-05-29T0000,2466A,111.4327,27.2276,邵阳市,市环保局,,43,NA,32,30,26,77,77,104,91,3,5,2,2,0.7,0.8
2026-05-29T0000,4218A,111.446,27.2472,邵阳市,北塔二期4-26地块,NA,NA,NA,36,25,22,64,64,85,76,4,8,4,4,0.3,0.4
2026-05-29T0000,4219A,111.4739,27.2282,邵阳市,邵水西路287号,,39,33,30,27,22,77,77,104,90,3,5,3,3,0.4,0.5
2026-05-29T0000,1247A,120.6053,29.9927,绍兴市,城东开发委,,34,34,32,20,22,44,44,131,92,24,15,8,8,0.7,0.7
2026-05-29T0000,2921A,120.5482,30.0003,绍兴市,树下王站,,32,NA,22,22,24,32,32,128,93,27,13,7,7,0.6,0.7
2026-05-29T0000,3408A,120.5685,29.936,绍兴市,绍兴中专,,23,23,29,13,21,48,48,132,91,20,14,3,4,0.6,0.8
2026-05-29T0000,3409A,120.4905,30.086,绍兴市,柯桥区政府,,31,31,30,19,23,58,58,140,110,24,12,6,6,0.6,0.6
2026-05-29T0000,3410A,120.8751,30.0249,绍兴市,重华小学,,34,34,33,22,24,47,47,132,100,22,14,6,7,0.6,0.6
2026-05-29T0000,3411A,120.837,30.0137,绍兴市,上虞中学,,37,37,35,23,25,28,28,134,95,40,13,6,6,0.6,0.7
2026-05-29T0000,3560A,120.4715,30.0414,绍兴市,柯桥妇保,,31,31,35,17,23,41,41,140,92,14,13,5,5,0.6,0.6
2026-05-29T0000,3658A,120.6156,30.0762,绍兴市,袍江中学,,48,45,32,33,23,49,49,131,98,40,18,17,12,0.8,0.8
2026-05-29T0000,1356A,114.0948,22.5506,深圳市,通心岭子站,,23,23,22,12,16,44,44,112,66,18,10,3,3,0.3,0.4
2026-05-29T0000,1357A,114.1153,22.5713,深圳市,洪湖,,24,24,26,12,12,41,41,115,68,20,10,5,5,0.3,0.3
