timepoint,stationcode,longitude,latitude,area,positionname,primarypollutant,aqi,pm10,pm10_24h,pm2_5,pm2_5_24h,o3,o3_24h,o3_8h,o3_8h_24h,no2,no2_24h,so2,so2_24h,co,co_24h
2026-06-19T2300,2568A,102.2503,31.8896,阿坝藏族羌族自治州,马师校,,28,28,25,7,8,34,34,74,52,5,4,3,3,0.2,0.2
2026-06-19T2300,3994A,102.2174,31.9016,阿坝藏族羌族自治州,马尔康中学西区,,26,26,13,6,7,41,41,76,57,4,5,2,2,0.3,0.2
2026-06-19T2300,2695A,80.2899,41.1684,阿克苏地区,电视台,NA,NA,40,95,NA,52,76,76,88,80,6,8,3,3,0.7,0.6
2026-06-19T2300,2696A,80.2592,41.1541,阿克苏地区,艺术中心,NA,NA,NA,99,NA,45,NA,NA,115,NA,NA,14,NA,4,NA,0.7
2026-06-19T2300,2205A,105.699,38.8409,阿拉善盟,蒙二幼,颗粒物(PM10),64,69,62,27,25,97,97,116,112,5,5,10,10,0.4,0.4
2026-06-19T2300,2206A,105.7198,38.8508,阿拉善盟,环保局新楼,颗粒物(PM10),72,80,52,22,21,98,98,112,112,5,5,8,10,0.5,0.5
2026-06-19T2300,2708A,88.1266,47.8515,阿勒泰地区,市站,颗粒物(PM10),70,78,27,8,3,143,143,128,128,3,8,7,7,0.1,0.1
2026-06-19T2300,4166A,88.1198,47.7931,阿勒泰地区,阿勒泰路33号,颗粒物(PM10),71,79,27,16,5,134,134,124,122,4,6,6,6,0.3,0.3
2026-06-19T2300,2630A,80.1171,32.4999,阿里地区,阿里监测站,NA,NA,13,13,3,6,135,135,149,140,NA,3,5,4,0.3,0.3
2026-06-19T2300,3192A,80.0906,32.5029,阿里地区,阿里藏医院,,42,10,11,3,3,134,134,148,138,1,1,5,5,0.2,0.2
2026-06-19T2300,2644A,109.0088,32.6974,安康市,汉滨区检察院,,20,20,16,9,6,28,28,96,75,11,8,4,5,0.4,0.5
2026-06-19T2300,4054A,109.0324,32.6913,安康市,市邮政管理局,,19,19,14,10,9,39,39,100,79,8,7,4,3,0.5,0.5
2026-06-19T2300,2291A,117.0806,30.5181,安庆市,环科院,,16,6,11,3,4,50,50,44,44,5,5,8,8,0.7,0.6
2026-06-19T2300,2292A,117.0331,30.5118,安庆市,马山宾馆,,17,8,9,3,3,52,52,38,38,9,10,10,9,0.7,0.6
2026-06-19T2300,2294A,116.9897,30.6146,安庆市,安庆大学,,18,6,9,3,4,56,56,50,50,7,6,8,6,0.4,0.3
2026-06-19T2300,3173A,117.0598,30.5351,安庆市,市人大,NA,NA,NA,11,1,4,58,58,46,46,8,6,4,4,0.5,0.4
2026-06-19T2300,3123A,105.9408,26.2431,安顺市,凤凰山,,39,39,28,23,17,60,60,97,86,8,7,10,12,0.6,0.6
2026-06-19T2300,3124A,105.9443,26.2567,安顺市,金钟山,,39,35,27,27,18,65,65,98,88,5,5,11,13,0.6,0.6
2026-06-19T2300,3125A,105.8983,26.248,安顺市,娄家坡,,29,25,20,20,18,63,63,100,88,5,5,7,8,0.6,0.5
2026-06-19T2300,1819A,114.3552,36.1017,安阳市,红庙街,,34,20,19,7,14,106,106,116,102,3,4,3,4,0.4,0.5
2026-06-19T2300,1820A,114.361,36.0681,安阳市,银杏小区,,34,18,23,12,16,106,106,120,97,2,4,2,3,0.1,0.2
2026-06-19T2300,3141A,114.3921,36.0879,安阳市,信访局,,39,19,18,10,18,124,124,130,114,4,6,1,2,0.2,0.3
2026-06-19T2300,3669A,114.4706,36.0634,安阳市,左辅环卫站,,31,NA,25,16,16,98,98,99,90,8,11,2,2,0.3,0.5
2026-06-19T2300,4117A,114.2918,36.0769,安阳市,钢三路198号,,29,24,23,13,14,90,90,106,87,8,7,4,3,0.4,0.4
2026-06-19T2300,1748A,123.0441,41.1201,鞍山市,深沟寺,,29,23,22,20,16,42,42,72,62,11,6,5,5,0.3,1
2026-06-19T2300,1749A,123.011,41.0931,鞍山市,太阳城,,23,17,20,16,18,46,46,81,65,8,7,7,7,0.7,0.7
2026-06-19T2300,1750A,123.0483,41.1445,鞍山市,太平,,34,34,28,23,17,36,36,80,68,23,10,3,3,0.9,0.6
2026-06-19T2300,1751A,122.964,41.0968,鞍山市,铁西三道街,,38,38,29,23,17,34,34,84,66,31,18,5,5,0.9,0.7
2026-06-19T2300,1753A,123.0219,41.0822,鞍山市,明达新区,,20,20,22,14,16,43,43,84,67,11,8,4,4,0.4,0.4
2026-06-19T2300,4201A,122.944647,41.082639,鞍山市,兴盛南路290号,,47,47,29,28,22,36,36,81,61,25,18,6,6,0.6,0.5
2026-06-19T2300,2195A,107.4206,40.7609,巴彦淖尔市,附二中,颗粒物(PM10),60,63,39,17,17,70,70,108,84,5,8,10,12,0.4,0.6
2026-06-19T2300,2196A,107.37,40.7372,巴彦淖尔市,市环保大楼,颗粒物(PM10),61,65,49,8,14,76,76,112,89,7,8,9,10,0.4,0.6
2026-06-19T2300,1956A,86.1476,41.7529,巴音郭楞蒙古自治州,孔雀公园,细颗粒物(PM2.5),126,163,118,88,35,71,71,109,94,12,8,5,6,0.3,0.2
2026-06-19T2300,1957A,86.1971,41.7166,巴音郭楞蒙古自治州,棉纺厂,细颗粒物(PM2.5),124,151,155,86,37,78,78,110,101,10,7,/,/,/,/
2026-06-19T2300,1958A,86.236,41.7172,巴音郭楞蒙古自治州,经济开发区,细颗粒物(PM2.5),114,140,101,75,33,69,69,109,93,9,4,2,2,0.2,0.2
2026-06-19T2300,3181A,106.776805,31.852614,巴中市,市五中,,38,NA,18,26,15,23,23,73,60,12,9,8,7,0.6,0.6
2026-06-19T2300,3183A,106.7419,31.8654,巴中市,圣泉水务公司,,45,NA,19,31,16,7,7,76,59,37,13,8,8,0.7,0.7
2026-06-19T2300,3616A,106.7617,31.8343,巴中市,市中心医院,,35,24,20,24,15,30,30,80,68,16,9,8,7,0.7,0.6
2026-06-19T2300,2235A,122.7909,45.608,白城市,洮北区环保局,细颗粒物(PM2.5),103,NA,41,63,56,128,128,167,154,6,7,3,4,0.5,0.5
2026-06-19T2300,2236A,122.8741,45.5725,白城市,市环保局,细颗粒物(PM2.5),66,NA,36,43,32,130,130,158,148,9,11,4,4,0.5,0.5
2026-06-19T2300,2231A,126.4219,41.9172,白山市,喜丰,,43,43,40,13,11,31,31,111,66,22,16,9,9,0.7,0.6
2026-06-19T2300,2232A,126.4082,41.9416,白山市,环保局,,25,25,22,10,10,45,45,104,67,8,7,10,10,0.5,0.5
2026-06-19T2300,2647A,104.1727,36.5448,白银市,第三小学,颗粒物(PM10),66,72,44,20,20,106,106,107,99,5,12,4,19,0.2,0.5
2026-06-19T2300,2648A,104.1467,36.5482,白银市,动力公司,颗粒物(PM10),53,54,40,17,18,106,106,109,102,4,10,2,13,0.3,0.6
2026-06-19T2300,2512A,106.6102,23.901,百色市,市监测站,NA,NA,6,25,3,15,NA,NA,105,NA,7,9,7,9,0.3,0.5
2026-06-19T2300,2513A,106.6524,23.8842,百色市,市中心血站,,14,NA,26,7,22,43,43,57,55,10,10,7,10,0.5,0.6
2026-06-19T2300,4133A,106.6273,23.8798,百色市,龙景西路,,29,29,29,7,17,50,50,60,58,11,12,9,11,0.6,0.6
2026-06-19T2300,2270A,117.396,32.9389,蚌埠市,工人疗养院,,21,21,25,11,17,62,62,93,86,13,10,4,4,0.4,0.5
2026-06-19T2300,2271A,117.3606,32.9428,蚌埠市,百货大楼,,20,NA,16,10,14,62,62,89,84,13,12,7,7,0.5,0.6
2026-06-19T2300,2273A,117.4183,32.8909,蚌埠市,蚌埠学院,,19,12,15,9,17,60,60,85,80,10,14,5,5,0.3,0.5
2026-06-19T2300,2274A,117.3534,32.9672,蚌埠市,淮上区政府,,21,12,20,9,15,66,66,99,91,11,9,4,5,0.3,0.4
2026-06-19T2300,2275A,117.3143,32.8977,蚌埠市,高新区,,20,NA,19,13,21,62,62,90,84,10,15,7,8,0.3,0.4
2026-06-19T2300,3715A,117.3091,32.9314,蚌埠市,蚌埠田家炳中学,,20,16,24,10,20,63,63,95,87,10,11,6,6,0.4,0.5
2026-06-19T2300,1585A,109.8761,40.6533,包头市,市环境监测站,,43,43,10,12,15,77,77,110,94,6,14,5,7,0.3,0.5
2026-06-19T2300,1587A,109.9992,40.5843,包头市,包头八中,,22,21,27,10,17,69,69,95,85,5,14,8,11,0.3,0.5
2026-06-19T2300,1589A,109.8641,40.6288,包头市,惠龙物流,,24,NA,15,8,14,76,76,106,92,6,13,4,7,0.2,0.3
2026-06-19T2300,1590A,110.0376,40.5546,包头市,东河鸿龙湾,,19,11,14,7,14,58,58,104,85,10,12,5,7,0.5,0.6
2026-06-19T2300,3283A,109.9154,40.5684,包头市,滨河大厦,,22,11,12,8,12,68,68,101,86,8,11,6,7,0.3,0.4
2026-06-19T2300,3419A,109.9449,40.6259,包头市,包头市委党校,,25,17,17,9,16,78,78,105,91,5,16,7,10,0.3,0.5
2026-06-19T2300,3683A,109.8332,40.6577,包头市,昆区政府,,25,12,18,11,16,78,78,107,92,7,15,4,7,0.4,0.6
2026-06-19T2300,1931A,107.0802,34.3129,宝鸡市,竹园沟,,19,14,17,13,10,58,58,120,99,8,4,6,6,0.7,0.7
2026-06-19T2300,1933A,107.1429,34.3549,宝鸡市,监测站,,21,21,20,13,11,61,61,138,117,14,6,7,7,0.3,0.2
2026-06-19T2300,1934A,107.1172,34.3759,宝鸡市,技工学校,,28,NA,21,19,10,67,67,140,123,12,5,6,6,0.6,0.5
2026-06-19T2300,1936A,107.2025,34.3518,宝鸡市,文理学院,,35,35,20,16,10,60,60,142,126,22,9,7,7,0.4,0.3
2026-06-19T2300,1937A,107.2396,34.3626,宝鸡市,三迪小学,,27,27,24,17,12,86,86,141,129,20,11,8,7,0.5,0.4
2026-06-19T2300,4155A,107.1721,34.3558,宝鸡市,滨河北路,,28,28,19,15,11,63,63,133,116,15,6,6,6,0.7,0.7
2026-06-19T2300,4308A,107.3898,34.3601,宝鸡市,陈仓区北开路21号,,43,43,26,23,13,76,76,132,120,23,12,4,4,0.4,0.4
2026-06-19T2300,1051A,115.4803,38.8568,保定市,游泳馆,,37,37,57,24,40,83,83,104,99,12,14,5,6,0.2,0.3
2026-06-19T2300,1052A,115.509,38.8895,保定市,华电二区,,32,26,52,22,37,96,96,112,107,9,13,1,3,0.7,0.8
2026-06-19T2300,1053A,115.4588,38.9037,保定市,接待中心,,49,43,64,34,39,82,82,109,102,11,11,2,1,0.2,0.3
2026-06-19T2300,1054A,115.4484,38.8344,保定市,地表水厂,,43,43,72,23,37,69,69,104,97,16,16,2,2,0.7,0.7
2026-06-19T2300,3581A,115.3136,38.9511,保定市,满城区生态环境分局,,41,41,58,20,39,60,60,99,87,13,14,1,1,0.2,0.2
2026-06-19T2300,3582A,115.4709,38.7628,保定市,清苑区第二中学,,39,39,80,25,36,68,68,100,92,10,21,3,4,0.3,0.4
2026-06-19T2300,3583A,115.6231,39.0223,保定市,徐水物探局,,50,50,75,27,41,66,66,105,93,21,22,3,3,0.2,0.3
2026-06-19T2300,4004A,115.4199,38.8665,保定市,双鹰农机,细颗粒物(PM2.5),52,37,55,36,40,80,80,106,97,14,13,2,2,0.3,0.3
2026-06-19T2300,4034A,115.515,38.8589,保定市,植保所站,,36,32,56,25,38,102,102,115,111,11,17,8,7,0.2,0.3
2026-06-19T2300,2594A,99.1589,25.1137,保山市,市环境监测站,,10,7,10,6,7,30,30,54,49,7,6,5,5,0.4,0.3
2026-06-19T2300,2595A,99.1616,25.1381,保山市,市环保局,,19,NA,10,13,15,35,35,53,49,4,4,5,5,0.5,0.5
2026-06-19T2300,1867A,109.1435,21.4085,北海市,海滩公园,颗粒物(PM10),72,80,53,17,14,80,80,85,83,4,4,1,2,0.4,0.5
2026-06-19T2300,1868A,109.0983,21.466,北海市,新市环保局,,28,24,26,7,5,87,87,93,91,4,4,4,4,0.6,0.7
2026-06-19T2300,1869A,109.1775,21.5232,北海市,北海工业园,,47,47,29,8,15,75,75,83,81,3,3,2,1,0.4,0.4
2026-06-19T2300,3400A,109.1844,21.4396,北海市,龙潭自来水厂,,25,25,25,11,9,75,75,79,78,2,2,1,2,0.5,0.5
2026-06-19T2300,1001A,116.3611,39.8786,北京市,万寿西宫,,37,37,84,25,56,82,82,106,102,11,14,3,4,0.5,0.7
2026-06-19T2300,1003A,116.4174,39.9289,北京市,东四,,33,23,70,17,46,103,103,126,119,12,15,2,3,0.5,0.7
2026-06-19T2300,1004A,116.4073,39.8858,北京市,天坛,,36,32,81,25,50,45,45,100,89,12,18,1,2,0.7,0.9
2026-06-19T2300,1005A,116.4622,39.9364,北京市,农展馆,,28,28,76,18,48,74,74,112,100,9,17,3,4,0.5,0.8
2026-06-19T2300,1006A,116.3399,39.9293,北京市,官园,,33,23,105,15,54,104,104,109,104,10,19,4,6,0.3,0.7
2026-06-19T2300,1007A,116.2879,39.9613,北京市,海淀万柳,,34,16,77,12,53,107,107,101,96,10,23,4,5,0.5,0.8
2026-06-19T2300,1008A,116.6635,40.1349,北京市,顺义新城,,25,23,70,15,50,80,80,130,105,7,12,2,3,0.5,0.7
2026-06-19T2300,1009A,116.6275,40.327,北京市,怀柔镇,,22,19,60,12,44,68,68,124,101,6,10,1,1,0.2,0.5
2026-06-19T2300,1010A,116.2295,40.217,北京市,昌平镇,,32,32,69,21,50,46,46,90,63,14,17,2,3,0.2,0.5
2026-06-19T2300,1011A,116.3968,39.982,北京市,奥体中心,,28,26,101,19,67,85,85,109,97,11,18,3,4,0.5,0.8
2026-06-19T2300,3418A,116.8336,40.4095,北京市,密云新城,,21,21,54,13,34,65,65,119,101,7,11,3,3,0.5,0.7
2026-06-19T2300,3671A,116.0879,39.9725,北京市,门头沟三家店,NA,NA,NA,75,NA,51,NA,NA,94,80,NA,18,NA,4,NA,0.8
2026-06-19T2300,3672A,116.1507,39.8246,北京市,丰台云岗,,29,28,67,20,58,70,70,91,68,8,14,3,2,0.5,0.7
2026-06-19T2300,3674A,115.9578,39.7602,北京市,房山燕山,,32,31,61,22,44,49,49,86,68,11,13,2,2,0.7,0.8
2026-06-19T2300,3675A,116.4669,39.7734,北京市,大兴旧宫,,28,28,99,19,60,75,75,106,98,10,18,1,2,0.6,0.9
2026-06-19T2300,3694A,115.9859,40.4562,北京市,延庆石河营,,19,19,51,12,39,23,23,117,76,22,10,2,2,0.5,0.7
2026-06-19T2300,3695A,116.6151,40.3052,北京市,怀柔新城,,21,19,57,11,43,67,67,118,98,3,7,3,2,0.7,0.9
2026-06-19T2300,3696A,116.2542,39.8764,北京市,丰台小屯,,32,29,91,22,49,91,91,92,88,11,16,2,3,0.6,0.8
2026-06-19T2300,3697A,116.8399,40.3843,北京市,密云镇,,27,27,59,14,40,56,56,119,96,9,15,3,3,0.6,0.8
2026-06-19T2300,4057A,115.9423,40.4431,北京市,延庆百泉,,16,15,50,9,33,50,50,117,82,8,8,1,1,0.3,0.6
2026-06-19T2300,4058A,116.6598,39.9164,北京市,通州新华,,48,48,98,29,53,72,72,114,104,17,18,3,4,0.6,0.8
2026-06-19T2300,4182A,116.1942,39.9158,北京市,石景山八角,,30,21,78,17,56,96,96,102,92,9,21,2,3,0.6,0.9
2026-06-19T2300,4194A,117.078628,40.151726,北京市,平谷新城,,23,23,68,14,51,69,69,116,108,4,8,3,2,0.4,0.9
2026-06-19T2300,1761A,123.8274146,41.31234549,本溪市,大峪,,34,34,25,20,14,36,36,101,68,20,11,6,6,0.4,0.4
2026-06-19T2300,1763A,123.7169,41.3094,本溪市,彩屯,,46,38,33,32,24,29,29,84,57,14,19,6,9,0.8,1.7
2026-06-19T2300,1764A,123.7672166,41.28649327,本溪市,东明,,45,45,31,28,16,45,45,103,79,23,14,6,6,0.6,0.5
2026-06-19T2300,1765A,123.799345,41.266614,本溪市,新立屯,,30,30,23,18,13,34,34,97,60,26,8,8,7,0.5,0.5
2026-06-19T2300,1766A,123.829144,41.336777,本溪市,威宁,,39,39,33,22,18,28,28,98,54,15,10,6,8,0.5,0.6
2026-06-19T2300,2587A,105.287,27.3133,毕节市,八中,,21,21,17,14,11,44,44,95,78,11,9,7,6,0.5,0.5
2026-06-19T2300,2588A,105.3079,27.2987,毕节市,师专,,20,20,17,10,10,56,56,94,84,10,6,7,6,0.6,0.5
2026-06-19T2300,4263A,105.3688,27.3598,毕节市,工业大道,,25,25,20,14,10,36,36,99,80,21,11,7,6,/,/
2026-06-19T2300,1629A,117.9961,37.3604,滨州市,第二水厂,,41,41,66,18,49,54,54,92,86,17,24,19,9,0.7,1
2026-06-19T2300,1630A,117.9789,37.3931,滨州市,北中新校,,36,36,55,13,42,47,47,98,92,30,27,12,13,0.7,0.9
2026-06-19T2300,3514A,117.9379,37.3959,滨州市,中海酒店,,34,34,47,20,40,49,49,101,96,24,24,11,11,0.4,0.6
2026-06-19T2300,3515A,117.9381509,37.35547456,滨州市,开发区一中,,46,46,64,21,44,51,51,103,96,14,17,18,12,0.6,0.8
2026-06-19T2300,3516A,118.0914,37.6938,滨州市,金海六路,,39,39,55,18,42,54,54,105,86,23,20,6,8,0.4,0.5
2026-06-19T2300,4028A,117.9955,37.3752,滨州市,滨州市西街道办事处,,27,27,53,16,43,56,56,98,91,14,21,12,7,0.4,0.6
2026-06-19T2300,2311A,115.8071,33.8399,亳州市,污水处理厂,,17,8,17,3,22,54,54,85,72,7,9,4,4,0.2,0.3
2026-06-19T2300,2312A,115.7789,33.8519,亳州市,三国揽胜宫,,18,9,23,3,19,56,56,84,72,5,7,3,4,0.1,0.3
2026-06-19T2300,3332A,115.7631,33.803,亳州市,亳州学院,,20,6,12,3,22,61,61,92,78,5,6,3,4,0.2,0.4
2026-06-19T2300,2693A,82.0482,44.8553,博尔塔拉蒙古自治州,市党校,,30,30,25,11,6,88,88,132,119,12,7,4,3,0.3,0.3
2026-06-19T2300,2694A,82.0805,44.8966,博尔塔拉蒙古自治州,市环保局,,37,37,31,20,5,76,76,123,111,23,11,6,7,0.6,0.5
2026-06-19T2300,1071A,116.8733,38.2922,沧州市,沧县城建局,,28,20,35,13,28,89,89,97,95,13,15,4,6,0.5,0.6
2026-06-19T2300,1072A,116.8462,38.3189,沧州市,电视转播站,,28,28,45,12,27,69,69,90,85,8,16,4,7,0.3,0.4
2026-06-19T2300,1073A,116.8588,38.3161,沧州市,市环保局,,30,30,56,10,32,91,91,97,97,6,15,4,5,0.4,0.5
2026-06-19T2300,3324A,116.8011,38.294,沧州市,河北水利电力学院,,26,NA,36,18,29,78,78,98,94,18,19,5,6,0.2,0.3
2026-06-19T2300,2622A,97.1813,31.1289,昌都市,昌都监测站,,35,12,12,3,3,109,109,99,95,6,9,8,8,0.3,0.3
2026-06-19T2300,3719A,97.1707,31.1428,昌都市,昌都会议中心,,36,8,10,3,4,113,113,110,97,5,6,5,5,0.4,0.4
2026-06-19T2300,2692A,87.2722,44.0298,昌吉回族自治州,新区政务中心,,38,NA,25,26,14,100,100,135,128,16,13,9,9,0.2,0.2
2026-06-19T2300,3613A,87.3069,44.0093,昌吉回族自治州,亚心广场,,29,29,33,17,9,89,89,139,129,34,15,6,8,0.4,0.3
2026-06-19T2300,4164A,87.2057,43.9289,昌吉回族自治州,财政所,,42,42,31,20,7,54,54,140,124,23,9,6,7,0.3,0.2
2026-06-19T2300,1120A,125.2874,43.9024,长春市,客车厂,,39,36,28,27,19,65,65,147,125,32,14,5,5,0.5,0.5
2026-06-19T2300,1121A,125.2943,43.8508,长春市,邮电学院,,29,27,24,20,18,65,65,150,121,21,12,6,6,0.5,0.6
2026-06-19T2300,1122A,125.3648,43.8745,长春市,劳动公园,,32,32,25,22,17,78,78,152,132,24,16,6,6,0.7,0.7
2026-06-19T2300,1123A,125.3233,43.8781,长春市,园林处,,32,30,25,22,16,81,81,152,132,23,14,2,2,0.4,0.4
2026-06-19T2300,1124A,125.4604,43.7904,长春市,净月潭,,28,24,20,19,14,66,66,136,105,12,11,5,6,0.4,0.4
2026-06-19T2300,1126A,125.38,43.8422,长春市,经开区环卫处,,31,31,25,19,15,74,74,146,127,24,18,5,5,0.4,0.4
2026-06-19T2300,1127A,125.234,43.7761,长春市,高新区管委会,,32,32,22,20,16,35,35,142,107,44,17,6,5,0.4,0.4
2026-06-19T2300,1128A,125.1695,43.83,长春市,岱山公园,,43,29,26,20,17,36,36,155,125,85,22,4,4,0.3,0.2
2026-06-19T2300,4281A,125.334645,43.916281,长春市,北亚泰大街1068号,,34,34,28,20,18,79,79,146,125,28,19,4,4,0.5,0.5
2026-06-19T2300,1335A,113.082,28.2421,长沙市,经开区环保局,,13,13,14,7,6,35,35,49,41,6,4,3,4,0.5,0.5
2026-06-19T2300,1336A,112.8873,28.2202,长沙市,高开区环保局,,22,22,13,15,8,26,26,54,39,8,3,3,3,0.7,0.6
2026-06-19T2300,1337A,113.0785,28.2012,长沙市,马坡岭,,13,10,12,8,7,39,39,53,46,8,6,6,6,0.7,0.7
2026-06-19T2300,1338A,112.9448,28.1894,长沙市,湖南师范大学,,16,16,15,10,8,26,26,55,39,6,3,7,8,0.2,0.2
2026-06-19T2300,1339A,113.0177,28.1322,长沙市,雨花区环保局,,13,13,14,9,8,36,36,52,45,3,2,5,5,0.9,0.8
2026-06-19T2300,1340A,112.9795,28.2593,长沙市,伍家岭,,20,20,17,11,7,24,24,56,38,8,6,3,4,0.5,0.5
2026-06-19T2300,1341A,113.002,28.1944,长沙市,火车新站,,13,12,17,8,8,41,41,54,45,3,5,7,8,0.2,0.3
2026-06-19T2300,1342A,112.9846,28.1177,长沙市,天心区环保局,,15,14,12,3,4,46,46,63,56,8,6,4,4,0.2,0.2
2026-06-19T2300,1343A,112.8906,28.1307,长沙市,湖南中医药大学,,14,14,14,9,8,14,14,51,32,20,7,6,6,0.6,0.5
2026-06-19T2300,1727A,113.1146,36.1547,长治市,清华站,,28,28,13,10,10,88,88,113,95,4,4,7,7,0.5,0.5
2026-06-19T2300,1730A,113.0887,36.2126,长治市,审计局,,29,16,13,7,11,92,92,116,94,5,4,10,8,0.3,0.3
2026-06-19T2300,1731A,113.0845,36.1856,长治市,长治八中,,27,21,15,12,10,84,84,110,92,8,6,11,10,0.6,0.5
2026-06-19T2300,2845A,113.1561,36.1912,长治市,德盛苑,,22,14,14,6,9,70,70,103,87,7,6,9,9,0.3,0.3
2026-06-19T2300,3568A,113.0603,36.0464,长治市,向阳小学,NA,NA,NA,39,5,10,70,70,116,93,7,16,15,21,1.0,0.8
2026-06-19T2300,3569A,112.8788,36.315,长治市,屯留一中,,26,19,13,18,10,56,56,104,86,12,6,10,10,1.2,1.1
2026-06-19T2300,4189A,113.113092,36.199482,长治市,英华南巷50号,,27,19,18,6,11,86,86,117,93,9,6,8,8,0.9,0.8
2026-06-19T2300,4190A,113.23666,36.33435,长治市,学府街1号,,22,16,16,14,11,70,70,116,94,15,8,4,4,0.6,0.5
2026-06-19T2300,1854A,111.696,28.9725,常德市,市二中,,19,13,16,3,13,58,58,75,70,8,5,7,7,1.1,1.1
2026-06-19T2300,3138A,111.7152,29.0288,常德市,武陵区永安,,22,10,14,3,10,70,70,78,77,1,2,6,6,0.9,0.9
2026-06-19T2300,3139A,111.6891,28.9881,常德市,鼎城区玉霞,,18,12,14,3,12,55,55,76,73,8,3,8,8,1.0,1
2026-06-19T2300,3140A,111.6651,29.0526,常德市,武陵区长庚,,24,11,13,3,10,75,75,83,83,2,3,8,8,0.7,0.8
2026-06-19T2300,1196A,119.9524,31.7586,常州市,市监测站,NA,NA,2,25,NA,21,70,70,51,44,9,19,7,7,0.3,0.4
2026-06-19T2300,1200A,119.9351,31.703,常州市,武进监测站,,22,6,23,3,36,69,69,54,44,4,10,4,7,0.4,0.4
2026-06-19T2300,3002A,119.9701,31.813,常州市,行政中心,,21,6,16,3,23,65,65,56,45,5,14,5,5,0.9,0.8
2026-06-19T2300,3003A,120.0434,31.7726,常州市,经开区,,22,6,27,3,22,69,69,50,42,1,14,1,2,0.7,1
2026-06-19T2300,3010A,119.8919,31.7892,常州市,钟楼,NA,NA,8,29,NA,34,71,71,60,50,6,15,7,7,0.4,0.5
2026-06-19T2300,3429A,119.8595,31.706,常州市,武进经发区,,22,6,32,3,13,68,68,56,48,2,10,6,7,0.4,0.5
2026-06-19T2300,3430A,119.5812,31.7256,常州市,金坛城区,,24,6,16,3,12,76,76,74,49,2,7,6,6,0.7,0.7
2026-06-19T2300,4089A,119.9551,31.863,常州市,崇义南街5-H号,,19,6,26,3,27,58,58,44,38,2,9,8,8,0.7,0.8
2026-06-19T2300,2220A,120.4318,41.588,朝阳市,西梁,,38,37,43,26,30,97,97,104,90,6,7,5,5,0.7,0.7
2026-06-19T2300,2221A,120.452,41.565,朝阳市,河畔小区,,39,28,35,27,33,104,104,110,98,6,8,8,9,0.7,0.7
2026-06-19T2300,2222A,120.4176,41.5648,朝阳市,八里堡,,43,NA,39,30,35,98,98,108,89,8,10,3,4,0.7,0.7
2026-06-19T2300,3026A,116.6179,23.6608,潮州市,市政府,,28,28,23,17,13,25,25,42,34,8,9,4,5,0.5,0.5
2026-06-19T2300,4036A,116.646,23.676,潮州市,金山,,25,18,20,17,12,28,28,45,35,5,6,2,2,0.4,0.4
2026-06-19T2300,2473A,113.0116,25.8228,郴州市,市职中,,15,13,8,6,4,47,47,50,47,4,4,6,6,0.5,0.5
2026-06-19T2300,2475A,113.0381,25.8074,郴州市,市审计局,,18,18,8,8,4,52,52,51,50,4,5,4,3,/,/
2026-06-19T2300,2476A,113.0348,25.7757,郴州市,市环保局,,19,19,8,6,3,55,55,54,52,2,3,6,5,0.5,0.5
2026-06-19T2300,4252A,113.0138,25.8011,郴州市,好美居路49号,,22,NA,7,15,4,50,50,51,49,2,3,6,6,/,/
2026-06-19T2300,1431A,103.9727,30.7242,成都市,金泉两河,细颗粒物(PM2.5),74,58,38,47,32,50,50,155,118,34,17,2,3,0.7,0.6
2026-06-19T2300,1432A,104.1423,30.6765,成都市,十里店,细颗粒物(PM2.5),68,49,37,44,30,108,108,155,136,13,13,4,4,0.6,0.6
2026-06-19T2300,1433A,104.0594,30.5765,成都市,三瓦窑,细颗粒物(PM2.5),84,59,36,52,28,80,80,140,121,39,17,5,5,0.9,0.7
2026-06-19T2300,1434A,104.1122,30.6306,成都市,沙河铺,,48,48,39,30,25,68,68,131,105,25,16,5,6,0.6,0.5
2026-06-19T2300,2880A,104.0219,30.6561,成都市,大石西路,细颗粒物(PM2.5),66,48,42,43,35,84,84,136,117,21,15,4,5,0.7,0.6
2026-06-19T2300,3136A,104.2724,30.559,成都市,龙泉驿区区政府,,29,NA,21,20,23,81,81,129,121,11,7,7,6,0.5,0.4
2026-06-19T2300,3357A,104.0028,30.6891,成都市,金博路,细颗粒物(PM2.5),60,40,31,40,31,84,84,154,127,25,18,6,7,0.9,0.8
2026-06-19T2300,3359A,104.056,30.5228,成都市,华阳,细颗粒物(PM2.5),74,53,30,47,25,99,99,138,121,15,8,2,2,0.8,0.8
2026-06-19T2300,3488A,104.387954,30.746684,成都市,青白江技师分院,,36,36,30,21,24,93,93,127,121,13,7,5,5,0.7,0.7
2026-06-19T2300,3489A,104.0788,30.4054,成都市,科学城,,31,18,25,13,19,99,99,123,118,8,5,5,5,0.4,0.3
2026-06-19T2300,4011A,103.8505,30.6946,成都市,光华大道三段,细颗粒物(PM2.5),80,64,50,50,40,78,78,144,117,19,12,4,4,0.6,0.5
2026-06-19T2300,4144A,104.3257,30.6406,成都市,八角井街185号,,49,49,33,18,22,80,80,132,121,20,9,4,4,0.4,0.4
2026-06-19T2300,4224A,104.2433276,30.53529463,成都市,鲸龙路1057号,,28,28,29,17,19,88,88,134,127,16,14,7,7,0.7,0.7
2026-06-19T2300,1062A,117.9531,40.908,承德市,铁路,,30,30,66,3,39,84,84,119,88,24,16,4,4,0.4,0.6
2026-06-19T2300,1063A,117.9397,40.9763,承德市,中国银行,,29,29,63,20,37,89,89,118,75,13,12,2,2,0.5,0.6
2026-06-19T2300,4073A,117.9462,40.95,承德市,杏林街1号,,33,30,56,20,43,103,103,126,79,8,10,3,3,0.4,0.5
2026-06-19T2300,4274A,117.7994,40.9605,承德市,滨河大街98号,,25,25,51,7,37,36,36,121,55,6,7,2,2,0.5,0.6
2026-06-19T2300,2314A,117.4698,30.6617,池州市,池州学院,,11,6,5,3,4,34,34,35,35,8,9,4,4,0.5,0.5
2026-06-19T2300,3237A,117.4918,30.6617,池州市,展览馆,,13,6,7,3,2,40,40,39,38,5,6,2,3,0.3,0.4
2026-06-19T2300,3333A,117.5626,30.695,池州市,第八中学,,12,6,8,3,4,38,38,40,39,5,5,3,3,0.3,0.4
2026-06-19T2300,3334A,117.5037,30.6242,池州市,第十二中学,,12,6,8,3,4,37,37,42,40,8,7,5,5,0.4,0.5
2026-06-19T2300,1744A,118.9229,42.2816,赤峰市,松山一中,,41,36,44,20,34,129,129,168,154,13,10,11,11,0.7,0.7
2026-06-19T2300,1745A,118.9588,42.2733,赤峰市,哈达街,,43,23,45,13,34,137,137,157,152,10,11,14,14,0.5,0.6
2026-06-19T2300,1746A,118.8792,42.2551,赤峰市,天义路,颗粒物(PM10),70,78,38,24,35,127,127,158,145,12,12,9,7,0.5,0.5
2026-06-19T2300,3058A,119.2656,42.0356,赤峰市,银河街,,38,25,73,14,49,121,121,165,145,12,12,12,12,0.7,0.9
2026-06-19T2300,3286A,118.9359,42.3146,赤峰市,桥北物流园区,,40,28,36,19,28,126,126,150,139,13,7,3,3,0.5,0.7
2026-06-19T2300,2521A,107.3473,22.4137,崇左市,市环保局江州分局,,40,40,38,10,13,25,25,83,67,13,11,6,7,0.5,0.5
2026-06-19T2300,4256A,107.375,22.3736,崇左市,石景林东路7号,,19,18,33,13,12,35,35,80,64,13,11,4,4,1.0,0.9
2026-06-19T2300,3207A,118.31131,32.3033,滁州市,市政府原办公楼,,20,NA,17,13,26,64,64,57,57,3,13,5,7,0.4,0.6
2026-06-19T2300,3331A,118.3268,32.2633,滁州市,图书馆,,21,NA,24,3,17,66,66,55,55,2,9,10,10,0.3,0.5
2026-06-19T2300,4101A,118.3196,32.3335,滁州市,银山路666号,,22,7,18,6,22,70,70,61,61,4,14,3,4,0.2,0.4
2026-06-19T2300,4102A,118.3426,32.2979,滁州市,黄山路555号,,20,11,29,8,22,63,63,55,55,3,16,9,9,0.3,0.4
2026-06-19T2300,2606A,101.5379,25.0492,楚雄彝族自治州,市经济开发区,,16,16,12,3,5,43,43,51,47,6,6,2,4,0.5,0.5
2026-06-19T2300,4153A,101.5536,25.0343,楚雄彝族自治州,团结路562号,,18,NA,7,12,5,48,48,54,52,4,4,3,3,0.4,0.3
2026-06-19T2300,2549A,107.5087,31.2186,达州市,市环境监测站,,24,24,28,13,16,27,27,78,60,23,17,6,6,0.5,0.5
2026-06-19T2300,2550A,107.4988,31.2132,达州市,凤凰小区,,36,36,29,21,20,17,17,70,54,32,17,5,6,0.4,0.4
2026-06-19T2300,2551A,107.5081,31.1987,达州市,达县机关宾馆,,36,36,25,16,14,2,2,75,51,43,23,4,5,0.3,0.3
2026-06-19T2300,2552A,107.4644,31.2124,达州市,市政中心,颗粒物(PM10),51,51,32,28,15,7,7,78,60,48,18,4,4,0.7,0.5
2026-06-19T2300,2614A,100.2168,25.5818,大理白族自治州,大理市环境监测站,,15,7,7,3,4,48,48,56,52,6,5,5,5,0.4,0.4
2026-06-19T2300,2615A,100.1542,25.7055,大理白族自治州,大理古城,,12,9,9,7,6,36,36,66,54,12,8,6,6,0.4,0.3
2026-06-19T2300,1109A,121.6119,38.974,大连市,甘井子,,20,19,16,14,12,44,44,76,64,16,8,7,8,0.6,0.5
2026-06-19T2300,1110A,121.565,38.9509,大连市,周水子,,25,20,21,17,15,62,62,80,67,16,16,7,5,0.6,0.5
2026-06-19T2300,1111A,121.5637,38.8849,大连市,星海三站,,23,16,23,16,10,64,64,84,77,3,6,5,6,0.6,0.6
2026-06-19T2300,1112A,121.6301,38.9117,大连市,青泥洼桥,,20,12,14,9,11,62,62,87,76,5,8,6,7,0.9,0.9
2026-06-19T2300,1113A,121.6248,38.8643,大连市,傅家庄,,25,8,12,6,11,79,79,90,86,2,6,9,10,0.4,0.4
2026-06-19T2300,1114A,121.5117,38.8636,大连市,七贤岭,,23,12,20,7,12,71,71,82,78,8,15,6,7,0.7,0.8
2026-06-19T2300,1116A,121.7507,39.1339,大连市,金州,,22,12,17,8,12,70,70,83,76,3,7,7,7,0.5,0.5
2026-06-19T2300,1117A,121.7811,39.0495,大连市,开发区,,20,17,20,14,13,60,60,76,71,13,15,7,8,0.5,0.4
2026-06-19T2300,1118A,121.9762,39.0631,大连市,双D港,,18,12,13,12,12,33,33,70,50,6,8,6,6,0.8,0.8
2026-06-19T2300,4082A,121.2548,38.8188,大连市,旅顺,,22,9,17,7,13,68,68,80,75,2,7,5,6,0.3,0.4
2026-06-19T2300,1789A,124.8085,46.0381,大庆市,大同区,,38,36,46,20,26,119,119,171,153,17,11,5,5,0.5,0.6
2026-06-19T2300,1790A,125.1166,46.5255,大庆市,龙凤区,,40,38,44,28,34,102,102,138,126,14,11,7,6,0.3,0.4
2026-06-19T2300,1791A,124.8894,46.4007,大庆市,红岗区,NA,NA,NA,61,19,27,95,95,150,136,12,8,6,6,0.5,0.6
2026-06-19T2300,1792A,125.1391,46.578,大庆市,萨尔图区,,42,42,45,20,32,113,113,133,129,11,11,6,5,0.5,0.6
2026-06-19T2300,1793A,124.9026,46.6217,大庆市,让胡路区,,43,37,42,30,30,118,118,145,142,8,8,8,4,0.7,0.7
2026-06-19T2300,3481A,125.127,46.6277,大庆市,萨区政府监测点,,45,39,52,26,36,141,141,164,159,2,2,6,6,0.4,0.5
2026-06-19T2300,1723A,113.2926,40.0759,大同市,云冈宾馆,,35,25,26,24,17,90,90,127,104,14,15,7,8,0.3,0.4
2026-06-19T2300,1724A,113.3437,40.0921,大同市,大同大学,,30,24,27,21,15,80,80,120,103,18,16,6,9,0.7,0.6
2026-06-19T2300,1725A,113.2637,40.129,大同市,安家小村,,30,29,26,21,16,80,80,122,101,16,13,10,11,0.5,0.5
2026-06-19T2300,3282A,113.3399,40.0586,大同市,大同市卫生学校,细颗粒物(PM2.5),52,41,30,36,18,79,79,130,104,18,16,7,8,0.7,0.6
2026-06-19T2300,3565A,113.1371,40.1122,大同市,云冈站,,20,18,22,13,14,64,64,118,90,13,12,5,6,0.6,0.6
2026-06-19T2300,3566A,113.1186,40.2556,大同市,图书馆,,29,18,41,13,15,92,92,127,110,9,12,5,6,0.7,0.6
2026-06-19T2300,3567A,113.5931,40.0459,大同市,区一中,,31,NA,23,19,15,98,98,139,116,13,13,7,8,0.5,0.5
2026-06-19T2300,4199A,113.2798248,40.09972476,大同市,魏都大道141号,,27,23,31,14,15,84,84,124,102,17,17,6,7,0.8,0.6
2026-06-19T2300,2269A,124.1068,50.4091,大兴安岭地区,科技局,NA,NA,NA,20,NA,14,NA,NA,78,NA,NA,5,NA,4,NA,0.2
2026-06-19T2300,3663A,124.117,50.4279,大兴安岭地区,红旗社区,,12,7,8,3,10,37,37,64,50,3,5,6,6,0.2,0.2
2026-06-19T2300,1600A,124.33,40.0625,丹东市,江湾东路,,43,38,30,30,21,50,50,96,68,19,12,14,5,0.6,0.5
2026-06-19T2300,1601A,124.4242,40.1513,丹东市,临江后街,,39,35,29,27,20,44,44,98,70,14,9,3,4,0.5,0.4
2026-06-19T2300,1602A,124.3935,40.1461,丹东市,元宝山,颗粒物(PM10),51,51,38,24,18,48,48,85,64,13,11,4,5,0.5,0.5
2026-06-19T2300,1603A,124.3634,40.1093,丹东市,民主桥,,32,32,32,22,23,75,75,93,65,9,11,6,6,0.7,0.6
2026-06-19T2300,3541A,109.5726195,19.51688767,儋州市,第一中学子站,,23,23,19,13,8,48,48,56,51,4,3,4,4,0.5,0.4
2026-06-19T2300,3542A,109.5567,19.5187,儋州市,东坡学校子站,,26,26,18,10,8,52,52,62,57,4,3,3,4,0.4,0.4
2026-06-19T2300,2616A,98.5611,24.4273,德宏傣族景颇族自治州,德宏州监测站,,40,NA,11,28,11,26,26,52,44,9,6,6,6,0.7,0.5
2026-06-19T2300,3677A,98.5887,24.4366,德宏傣族景颇族自治州,芒市人民政府综合楼,,49,49,34,22,10,17,17,45,35,8,7,6,6,0.4,0.4
2026-06-19T2300,1901A,104.424,31.1209,德阳市,东山公园,细颗粒物(PM2.5),68,NA,26,44,32,88,88,145,136,15,10,3,3,0.7,0.6
2026-06-19T2300,1902A,104.3827,31.1318,德阳市,西小区,细颗粒物(PM2.5),58,52,36,39,31,84,84,130,122,13,13,8,7,0.9,1
2026-06-19T2300,1904A,104.3553,31.1091,德阳市,耐火材料厂,细颗粒物(PM2.5),80,57,36,50,34,81,81,163,148,14,12,3,2,0.5,0.5
2026-06-19T2300,4145A,104.4144,31.1495,德阳市,市林业局,细颗粒物(PM2.5),56,49,34,38,31,60,60,163,148,56,14,9,8,1.0,0.8
2026-06-19T2300,1622A,116.3034,37.4675,德州市,儿童乐园,,45,31,34,31,26,49,49,112,76,34,22,9,10,0.8,0.8
2026-06-19T2300,1624A,116.2992,37.4449,德州市,监理站,,49,41,36,34,23,46,46,122,86,37,18,14,14,0.7,0.5
2026-06-19T2300,3066A,116.2722,37.438,德州市,九衢泉纯净水厂,,45,34,33,31,24,32,32,105,55,48,31,13,12,0.9,0.8
2026-06-19T2300,3371A,116.3693,37.44,德州市,开发区人民医院,,40,29,33,28,24,43,43,111,86,36,17,8,9,0.6,0.6
2026-06-19T2300,3511A,116.5687,37.3331,德州市,陵城艺术中心,,42,31,33,29,28,70,70,115,88,20,18,7,7,0.5,0.5
2026-06-19T2300,4292A,116.352738,37.420875,德州市,新河东路,,39,29,30,27,22,18,18,113,76,58,24,10,10,0.8,0.8
2026-06-19T2300,2621A,99.7054,27.8319,迪庆藏族自治州,迪庆州站,,21,16,15,3,7,67,67,75,72,8,8,7,7,0.5,0.5
2026-06-19T2300,3180A,99.7122,27.8129,迪庆藏族自治州,质量技术监督局,,22,12,15,8,8,69,69,78,74,10,8,10,9,0.5,0.3
2026-06-19T2300,4257A,104.6092,35.5962,定西市,将台街,颗粒物(PM10),53,53,41,21,15,102,102,128,119,10,11,4,4,0.2,0.2
2026-06-19T2300,4309A,104.6159,35.5701,定西市,正龙路62号,颗粒物(PM10),52,52,42,20,14,106,106,123,118,9,8,5,5,0.1,0.2
2026-06-19T2300,4071A,114.9883,38.5232,定州市,交通局,,41,41,56,16,28,77,77,122,100,26,23,3,4,0.4,0.5
2026-06-19T2300,4072A,115.0045,38.5136,定州市,第五中学,,32,30,61,22,30,82,82,117,96,18,25,4,4,0.4,0.4
2026-06-19T2300,1390A,113.7943,23.0132,东莞市,东城石井,,15,15,15,7,9,35,35,53,45,6,15,3,1,0.4,0.4
2026-06-19T2300,1391A,113.7384,22.9659,东莞市,南城西平,,13,13,14,3,5,39,39,50,45,5,10,1,3,0.5,0.6
2026-06-19T2300,3319A,113.7283,23.041,东莞市,万江金泰,,14,14,14,9,10,34,34,50,41,7,14,4,4,0.4,0.4
2026-06-19T2300,4129A,113.8666,23.1062,东莞市,裕兴路,,22,22,18,8,7,28,28,57,44,14,13,7,7,0.6,0.6
2026-06-19T2300,4130A,114.0076,22.9739,东莞市,教育路1号,,22,22,18,11,8,32,32,51,43,10,17,5,5,0.6,0.6
2026-06-19T2300,4131A,113.7981,22.8124,东莞市,长怡路1号,,19,19,19,6,8,27,27,37,32,6,11,3,3,0.5,0.6
2026-06-19T2300,1666A,118.6612,37.4313,东营市,市环保局,,22,22,32,6,16,61,61,83,80,15,14,3,6,0.5,0.7
2026-06-19T2300,3036A,118.6903,37.4337,东营市,开发区管委会,,26,26,33,7,17,73,73,91,88,18,19,8,10,0.3,0.5
2026-06-19T2300,3365A,118.5721,37.5654,东营市,垦利区民丰路,NA,NA,39,43,26,28,NA,NA,86,81,32,28,12,13,0.4,0.5
2026-06-19T2300,3498A,118.5063,37.8606,东营市,河口城区,,22,19,31,15,27,65,65,116,99,6,9,3,3,0.5,0.7
2026-06-19T2300,3646A,118.4979,37.4623,东营市,胜利站,,22,22,38,3,20,64,64,81,78,14,17,8,8,0.6,0.8
2026-06-19T2300,3734A,118.5753,37.4405,东营市,理想之城,,17,17,34,3,22,50,50,77,72,15,20,7,8,0.4,0.5
2026-06-19T2300,1591A,110.0024,39.8127,鄂尔多斯市,综合楼,,25,NA,30,15,18,80,80,108,102,11,21,9,10,0.9,0.8
2026-06-19T2300,1592A,109.9485,39.8259,鄂尔多斯市,巴音孟克林场办事处,,25,19,27,13,15,79,79,111,101,12,17,6,6,0.5,0.4
2026-06-19T2300,1593A,109.7734,39.5987,鄂尔多斯市,康泽苑,,27,19,25,12,14,86,86,120,104,9,11,9,9,0.5,0.4
2026-06-19T2300,1594A,109.8121,39.5987,鄂尔多斯市,华泰汽车城,,24,22,26,8,14,75,75,105,89,9,11,6,6,0.7,0.6
2026-06-19T2300,1595A,109.9734,39.7884,鄂尔多斯市,奥林花园,,25,14,29,7,16,77,77,104,99,12,18,3,4,0.6,0.5
2026-06-19T2300,2436A,114.894,30.3989,鄂州市,市政府,,21,21,16,9,4,60,60,69,68,11,11,15,6,0.8,0.7
2026-06-19T2300,2437A,114.8986,30.3714,鄂州市,赵家坝,,22,18,12,10,3,70,70,82,79,10,7,6,5,0.7,0.6
2026-06-19T2300,3654A,114.8093,30.4091,鄂州市,精准医疗中心,,22,13,13,3,5,69,69,78,78,7,11,4,5,0.7,0.8
2026-06-19T2300,2454A,109.4978,30.2979,恩施土家族苗族自治州,湖北民院,,17,17,18,10,8,39,39,93,75,3,4,4,4,0.5,0.6
2026-06-19T2300,3549A,109.5061,30.3771,恩施土家族苗族自治州,龙凤新区,,17,17,15,11,8,27,27,85,57,8,6,6,6,0.6,0.6
2026-06-19T2300,2499A,108.3411,21.6159,防城港市,沙万,,34,34,37,13,14,58,58,70,69,7,7,4,4,0.6,0.6
2026-06-19T2300,2500A,108.3515,21.7733,防城港市,防城档案局,,24,24,28,13,12,51,51,66,63,6,5,4,5,0.6,0.5
2026-06-19T2300,2501A,108.3506,21.6414,防城港市,大海花园,,31,31,33,13,14,66,66,82,77,10,7,7,7,0.6,0.5
2026-06-19T2300,1371A,113.1293,23.0065,佛山市,湾梁,,22,22,19,9,10,31,31,54,49,10,13,/,/,/,/
2026-06-19T2300,1372A,113.1082,23.0477,佛山市,华材职中,,16,14,12,11,11,33,33,55,48,3,9,6,6,0.2,0.2
2026-06-19T2300,1373A,113.1439,23.045,佛山市,南海气象局,,16,16,19,10,11,28,28,50,44,13,20,/,/,/,/
2026-06-19T2300,1374A,113.2879,22.8094,佛山市,顺德苏岗,,13,NA,7,9,8,33,33,52,45,2,6,/,/,0.6,0.6
2026-06-19T2300,1376A,112.8384,22.8678,佛山市,高明孔堂,,18,18,15,8,7,41,41,50,48,3,7,/,/,/,/
2026-06-19T2300,1377A,112.8835,23.1584,佛山市,三水监测站,,20,17,10,14,12,20,20,39,36,12,14,4,3,0.4,0.5
2026-06-19T2300,1378A,112.8668,23.185,佛山市,三水云东海,,25,25,19,14,12,30,30,49,46,9,14,/,/,/,/
2026-06-19T2300,3625A,113.2568,22.7629,佛山市,容桂街道办,,12,NA,9,8,8,26,26,46,39,10,12,/,/,/,/
2026-06-19T2300,1282A,119.2681,26.0506,福州市,师大,,17,17,19,8,7,33,33,58,48,6,8,3,4,0.3,0.3
2026-06-19T2300,1283A,119.2983,26.1028,福州市,五四北路,,24,24,19,11,8,27,27,60,47,12,11,4,4,0.3,0.3
2026-06-19T2300,1284A,119.2648,26.0769,福州市,杨桥西路,,20,20,20,3,6,35,35,59,50,8,10,4,3,/,/
2026-06-19T2300,3048A,119.5799,26.0937,福州市,九龙,,17,17,19,10,8,34,34,64,48,5,6,5,5,0.1,0.1
2026-06-19T2300,3526A,119.5188,25.9666,福州市,吴航,,21,21,19,14,10,33,33,62,46,7,8,6,6,0.5,0.5
2026-06-19T2300,4104A,119.3106,26.0648,福州市,路通桥巷6号,,25,22,20,17,12,24,24,58,44,8,8,/,/,/,/
2026-06-19T2300,1755A,123.7974,41.8494,抚顺市,望花区,,48,33,32,33,19,25,25,112,72,36,18,6,7,0.9,0.8
2026-06-19T2300,1756A,123.9161,41.8827,抚顺市,顺城区,,45,37,28,31,17,7,7,122,73,53,23,10,10,0.8,0.7
2026-06-19T2300,1757A,124.0437,41.8615,抚顺市,东洲区,,30,22,22,21,13,50,50,113,81,14,12,11,11,0.3,0.3
2026-06-19T2300,1758A,123.9246,41.8638,抚顺市,新抚区,,44,44,30,27,17,8,8,128,71,42,18,7,8,0.7,0.7
2026-06-19T2300,1759A,124.0972,41.8961,抚顺市,大伙房水库,,33,NA,18,23,13,32,32,116,78,21,14,10,10,0.5,0.5
2026-06-19T2300,1760A,123.708,41.8386,抚顺市,沈抚新城,,38,38,29,23,16,24,24,124,82,52,25,8,9,0.6,0.7
2026-06-19T2300,2377A,116.3544,27.9833,抚州市,市站,,21,21,19,7,4,36,36,42,36,2,2,1,2,0.5,0.5
2026-06-19T2300,2378A,116.3562,27.9631,抚州市,血防站,,24,24,20,6,4,36,36,43,36,4,4,4,4,0.6,0.7
2026-06-19T2300,2379A,116.3561,28.0007,抚州市,采茶剧团,,18,18,18,8,4,43,43,47,41,3,4,7,8,0.5,0.4
2026-06-19T2300,2380A,116.3854,27.9648,抚州市,医学分院,,16,16,45,3,4,28,28,43,33,4,2,3,4,0.6,0.6
2026-06-19T2300,2207A,121.6095,41.9978,阜新市,工业园区,,24,20,34,15,22,75,75,100,91,11,11,7,7,0.3,0.3
2026-06-19T2300,2208A,121.6567,42.0188,阜新市,长青街,,24,21,36,16,26,76,76,121,90,14,12,10,7,0.4,0.6
2026-06-19T2300,2209A,121.6672,42.07,阜新市,农业园区,,28,26,44,19,25,80,80,111,95,9,9,6,6,0.8,0.8
2026-06-19T2300,2211A,121.6343,42.0455,阜新市,玉龙新城,,26,26,34,18,24,73,73,95,88,8,8,5,6,0.6,0.7
2026-06-19T2300,2301A,115.8276,32.8929,阜阳市,市监测站,,25,25,29,7,22,68,68,69,68,10,13,5,5,0.4,0.5
2026-06-19T2300,2303A,115.8551,32.8606,阜阳市,开发区,,20,9,32,7,22,64,64,64,61,9,12,4,4,0.5,0.6
2026-06-19T2300,2875A,115.783962,32.889217,阜阳市,阜阳职业技术学院,,27,6,32,6,22,84,84,79,78,4,7,6,6,0.5,0.6
2026-06-19T2300,3468A,115.79,32.8614,阜阳市,市规划展馆,,25,6,35,3,22,79,79,80,74,6,10,2,3,0.6,0.7
2026-06-19T2300,3469A,115.835101,32.918568,阜阳市,枣园社区,,28,NA,29,19,28,65,65,69,66,10,12,6,6,0.7,0.8
2026-06-19T2300,2669A,102.9097,34.9841,甘南藏族自治州,州政府,,29,18,31,9,15,91,91,101,96,4,11,4,4,0.2,0.2
2026-06-19T2300,3380A,102.8915,34.9618,甘南藏族自治州,甘肃民族师范学院,,27,18,37,9,19,85,85,101,97,9,21,3,3,0.2,0.3
2026-06-19T2300,2570A,101.96,30.048,甘孜藏族自治州,水桥子,,26,NA,18,18,9,38,38,58,44,12,16,7,7,0.4,0.3
2026-06-19T2300,3065A,101.9534,29.9976,甘孜藏族自治州,州环保局,,14,14,16,6,6,12,12,60,35,23,18,5,5,0.2,0.2
2026-06-19T2300,2363A,114.9368,25.8663,赣州市,地委,,22,22,17,3,4,48,48,58,52,2,4,1,1,0.3,0.4
2026-06-19T2300,2364A,114.946,25.8483,赣州市,气象台,,23,21,16,16,7,45,45,55,49,3,4,4,3,0.2,0.2
2026-06-19T2300,2365A,114.932,25.8332,赣州市,市图书馆,,16,16,11,3,4,50,50,61,56,2,3,4,4,0.6,0.6
2026-06-19T2300,2366A,114.8905,25.8472,赣州市,华坚鞋城,,24,24,17,7,5,44,44,53,49,3,4,2,1,0.3,0.3
2026-06-19T2300,3109A,115.0094,25.8614,赣州市,赣县区卫计委,,16,13,12,6,4,50,50,55,50,1,2,1,1,0.2,0.2
2026-06-19T2300,2684A,106.2753,36.0057,固原市,监测站,颗粒物(PM10),60,64,25,17,9,76,76,134,118,17,11,8,8,0.3,0.2
2026-06-19T2300,2685A,106.2384,36.0189,固原市,新区,,41,41,23,17,9,81,81,132,116,24,12,6,6,0.3,0.3
2026-06-19T2300,2544A,106.6307,30.4577,广安市,市委,,48,44,21,33,20,20,20,94,77,36,10,6,5,0.8,0.4
2026-06-19T2300,2545A,106.6266,30.4662,广安市,友谊中学,,42,42,24,24,15,32,32,98,83,25,9,8,8,0.8,0.5
2026-06-19T2300,2547A,106.6386,30.4551,广安市,广电花园,,43,NA,18,30,19,20,20,96,79,34,11,8,7,1.0,0.6
2026-06-19T2300,2902A,106.6347,30.4868,广安市,北辰小学,,33,33,22,22,19,45,45,100,88,15,9,8,11,0.6,0.5
2026-06-19T2300,2524A,105.8211,32.4444,广元市,老城,,33,28,21,17,7,104,104,123,116,4,7,5,5,0.6,0.6
2026-06-19T2300,2526A,105.8629,32.429,广元市,监测站,,48,48,28,16,6,101,101,119,113,7,8,9,9,0.6,0.6
2026-06-19T2300,3617A,105.8047,32.4167,广元市,经开区,,29,26,18,16,11,92,92,118,109,6,8,5,5,0.7,0.6
2026-06-19T2300,1345A,113.2346,23.1423,广州市,广雅中学,,22,22,17,11,10,26,26,48,40,9,17,4,4,0.6,0.6
2026-06-19T2300,1346A,113.2611,23.105,广州市,市五中,,22,22,18,12,13,32,32,57,47,9,16,3,3,/,/
2026-06-19T2300,1348A,113.3477,23.0916,广州市,广东商学院,,23,23,18,13,11,15,15,48,33,16,17,3,5,0.4,0.5
2026-06-19T2300,1349A,113.4332,23.105,广州市,市八十六中,,15,15,14,6,9,18,18,42,30,12,19,5,6,/,/
2026-06-19T2300,1350A,113.3506,22.9488,广州市,番禺中学,,25,25,21,12,11,21,21,52,40,11,13,4,4,0.5,0.5
2026-06-19T2300,1351A,113.2147,23.3918,广州市,花都师范,,25,25,23,15,16,33,33,63,52,6,13,3,3,0.7,0.8
2026-06-19T2300,1352A,113.2599,23.1329,广州市,市监测站,,17,17,12,10,9,29,29,53,43,9,17,3,3,/,/
2026-06-19T2300,1353A,113.5618,23.3119,广州市,九龙镇镇龙,,20,20,17,9,10,18,18,48,34,16,17,6,7,0.5,0.6
2026-06-19T2300,1354A,113.2764,23.1544,广州市,麓湖,,22,22,17,12,10,25,25,48,38,11,15,7,6,0.6,0.7
2026-06-19T2300,2846A,113.3209,23.1323,广州市,体育西,,24,24,22,11,14,16,16,42,29,24,25,4,5,0.5,0.5
2026-06-19T2300,3298A,113.5718,23.5493,广州市,从化街口,,22,22,20,13,14,31,31,59,47,10,10,6,6,0.3,0.4
2026-06-19T2300,3299A,113.3463,23.369,广州市,白云竹料,,24,24,19,11,11,26,26,56,44,12,14,2,2,0.5,0.5
2026-06-19T2300,3300A,113.2981,23.2365,广州市,白云嘉禾,,23,23,19,12,12,22,22,53,39,14,19,10,10,/,/
2026-06-19T2300,3301A,113.4256,23.1716,广州市,黄埔科学城,,20,20,16,7,9,13,13,50,32,18,18,8,7,0.4,0.4
2026-06-19T2300,3302A,113.3942,23.0485,广州市,番禺大学城,,26,26,20,8,8,30,30,59,49,14,18,5,5,0.3,0.4
2026-06-19T2300,3303A,113.4923,22.8169,广州市,南沙黄阁,,20,20,16,10,11,35,35,54,45,9,13,6,6,/,/
2026-06-19T2300,3304A,113.534,22.7893,广州市,南沙街,,16,16,15,6,8,36,36,49,41,6,10,6,7,0.2,0.2
2026-06-19T2300,3443A,113.2905,23.5541,广州市,花都梯面,,25,25,19,9,10,30,30,61,50,9,12,9,9,/,/
2026-06-19T2300,3445A,113.786,23.7479,广州市,从化良口,,15,15,13,7,6,41,41,54,47,8,8,4,4,/,/
2026-06-19T2300,3446A,113.805,23.2614,广州市,增城荔城,,20,20,16,8,8,26,26,51,41,10,11,6,6,0.4,0.4
2026-06-19T2300,2506A,109.604387,23.066791,贵港市,江南子站,,43,NA,31,30,22,6,6,44,25,18,13,4,4,0.8,0.7
2026-06-19T2300,2508A,109.5669,23.1065,贵港市,荷城子站,,35,24,23,24,20,22,22,34,25,14,15,6,6,0.8,0.8
2026-06-19T2300,3405A,109.5886,23.1172,贵港市,新世纪学校,,26,24,27,18,21,21,21,35,23,14,11,/,/,0.5,0.7
2026-06-19T2300,4260A,109.5933,23.095,贵港市,中山路155-3号,,38,38,37,24,22,12,12,44,30,17,14,/,/,0.6,0.6
2026-06-19T2300,1439A,106.6863,26.6035,贵阳市,马鞍山,,17,17,15,3,7,27,27,66,58,7,7,6,6,/,/
2026-06-19T2300,1441A,106.6241,26.6266,贵阳市,鉴湖路,,31,31,22,12,7,59,59,90,83,8,6,8,8,0.6,0.5
2026-06-19T2300,1442A,106.7468,26.6344,贵阳市,燕子冲,,24,24,26,10,9,54,54,84,76,8,10,7,9,0.6,0.7
2026-06-19T2300,1443A,106.6556,26.4362,贵阳市,碧云窝,,31,31,28,12,10,39,39,100,87,11,9,3,4,/,/
2026-06-19T2300,1445A,106.6963,26.6063,贵阳市,红边门,,24,24,19,12,11,43,43,86,73,15,9,5,9,/,/
2026-06-19T2300,1446A,106.7162383,26.56964667,贵阳市,新华路,,39,39,26,16,9,23,23,64,53,27,10,6,19,0.7,0.5
2026-06-19T2300,1447A,106.6742,26.542,贵阳市,太慈桥,,24,24,18,6,8,20,20,89,70,17,11,2,3,/,/
2026-06-19T2300,4230A,106.688212,26.56952,贵阳市,花果园大街66号,,35,35,19,18,10,53,53,95,86,20,11,3,4,/,/
2026-06-19T2300,4231A,106.687268,26.516892,贵阳市,漓江路57号,,31,31,17,18,11,26,26,93,79,31,14,2,3,0.8,0.7
2026-06-19T2300,1864A,110.3091,25.2705,桂林市,龙隐路小学,,19,19,13,10,7,32,32,43,32,6,7,4,4,0.5,0.5
2026-06-19T2300,1865A,110.2849361,25.22909545,桂林市,八中,,14,14,13,3,7,37,37,44,31,6,10,4,4,0.6,0.6
2026-06-19T2300,3531A,110.296,25.1254,桂林市,旅游学院,,18,18,23,11,7,22,22,44,29,7,3,7,8,0.3,0.3
2026-06-19T2300,4222A,110.1835,25.2444,桂林市,环湖路276号,,15,NA,6,10,8,39,39,53,40,3,5,3,3,0.4,0.4
2026-06-19T2300,4301A,110.2803,25.2773,桂林市,信义路13号,,13,13,13,7,8,31,31,40,28,5,8,4,4,0.6,0.6
2026-06-19T2300,2674A,100.2262,34.4854,果洛藏族自治州,玛沁县大武镇,,27,27,28,12,10,80,80,99,92,2,3,16,14,0.3,0.3
2026-06-19T2300,1130A,126.5557,45.8109,哈尔滨市,松北商大,,50,NA,31,35,29,90,90,154,131,24,14,5,6,0.5,0.6
2026-06-19T2300,1132A,126.6162,45.719,哈尔滨市,南岗学府路,颗粒物(PM10),61,65,46,33,29,66,66,158,121,59,24,11,7,0.7,0.7
2026-06-19T2300,1133A,126.6894,45.7733,哈尔滨市,太平宏伟公园,,40,40,44,21,18,65,65,159,128,52,23,7,7,0.4,0.4
2026-06-19T2300,1134A,126.6361,45.7672,哈尔滨市,道外承德广场,颗粒物(PM10),57,59,55,30,20,95,95,153,129,41,23,7,5,0.4,0.6
2026-06-19T2300,1136A,126.644,45.7261,哈尔滨市,动力和平路,颗粒物(PM10),51,51,48,26,20,104,104,163,133,38,20,9,6,0.4,0.4
2026-06-19T2300,1137A,126.5933,45.7479,哈尔滨市,道里建国路,颗粒物(PM10),64,69,42,39,27,84,84,164,133,52,19,7,5,3.8,0.9
2026-06-19T2300,1138A,126.6127,45.6119,哈尔滨市,平房东轻厂,,48,37,26,33,17,86,86,153,123,41,20,4,4,0.8,0.6
2026-06-19T2300,1139A,126.5875,45.9827,哈尔滨市,呼兰师专,NA,NA,NA,42,20,24,85,85,148,131,30,15,8,9,0.4,0.3
2026-06-19T2300,1140A,126.6299,45.6799,哈尔滨市,省农科院,"颗粒物(PM10),细颗粒物(PM2.5)",64,69,55,42,22,25,25,149,101,95,32,6,5,0.6,0.4
2026-06-19T2300,4282A,126.6769,45.7379,哈尔滨市,华山路1号,,46,46,33,25,20,91,91,168,138,47,19,10,8,0.3,0.3
2026-06-19T2300,4283A,126.9717,45.5356,哈尔滨市,解放大街52号,细颗粒物(PM2.5),84,54,35,52,13,89,89,158,128,30,19,4,4,0.4,0.4
2026-06-19T2300,2688A,93.5124,42.8176,哈密市,地区监测站,,31,14,10,6,7,97,97,120,113,10,7,5,5,0.0,0
2026-06-19T2300,2689A,93.5014,42.8312,哈密市,哈密师范学校,NA,NA,NA,17,NA,7,NA,NA,121,NA,NA,11,NA,6,NA,0.0
2026-06-19T2300,2671A,100.9016,36.9464,海北藏族自治州,海晏县西海镇,,28,22,15,7,7,89,89,124,112,3,3,4,6,0.4,0.3
2026-06-19T2300,3867A,102.074,36.5056,海东市,平安区公安局北苑,,33,25,24,22,14,105,105,131,119,6,7,9,10,0.5,0.6
2026-06-19T2300,4163A,102.0984,36.5119,海东市,滨河路,,36,NA,21,25,16,82,82,111,93,9,20,5,8,0.7,0.7
2026-06-19T2300,1410A,110.3189,20.0596,海口市,海南大学,,32,32,23,15,12,61,61,74,65,5,4,5,5,0.4,0.3
2026-06-19T2300,1411A,110.2827,20.0051,海口市,秀英海南医院,,25,24,19,17,14,64,64,78,72,4,4,5,5,0.3,0.3
2026-06-19T2300,1412A,110.3391,19.9979,海口市,海南师范大学,,29,29,27,16,13,58,58,73,62,5,4,3,3,0.4,0.4
2026-06-19T2300,1413A,110.3303,20.0359,海口市,龙华路环保局宿舍,,31,31,22,16,12,62,62,68,65,5,4,/,/,0.4,0.4
2026-06-19T2300,3539A,110.5111,19.9737,海口市,桂林洋子站,,28,28,26,16,14,60,60,65,57,3,3,/,/,/,/
2026-06-19T2300,4134A,110.1952,20.0451,海口市,长滨二路9号,,20,20,20,12,9,54,54,66,59,4,3,/,/,/,/
2026-06-19T2300,2673A,100.6158,36.2985,海南藏族自治州,共和县恰卜恰镇,,28,23,19,8,8,88,88,121,114,8,4,10,9,0.4,0.4
2026-06-19T2300,2676A,97.373,37.376,海西蒙古族藏族自治州,德令哈市,,37,7,16,7,7,118,118,127,125,2,2,18,20,0.3,0.3
2026-06-19T2300,1049A,114.492,36.5712,邯郸市,矿院,,22,12,22,10,16,70,70,107,96,20,9,2,3,0.2,0.4
2026-06-19T2300,1050A,114.4839,36.6136,邯郸市,丛台公园,,26,16,22,13,14,82,82,104,96,15,8,6,6,0.2,0.5
2026-06-19T2300,3458A,114.7893,36.5592,邯郸市,香泉濮院小区,,25,NA,18,17,20,70,70,108,89,14,13,3,3,0.3,0.2
2026-06-19T2300,3580A,114.1998,36.4439,邯郸市,峰峰矿区临水派出所,,24,20,23,6,16,74,74,104,85,10,9,2,2,0,0
2026-06-19T2300,4068A,114.5209,36.7697,邯郸市,建安街268号,,31,31,31,10,13,61,61,102,90,23,12,3,3,1.0,0.5
2026-06-19T2300,4069A,114.5488,36.6177,邯郸市,丛台东路558号,,26,26,23,8,13,65,65,99,87,14,9,4,4,0.3,0.5
2026-06-19T2300,2635A,107.0155,33.0707,汉中市,市监测站,,32,29,28,22,18,66,66,104,102,13,11,4,6,0.4,0.5
2026-06-19T2300,2636A,107.0083,33.114,汉中市,鑫源开发区,细颗粒物(PM2.5),80,52,26,50,17,64,64,130,112,15,12,6,7,0.4,0.5
2026-06-19T2300,2637A,107.0072,33.0323,汉中市,南郑大河坎水厂,,35,33,22,24,12,54,54,120,104,13,10,4,4,0.8,0.8
2026-06-19T2300,1223A,120.2073,30.2111,杭州市,滨江,,11,6,17,3,12,35,35,61,38,8,16,4,5,0.4,0.5
2026-06-19T2300,1224A,120.0625,30.2737,杭州市,西溪,,12,6,16,3,13,38,38,45,34,2,8,4,4,0.8,1
2026-06-19T2300,1226A,120.3417,30.315,杭州市,下沙,,13,6,16,3,17,40,40,68,41,4,16,3,4,0.7,0.8
2026-06-19T2300,1227A,120.1252,30.2465,杭州市,卧龙桥,,13,7,18,3,14,40,40,49,39,2,8,8,8,0.3,0.5
2026-06-19T2300,1228A,120.1902,30.2691,杭州市,浙江农大,,11,6,16,3,13,34,34,49,33,6,17,6,6,0.4,0.5
2026-06-19T2300,1230A,120.1195,30.3121,杭州市,和睦小学,,11,6,16,3,15,34,34,51,36,2,12,7,7,0.5,0.6
2026-06-19T2300,1231A,120.3076,30.4146,杭州市,临平镇,,12,6,22,3,16,38,38,63,41,6,12,6,6,0.4,0.5
2026-06-19T2300,1232A,120.2753,30.1839,杭州市,城厢镇,,10,9,18,3,11,32,32,68,35,9,14,5,5,0.5,0.6
2026-06-19T2300,1233A,120.0883,30.1808,杭州市,云栖,,8,7,18,3,11,25,25,40,26,4,12,8,8,0.7,0.8
2026-06-19T2300,3557A,119.9463,30.0496,杭州市,镇二中,,13,7,18,3,13,41,41,53,39,6,17,5,5,0.5,0.6
2026-06-19T2300,3558A,119.7184,30.2367,杭州市,市府大楼,,12,6,12,3,12,37,37,39,35,3,8,7,7,0.5,0.7
2026-06-19T2300,3656A,120.1554,30.2863,杭州市,消防大队,,12,6,16,3,15,38,38,48,35,1,11,7,7,0.5,0.6
2026-06-19T2300,1270A,117.1957,31.7845,合肥市,明珠广场,,18,NA,6,3,4,57,57,76,69,7,5,7,7,0.5,0.5
2026-06-19T2300,1271A,117.307,31.8765,合肥市,三里街,,20,6,10,3,11,64,64,70,60,6,10,8,8,0.6,0.6
2026-06-19T2300,1272A,117.2587,31.8703,合肥市,琥珀山庄,,16,NA,10,6,8,50,50,76,62,8,6,6,6,0.9,0.9
2026-06-19T2300,1275A,117.2593,31.9376,合肥市,庐阳区,,17,6,13,3,11,54,54,85,68,10,11,8,8,0.6,0.8
2026-06-19T2300,1276A,117.345251,31.861615,合肥市,瑶海区,,19,6,11,3,8,58,58,74,64,7,8,8,8,0.6,0.6
2026-06-19T2300,1277A,117.3033,31.7967,合肥市,包河区,,14,6,9,3,4,44,44,71,64,18,9,8,9,0.6,0.6
2026-06-19T2300,1278A,117.278,31.7392,合肥市,滨湖新区,,15,6,6,3,2,47,47,71,58,18,11,10,11,0.7,0.6
2026-06-19T2300,1279A,117.1324,31.8395,合肥市,高新区,,22,7,10,3,4,70,70,78,75,5,6,6,6,0.7,0.6
2026-06-19T2300,3464A,117.3802,31.9148,合肥市,高教基地,,18,6,13,3,12,55,55,76,57,5,7,5,5,0.4,0.5
2026-06-19T2300,4098A,117.2518,31.8404,合肥市,中国科学技术大学,,19,NA,6,3,5,58,58,77,67,7,8,8,8,0.6,0.6
2026-06-19T2300,3614A,79.9241,37.0878,和田地区,地区环保局,颗粒物(PM10),108,139,76,59,29,92,92,107,100,4,6,6,6,0.2,0.2
2026-06-19T2300,3615A,79.9132,37.1137,和田地区,市环保局,颗粒物(PM10),127,189,65,41,28,102,102,110,106,3,17,2,2,0.3,0.4
2026-06-19T2300,2517A,108.0496,24.6957,河池市,市环保站,,10,10,9,3,5,18,18,52,29,9,8,5,5,0.8,0.8
2026-06-19T2300,4302A,108.0901,24.6945,河池市,上任中路54号,,14,14,8,3,4,0,0,44,9,24,13,3,3,0.8,0.7
2026-06-19T2300,1697A,114.6962,23.7538,河源市,东埔,,13,13,15,9,14,25,25,54,41,9,9,4,5,0.7,0.7
2026-06-19T2300,1698A,114.6895,23.7232,河源市,老城,,10,9,17,7,8,25,25,54,42,12,10,5,6,0.8,0.9
2026-06-19T2300,3374A,115.5562,35.089,菏泽市,定陶老年大学,,29,NA,19,20,21,58,58,84,74,15,13,4,4,0.2,0.2
2026-06-19T2300,4114A,115.4239,35.2593,菏泽市,黄河路600号,NA,NA,NA,23,21,21,53,53,86,72,9,7,4,4,0.3,0.3
2026-06-19T2300,4115A,115.5025,35.2727,菏泽市,菏泽市人社局,,35,NA,16,24,21,56,56,95,72,14,12,8,6,0.3,0.3
2026-06-19T2300,4184A,115.479691,35.244011,菏泽市,永昌路1号,,28,NA,19,19,20,69,69,104,81,12,10,5,5,0,0.1
2026-06-19T2300,4193A,115.471542,35.280012,菏泽市,长城路999号,,29,NA,16,20,20,56,56,98,74,10,8,9,9,0.4,0.4
2026-06-19T2300,2514A,111.5264,24.4178,贺州市,环保小区,,19,19,13,11,11,42,42,49,48,7,6,10,9,0.3,0.4
2026-06-19T2300,2515A,111.561,24.4074,贺州市,政协大楼,,16,16,11,10,11,41,41,49,46,9,10,23,15,0.5,0.7
2026-06-19T2300,3534A,111.4744,24.455,贺州市,西湾,,12,11,16,6,8,36,36,48,45,8,10,11,10,0.2,0.3
2026-06-19T2300,2385A,114.17,35.9019,鹤壁市,市监测站,,39,39,26,18,22,66,66,114,82,9,5,4,3,0.4,0.5
2026-06-19T2300,2386A,114.2953,35.7512,鹤壁市,市交警支队,,35,30,30,24,23,61,61,97,70,14,11,6,4,0.4,0.4
2026-06-19T2300,2387A,114.2877,35.7302,鹤壁市,迎宾馆,,27,27,20,13,16,63,63,110,80,12,6,4,6,0.6,0.5
2026-06-19T2300,3474A,114.2616,35.6824,鹤壁市,大新区,,23,23,18,16,21,53,53,100,78,11,8,4,4,0.6,0.5
2026-06-19T2300,3596A,114.1573,35.9607,鹤壁市,南山宾馆,,36,NA,23,25,31,81,81,109,80,10,8,8,8,0.6,0.6
2026-06-19T2300,2244A,130.2537,47.3416,鹤岗市,哈啤分公司,,32,22,24,22,14,79,79,112,93,13,10,5,6,0.1,0.1
2026-06-19T2300,2245A,130.2683,47.3087,鹤岗市,斯达机电,,29,NA,65,20,14,79,79,109,96,9,8,4,4,0.3,0.3
2026-06-19T2300,2246A,130.3114,47.3388,鹤岗市,东山纸板厂,,33,27,23,23,13,53,53,90,64,14,13,6,5,0.6,0.3
2026-06-19T2300,2263A,127.4832,50.2524,黑河市,交通局,,40,40,27,16,13,57,57,92,77,11,10,5,5,0.4,0.4
2026-06-19T2300,2264A,127.5146,50.2339,黑河市,环保局,,31,31,23,12,12,65,65,90,78,15,11,9,8,0.3,0.2
2026-06-19T2300,1074A,115.6839,37.754,衡水市,电机北厂,,45,45,48,20,24,46,46,113,89,22,14,3,4,0.5,0.5
2026-06-19T2300,1075A,115.6303,37.7318,衡水市,市监测站,,42,42,50,20,17,71,71,109,84,15,16,5,6,0.5,0.5
2026-06-19T2300,3188A,115.6684,37.7216,衡水市,市城管局,,39,39,47,14,20,69,69,106,83,21,15,3,3,0.4,0.4
2026-06-19T2300,3459A,115.599,37.5491,衡水市,地表水厂,,26,21,43,18,22,36,36,107,72,45,24,5,7,0,0.3
2026-06-19T2300,2457A,112.6209,26.9268,衡阳市,衡阳化工总厂,NA,NA,NA,13,7,3,34,34,53,46,10,4,20,15,2.1,0.9
2026-06-19T2300,2458A,112.621,26.8957,衡阳市,珠晖区环保局,,16,10,11,3,3,39,39,52,47,4,2,7,5,1.6,0.9
2026-06-19T2300,2459A,112.628,26.8654,衡阳市,市委党校,,11,7,10,7,4,35,35,52,45,5,2,12,9,0.6,0.6
2026-06-19T2300,2460A,112.6007,26.8977,衡阳市,市监测站,,29,16,13,8,4,27,27,51,43,16,5,9,7,2.9,0.9
2026-06-19T2300,2461A,112.5658,26.9013,衡阳市,真空机电公司,,15,12,13,3,5,46,46,59,52,3,4,5,8,0.8,1.5
2026-06-19T2300,3399A,112.6703,26.8817,衡阳市,师范学院,,25,NA,12,17,6,38,38,53,46,5,3,9,8,0.5,0.4
2026-06-19T2300,3038A,103.3757,23.3679,红河哈尼族彝族自治州,州图书馆,,16,NA,12,11,8,43,43,57,48,3,3,3,4,0.1,0.1
2026-06-19T2300,4154A,103.401,23.3561,红河哈尼族彝族自治州,蒙自市朝阳路,,15,13,12,9,8,46,46,57,50,2,2,6,6,0.3,0.3
2026-06-19T2300,1090A,111.6506,40.7517,呼和浩特市,呼市一监,,29,6,16,3,15,92,92,128,110,5,10,9,9,0.2,0.3
2026-06-19T2300,1094A,111.7516,40.8369,呼和浩特市,如意水处理厂,,28,NA,19,8,15,89,89,130,108,4,8,6,7,0.3,0.4
2026-06-19T2300,1095A,111.727798,40.806187,呼和浩特市,二十九中,,29,9,20,3,22,92,92,128,107,4,9,9,10,0.6,0.7
2026-06-19T2300,1097A,111.717,40.7617,呼和浩特市,化肥厂生活区,,30,NA,24,3,20,95,95,128,106,6,11,10,10,0.4,0.5
2026-06-19T2300,3699A,111.6519,40.8389,呼和浩特市,海东办,,26,6,16,3,10,81,81,117,100,5,9,6,6,0.5,0.6
2026-06-19T2300,4275A,111.591512,40.827312,呼和浩特市,成吉思汗西街8号,,21,6,19,3,11,67,67,115,92,11,15,5,6,0.3,0.4
2026-06-19T2300,4276A,111.6597,40.8077,呼和浩特市,公园东路75号,,32,9,17,3,14,100,100,134,117,8,10,10,11,0.5,0.6
2026-06-19T2300,4277A,111.5427,40.7846,呼和浩特市,金海路35号,,24,9,21,3,15,74,74,115,96,6,12,4,5,0.4,0.5
2026-06-19T2300,3061A,119.7511,49.1576,呼伦贝尔市,国华电力东,,30,30,28,13,17,52,52,82,67,9,8,5,6,0.3,0.3
2026-06-19T2300,4279A,119.7569,49.2222,呼伦贝尔市,伊敏大街东7号,,25,22,22,17,14,52,52,77,63,10,8,6,6,0.5,0.4
2026-06-19T2300,1250A,120.075,30.867,湖州市,城西水厂,,13,6,28,3,20,40,40,62,43,9,10,4,4,0.3,0.4
2026-06-19T2300,2873A,120.083,30.8929,湖州市,仁皇山新区,,8,6,25,3,20,24,24,54,31,12,16,4,5,0.4,0.6
2026-06-19T2300,2907A,120.1846,30.8592,湖州市,吴兴区站,,9,6,21,3,16,27,27,48,33,11,13,6,6,0.4,0.6
2026-06-19T2300,3562A,120.4146,30.8538,湖州市,南浔区站,,11,11,20,3,19,33,33,60,40,6,11,6,7,0.4,0.5
2026-06-19T2300,1607A,120.904878,40.721091,葫芦岛市,龙港区,NA,NA,46,33,17,22,95,95,98,98,NA,9,8,9,0.5,0.5
2026-06-19T2300,1608A,120.8382,40.7521,葫芦岛市,化工街,,24,24,28,13,20,74,74,86,86,16,14,8,9,0.2,0.3
2026-06-19T2300,1609A,120.8339,40.7078,葫芦岛市,新区,,27,NA,27,17,22,85,85,88,88,7,9,4,5,0.4,0.4
2026-06-19T2300,1610A,120.8697,40.7679,葫芦岛市,东城区,,32,NA,30,22,24,82,82,86,86,12,12,4,4,0.6,0.6
2026-06-19T2300,2483A,109.9297,27.5383,怀化市,河西地税局,,13,11,11,3,4,41,41,40,39,5,5,2,2,/,/
2026-06-19T2300,2484A,109.9783,27.5342,怀化市,市四医院,,13,13,17,3,4,31,31,30,29,4,6,6,6,0.5,0.5
2026-06-19T2300,2485A,109.9971,27.5579,怀化市,监测楼,,13,9,14,3,5,40,40,47,42,5,14,7,7,0.5,0.6
2026-06-19T2300,1210A,119.0566,33.5991,淮安市,钵池山,,19,12,15,8,12,60,60,79,72,12,11,10,10,0.9,0.9
2026-06-19T2300,1211A,119.0083,33.578,淮安市,北京南路,,23,9,15,7,12,72,72,90,84,7,7,6,6,0.8,0.9
2026-06-19T2300,1212A,118.9938,33.6083,淮安市,市监测站,,22,NA,8,8,13,70,70,92,84,10,10,6,6,1.0,1.1
2026-06-19T2300,1213A,119.135,33.5038,淮安市,楚州区监测站,,23,12,10,8,12,71,71,94,86,6,7,5,5,0.6,0.6
2026-06-19T2300,3426A,118.8757,33.2897,淮安市,新华书店,,25,13,12,8,9,78,78,96,86,8,9,8,7,1.4,1.4
2026-06-19T2300,4092A,119.119691,33.550006,淮安市,枚皋中路89号,,21,9,18,8,13,67,67,95,86,12,9,7,7,0.7,0.8
2026-06-19T2300,4206A,119.028838,33.631911,淮安市,承德北路606号,,21,9,16,7,14,66,66,84,78,7,7,6,6,0.6,0.6
2026-06-19T2300,2282A,116.8005,33.9749,淮北市,监测站,,18,15,27,12,17,55,55,94,76,10,9,5,6,0.3,0.4
2026-06-19T2300,2283A,116.8094,33.9008,淮北市,烈山区政府,,19,14,30,13,25,60,60,98,82,5,5,2,3,0.2,0.4
2026-06-19T2300,4017A,116.7926,33.9534,淮北市,市博物馆,,23,23,25,12,20,61,61,102,84,6,5,2,2,0.4,0.6
2026-06-19T2300,4100A,116.8322,33.9884,淮北市,杜集区第一实验学校,,39,39,50,15,28,48,48,97,76,10,8,6,6,0.5,0.6
2026-06-19T2300,2277A,116.8304,32.7726,淮南市,潘集区政府,,22,8,26,8,16,68,68,84,82,6,9,5,5,0.2,0.3
2026-06-19T2300,2279A,116.8569,32.5949,淮南市,谢家集区政府,,23,7,30,3,25,72,72,84,82,9,13,6,7,0.3,0.5
2026-06-19T2300,2280A,116.8279,32.6333,淮南市,八公山区政府,,23,12,32,9,27,71,71,87,85,7,8,4,5,0.2,0.4
2026-06-19T2300,2894A,117.0561,32.6536,淮南市,经济技术开发区消防队,,19,9,19,7,26,60,60,75,73,12,11,7,7,0.3,0.5
2026-06-19T2300,3329A,117.011,32.5891,淮南市,山南新区,,21,NA,21,9,29,67,67,75,75,6,9,9,9,0.4,0.5
2026-06-19T2300,4209A,117.003137,32.644456,淮南市,国庆中路369号,,27,27,39,8,21,57,57,71,68,13,13,10,10,0.2,0.3
2026-06-19T2300,2446A,114.9021,30.474,黄冈市,职工中心,,22,14,11,3,4,68,68,72,71,4,7,6,6,0.7,0.7
2026-06-19T2300,2929A,114.8858,30.4519,黄冈市,红卫路,,19,10,9,8,7,58,58,67,66,8,7,5,5,0.7,0.6
2026-06-19T2300,3398A,114.9134,30.4446,黄冈市,市林业局,,25,12,8,6,7,77,77,85,84,7,8,4,4,0.4,0.4
2026-06-19T2300,2672A,102.02,35.5101,黄南藏族自治州,同仁县隆务镇,,41,28,21,10,10,129,129,139,134,1,2,9,9,0.3,0.2
2026-06-19T2300,2295A,118.2905,29.6965,黄山市,延安路89号,,17,6,10,3,5,52,52,48,48,2,4,5,5,0.3,0.4
2026-06-19T2300,2297A,118.1369,30.2755,黄山市,黄山区政府5号楼,,14,14,10,3,3,33,33,40,40,2,2,3,2,0.3,0.3
2026-06-19T2300,4210A,118.335445,29.720283,黄山市,滨江东路7-2号,,21,21,20,3,4,51,51,47,47,1,3,/,/,/,/
2026-06-19T2300,2423A,115.0547,30.2332,黄石市,沈家营,,20,20,21,3,4,63,63,65,64,1,6,7,5,0.3,0.3
2026-06-19T2300,2426A,114.899,30.211,黄石市,铁山,,26,26,24,6,5,46,46,63,59,3,5,4,6,0.5,0.5
2026-06-19T2300,2427A,115.0259,30.2108,黄石市,团城山,,22,22,18,3,4,70,70,68,68,4,5,5,4,0.6,0.5
2026-06-19T2300,3149A,115.0174,30.1591,黄石市,笔架山北路,,36,36,29,3,4,57,57,60,60,10,12,10,4,0.8,0.4
2026-06-19T2300,4185A,115.078022,30.21118,黄石市,磁湖东路29号,,23,16,20,8,5,72,72,72,72,15,15,10,3,0.4,0.2
2026-06-19T2300,1392A,114.4181,23.0528,惠州市,河南岸金山湖子站,NA,NA,19,17,10,11,NA,NA,60,54,10,10,NA,7,NA,0.6
2026-06-19T2300,1393A,114.4055,23.0824,惠州市,下埔横江三路子站,,17,17,20,9,11,29,29,58,45,6,9,2,4,0.6,0.7
2026-06-19T2300,1395A,114.4645,22.7832,惠州市,惠阳区承修路船湖子站,,14,14,14,7,9,36,36,49,41,3,6,3,3,0.6,0.6
2026-06-19T2300,1396A,114.5316,22.7423,惠州市,大亚湾管委会子站,,17,17,16,6,6,38,38,47,42,4,6,5,4,0.4,0.4
2026-06-19T2300,3314A,114.4334,22.8134,惠州市,惠阳秋长,,14,14,14,6,7,37,37,56,45,6,9,/,/,/,/
2026-06-19T2300,3452A,114.6521,22.7755,惠州市,大亚湾霞涌,,13,13,16,3,7,34,34,51,47,15,9,/,/,/,/
2026-06-19T2300,4300A,114.4089,23.1147,惠州市,文华一路1号,,17,17,17,7,10,29,29,58,47,7,11,/,/,/,/
2026-06-19T2300,2240A,130.9618,45.2926,鸡西市,环保局,,26,24,25,18,15,79,79,123,90,9,10,10,10,0.3,0.3
2026-06-19T2300,2243A,130.9294,45.2959,鸡西市,第一中学,,23,21,19,12,13,72,72,116,84,7,9,7,7,0.3,0.3
2026-06-19T2300,3707A,131.0069,45.2988,鸡西市,欧美日汽修厂,,25,NA,26,16,15,77,77,115,82,4,10,9,11,0.2,0.3
2026-06-19T2300,2367A,114.9753,27.0803,吉安市,红声器材厂,,23,23,18,3,3,44,44,55,51,5,5,7,7,0.2,0.2
2026-06-19T2300,2369A,114.9903,27.1313,吉安市,市环境监测站,,20,20,18,3,5,41,41,51,46,4,3,8,8,/,/
2026-06-19T2300,2370A,115.009527,27.096792,吉安市,青原区法院,,21,21,19,8,3,49,49,53,51,2,3,6,7,0.2,0.2
2026-06-19T2300,1772A,126.54,43.8622,吉林市,哈达湾,,45,43,26,31,17,33,33,113,89,33,16,6,6,0.6,0.4
2026-06-19T2300,1773A,126.5843,43.8358,吉林市,东局子,,34,34,20,19,15,37,37,103,75,28,13,3,4,0.7,0.5
2026-06-19T2300,1774A,126.5051,43.8243,吉林市,电力学院,颗粒物(PM10),56,58,31,24,18,20,20,123,NA,32,17,5,5,0.9,0.8
2026-06-19T2300,1775A,126.6133,43.8971,吉林市,江北,,38,29,23,26,18,37,37,112,75,19,11,6,6,0.6,0.5
2026-06-19T2300,1776A,126.5549,43.8304,吉林市,江南公园,,32,32,24,19,14,39,39,114,80,21,13,5,5,0.2,0.2
2026-06-19T2300,2868A,126.4737,43.953,吉林市,九站,,43,33,27,30,17,4,4,131,88,68,17,33,5,0.5,0.4
2026-06-19T2300,1299A,116.9866,36.6118,济南市,科干所,,36,29,36,25,28,64,64,111,93,26,18,4,5,0.6,0.6
2026-06-19T2300,1300A,116.9379,36.6652,济南市,农科所,,40,NA,35,28,32,40,40,109,68,19,15,2,3,0.2,0.2
2026-06-19T2300,1301A,117.1265,36.6736,济南市,开发区,,42,NA,40,29,33,69,69,96,84,14,12,5,5,0.5,0.5
2026-06-19T2300,1303A,117.0616,36.6865,济南市,省种子仓库,,46,39,42,32,30,61,61,116,93,19,13,5,6,0.4,0.4
2026-06-19T2300,1304A,116.9495185,36.644937,济南市,机床二厂,,42,NA,39,29,32,56,56,107,82,22,15,5,6,0.4,0.4
2026-06-19T2300,1305A,117.0496,36.6629,济南市,市监测站,,42,34,39,29,28,57,57,109,92,25,14,3,4,0.4,0.4
2026-06-19T2300,1306A,116.7674,36.5458,济南市,长清党校,,28,22,38,19,28,51,51,109,80,15,12,3,4,0.3,0.3
2026-06-19T2300,1961A,117.5323,36.6865,济南市,东山小学,,40,39,51,28,37,76,76,108,92,18,18,3,5,0.3,0.5
2026-06-19T2300,3059A,117.7181,36.205,济南市,泰兴公司,,27,27,33,3,20,73,73,98,96,18,14,8,8,0.2,0.4
2026-06-19T2300,3064A,117.6861,36.2172,济南市,莱芜战役纪念馆,,22,19,31,3,21,70,70,101,99,15,12,7,6,0.3,0.5
2026-06-19T2300,3494A,117.1673,36.9782,济南市,济阳区政府,,29,20,54,20,30,69,69,109,85,16,26,3,3,0.3,0.4
2026-06-19T2300,3495A,117.1168,36.6299,济南市,锦屏中学,,28,24,40,19,28,62,62,83,68,9,9,8,8,0.1,0.1
2026-06-19T2300,4108A,117.7107,36.2385,济南市,山财大街5号,,24,24,33,6,22,73,73,103,101,27,16,8,7,0.6,0.5
2026-06-19T2300,4109A,116.9744,36.6889,济南市,无影山路12号,,39,NA,37,27,32,53,53,108,79,25,15,2,3,0.4,0.4
2026-06-19T2300,1653A,116.6229,35.4288,济宁市,火炬城,,29,NA,31,20,20,47,47,80,70,9,8,6,7,0.5,0.6
2026-06-19T2300,3500A,116.5808,35.3703,济宁市,北湖一中,,22,19,37,15,26,61,61,82,72,6,8,4,5,0.4,0.4
2026-06-19T2300,3501A,116.8251,35.5592,济宁市,服务中心,,35,NA,34,24,32,60,60,97,82,14,9,1,2,0.5,0.5
2026-06-19T2300,3678A,116.5907,35.4054,济宁市,市第七中学,,23,22,36,16,24,61,61,91,83,13,11,5,6,0.3,0.3
2026-06-19T2300,4111A,116.6075,35.4566,济宁市,任和路,,29,21,38,20,24,37,37,77,62,17,9,2,3,0.6,0.6
2026-06-19T2300,4112A,116.5648,35.3921,济宁市,文体南路1号,,21,21,35,14,22,50,50,72,62,14,10,3,4,0.5,0.5
2026-06-19T2300,4122A,112.6071,35.1015,济源市,市委党校,,42,42,39,22,16,64,64,80,78,17,17,6,7,0.3,0.4
2026-06-19T2300,4123A,112.596,35.0702,济源市,沁园中路1号,,25,24,21,10,15,77,77,92,86,12,13,2,2,0.4,0.5
2026-06-19T2300,2255A,130.2749,46.8028,佳木斯市,佳纺,,38,37,25,26,16,83,83,110,93,6,7,2,2,0.3,0.3
2026-06-19T2300,2257A,130.3258,46.7975,佳木斯市,环保局,,35,30,20,24,18,87,87,115,101,9,8,5,5,0.4,0.4
2026-06-19T2300,4285A,130.363,46.806,佳木斯市,顺和街,,30,30,20,20,16,80,80,106,89,6,9,2,2,0.4,0.4
2026-06-19T2300,4286A,130.3952,46.8268,佳木斯市,长安路196号,,39,39,26,22,16,77,77,113,88,14,12,5,5,0.4,0.4
2026-06-19T2300,1252A,120.7439,30.778,嘉兴市,清河小学,,11,6,17,3,11,35,35,72,48,7,11,5,5,0.3,0.4
2026-06-19T2300,1253A,120.7261,30.7477,嘉兴市,嘉兴学院,,14,11,19,3,13,42,42,76,50,9,15,4,4,0.3,0.4
2026-06-19T2300,2872A,120.7845,30.7524,嘉兴市,南湖区残联,,13,6,17,3,13,40,40,80,54,4,10,5,6,0.5,0.6
2026-06-19T2300,3407A,120.6915,30.7741,嘉兴市,秀洲住建,,10,7,16,3,11,32,32,70,43,10,12,7,6,0.5,0.6
2026-06-19T2300,1945A,98.291,39.7705,嘉峪关市,气象局,,44,44,46,24,25,50,50,123,101,49,14,4,10,0.4,0.5
2026-06-19T2300,2884A,98.2672,39.7978,嘉峪关市,酒钢宾馆,,36,36,49,11,23,101,101,136,124,25,16,8,17,0.7,0.9
2026-06-19T2300,3248A,98.2644,39.7723,嘉峪关市,雄关区,,39,39,44,14,24,68,68,119,102,34,16,5,10,0.2,0.6
2026-06-19T2300,1383A,113.1063,22.6058,江门市,北街,,14,14,16,6,6,30,30,42,37,3,3,/,/,/,/
2026-06-19T2300,1384A,113.073,22.5835,江门市,西区,,19,19,15,8,9,32,32,51,43,5,9,/,/,/,/
2026-06-19T2300,1385A,113.0218,22.531,江门市,圭峰西,,20,20,17,8,9,31,31,50,42,9,8,/,/,/,/
2026-06-19T2300,1386A,113.0826,22.5947,江门市,东湖,,16,16,13,7,7,34,34,51,44,6,7,7,7,0.3,0.4
2026-06-19T2300,3311A,113.1077,22.5647,江门市,江海富民,,44,44,32,6,6,36,36,52,45,4,6,/,/,0.4,0.5
2026-06-19T2300,3449A,113.0496,22.4669,江门市,新会银湖,,21,21,18,7,7,33,33,48,43,7,9,3,3,0.5,0.5
2026-06-19T2300,3335A,113.3137,35.2643,焦作市,马村街道办,,31,31,25,17,16,89,89,94,90,7,8,7,6,0.3,0.3
2026-06-19T2300,3336A,113.2464,35.2374,焦作市,焦作技师学院,,25,18,15,12,12,80,80,93,88,8,6,7,7,0.5,0.6
2026-06-19T2300,3477A,113.1656,35.2536,焦作市,中站许衡医院,,30,30,22,18,15,79,79,94,88,8,6,6,6,0.3,0.4
2026-06-19T2300,3981A,113.2456,35.18,焦作市,原李万街道办,,42,42,30,19,19,82,82,98,92,6,6,7,7,0.5,0.4
2026-06-19T2300,4264A,113.234,35.219,焦作市,新安路1731号,,34,34,27,21,15,88,88,108,102,1,2,8,8,0.5,0.4
2026-06-19T2300,4295A,113.2722,35.2121,焦作市,人民路3066号,,35,35,24,22,16,87,87,99,94,10,12,4,5,0.3,0.3
2026-06-19T2300,1708A,116.3701,23.5345,揭阳市,新兴,,21,21,24,8,14,25,25,40,30,7,15,5,7,0.4,0.5
2026-06-19T2300,1709A,116.3261,23.5442,揭阳市,西马,,29,29,24,12,12,25,25,40,34,8,13,4,6,0.5,0.6
2026-06-19T2300,1710A,116.361,23.5627,揭阳市,东兴,,16,16,25,9,15,24,24,39,30,6,14,1,6,/,/
2026-06-19T2300,1711A,116.4151,23.5295,揭阳市,渔湖,,32,32,28,14,9,22,22,36,29,6,11,7,4,/,/
2026-06-19T2300,3320A,116.4028,23.5699,揭阳市,曲溪,,24,24,23,12,14,23,23,42,32,3,11,3,10,0.5,0.5
2026-06-19T2300,1944A,102.1691,38.5166,金昌市,天庆家园,,32,27,48,22,14,95,95,134,122,11,11,16,9,0.4,0.3
2026-06-19T2300,4022A,102.1648,38.5369,金昌市,金川区人防中心,,30,17,42,16,16,96,96,126,118,9,7,12,8,0.4,0.3
2026-06-19T2300,4239A,102.193042,38.531887,金昌市,长春路96号,颗粒物(PM10),61,65,44,23,18,91,91,120,111,8,8,11,11,0.4,0.3
2026-06-19T2300,1262A,119.6478,29.0773,金华市,十五中,,22,22,23,3,8,19,19,67,34,16,12,1,5,0.5,0.6
2026-06-19T2300,1263A,119.6859,29.1032,金华市,监测站,,14,14,18,3,8,24,24,70,34,10,14,3,4,0.4,0.5
2026-06-19T2300,3659A,119.656,29.1132,金华市,气象局,,13,13,20,3,9,24,24,64,34,11,14,2,2,0.3,0.4
2026-06-19T2300,1767A,121.1114,41.0879,锦州市,南山,,42,NA,32,29,28,60,60,83,77,22,13,5,6,0.4,0.4
2026-06-19T2300,1768A,121.060361,40.842794,锦州市,开发区,颗粒物(PM10),59,62,52,19,29,66,66,82,75,33,22,7,6,0.4,0.5
2026-06-19T2300,1769A,121.1836,41.1118,锦州市,百股街道,,38,NA,29,26,28,73,73,96,90,16,10,4,4,0.6,0.6
2026-06-19T2300,1770A,121.1176,41.1224,锦州市,天安街道,,43,32,39,30,30,69,69,87,82,20,14,6,6,0.6,0.6
2026-06-19T2300,1771A,121.1303,41.1385,锦州市,北湖公园,,36,26,35,25,29,76,76,88,85,15,12,3,4,0.3,0.3
2026-06-19T2300,2160A,112.8496,35.5051,晋城市,自来水公司,,28,28,27,6,4,71,71,114,77,6,7,4,4,0.6,0.5
2026-06-19T2300,2162A,112.8509,35.4886,晋城市,市环保局,,22,16,20,8,8,70,70,113,76,5,5,4,4,0.5,0.5
2026-06-19T2300,3620A,112.8258,35.4804,晋城市,泽州一中,,35,NA,16,24,13,58,58,115,74,11,11,3,3,0.6,0.5
2026-06-19T2300,4078A,112.8246,35.5152,晋城市,前书院路,,39,39,18,10,8,33,33,106,72,20,6,5,5,0.6,0.5
2026-06-19T2300,4079A,112.8864,35.4773,晋城市,祥云街666号,,25,NA,12,16,12,79,79,112,76,5,8,4,4,0.4,0.4
2026-06-19T2300,2174A,112.6992,37.6984,晋中市,榆次区政府,,30,12,23,6,17,94,94,137,120,6,7,7,9,0.4,0.6
2026-06-19T2300,2865A,112.7195,37.683,晋中市,榆次三中,,31,12,22,11,16,98,98,143,125,6,6,7,8,0.1,0.4
2026-06-19T2300,4080A,112.7375,37.7215,晋中市,广安街188号,,30,13,22,11,15,96,96,137,119,6,7,5,8,0.1,0.2
2026-06-19T2300,4200A,112.7478,37.6954,晋中市,迎宾街26号,,30,9,20,6,17,96,96,134,119,9,9,5,8,0.2,0.3
2026-06-19T2300,2439A,112.2012,31.048,荆门市,竹园小学,,23,20,17,16,12,65,65,116,102,14,7,4,4,0.8,0.7
2026-06-19T2300,2440A,112.1968,30.9892,荆门市,掇刀,,26,23,11,15,11,81,81,117,112,14,9,13,9,0.7,0.6
2026-06-19T2300,3012A,112.1849,31.0361,荆门市,西山林语,,25,25,14,9,9,60,60,110,94,8,5,9,8,0.6,0.6
2026-06-19T2300,3547A,112.1631,31.0134,荆门市,龙泉中学南校,NA,NA,18,12,8,5,61,61,116,101,NA,3,6,6,0.9,0.7
2026-06-19T2300,4124A,112.2213,31.0654,荆门市,新台西路6号,,29,29,15,18,12,71,71,123,112,9,4,2,2,0.9,0.8
2026-06-19T2300,1844A,112.2493,30.3198,荆州市,市图书馆,,25,18,11,17,9,75,75,112,104,18,7,6,5,0.5,0.4
2026-06-19T2300,1845A,112.2009,30.3543,荆州市,市委党校,,36,36,13,6,7,63,63,100,94,20,8,9,8,0.5,0.4
2026-06-19T2300,3194A,112.2749,30.3124,荆州市,管委会,NA,NA,25,12,15,11,72,72,101,96,10,3,8,8,NA,0.5
2026-06-19T2300,4268A,112.1722,30.3366,荆州市,学苑路85号,,20,15,12,11,10,61,61,112,90,24,10,8,11,0.2,0.2
2026-06-19T2300,2343A,117.2114,29.2931,景德镇市,老干部活动中心,,10,8,8,7,10,31,31,47,36,11,5,9,5,0.5,0.5
2026-06-19T2300,2344A,117.1893,29.2789,景德镇市,兽医站,,18,18,18,3,6,34,34,48,30,9,13,4,4,0.6,0.6
2026-06-19T2300,2346A,117.246,29.2958,景德镇市,陶研所,,14,13,9,3,4,42,42,41,41,2,2,3,3,0.2,0.4
2026-06-19T2300,4289A,117.154766,29.256967,景德镇市,青少年活动中心,,15,14,10,10,5,24,24,40,29,16,7,41,18,/,/
2026-06-19T2300,1803A,115.9873,29.6816,九江市,十里,,25,6,9,3,3,77,77,50,49,9,11,3,3,0.7,0.6
2026-06-19T2300,1804A,115.9583,29.7047,九江市,茅山头,,16,6,10,3,2,51,51,44,44,18,11,3,4,0.5,0.4
2026-06-19T2300,1805A,115.9877,29.7295,九江市,西园,,18,6,6,3,2,56,56,47,47,12,10,1,1,0.5,0.4
2026-06-19T2300,1808A,115.9112,29.6038,九江市,综合工业园,,24,6,9,3,2,76,76,54,45,16,12,3,3,0.4,0.3
2026-06-19T2300,3190A,116.0254,29.6995,九江市,外国语学校,,22,16,11,3,4,68,68,46,46,9,7,4,4,0.7,0.6
2026-06-19T2300,4253A,116.010205,29.659402,九江市,莲花大道8号,,25,6,5,3,2,79,79,48,48,3,6,4,4,0.6,0.5
2026-06-19T2300,4240A,98.495752,39.733935,酒泉市,玉门东路5号,,31,31,29,20,19,81,81,128,108,18,9,6,7,0.3,0.3
2026-06-19T2300,4241A,98.5099,39.7506,酒泉市,北大街108号,,29,22,30,20,18,91,91,130,112,11,8,10,11,0.2,0.3
2026-06-19T2300,2698A,76.0071,39.466,喀什地区,巡警大队,颗粒物(PM10),52,52,47,24,21,93,93,102,102,14,15,2,3,0.4,0.3
2026-06-19T2300,2699A,75.9756,39.4693,喀什地区,吾办,,47,47,41,3,6,87,87,99,99,9,8,3,2,0.5,0.5
2026-06-19T2300,4027A,75.9485,39.4688,喀什地区,老干局,,36,36,41,17,11,88,88,94,94,9,9,3,3,0.5,0.5
2026-06-19T2300,1824A,114.3389,34.778,开封市,肿瘤医院,,25,24,18,17,21,78,78,102,89,13,10,6,6,0.4,0.4
2026-06-19T2300,1826A,114.2884,34.7966,开封市,世纪星幼儿园,,40,NA,17,28,20,78,78,100,88,13,11,7,6,0.3,0.3
2026-06-19T2300,3147A,114.3434,34.8101,开封市,龙亭公园,,24,23,16,15,18,75,75,104,89,14,10,4,4,0.4,0.4
2026-06-19T2300,3210A,114.3645,34.7955,开封市,汴京公园,,30,29,20,21,18,70,70,98,86,12,8,6,7,0.5,0.5
2026-06-19T2300,3473A,114.2485,34.8306,开封市,技师学院,,27,27,21,14,16,66,66,100,87,19,11,8,7,0.5,0.5
2026-06-19T2300,3592A,114.4518,34.7503,开封市,祥符区生态环境局,,32,NA,17,22,23,74,74,96,86,12,15,10,10,0.4,0.4
2026-06-19T2300,1951A,84.886,45.6029,克拉玛依市,长征新村,,32,21,19,12,8,101,101,129,121,11,6,3,3,0.5,0.4
2026-06-19T2300,1952A,84.8894,45.5827,克拉玛依市,南林小区,颗粒物(PM10),75,84,25,30,5,23,23,115,76,54,11,5,5,1.0,0.3
2026-06-19T2300,1954A,84.896,44.3328,克拉玛依市,独山子区,,39,37,18,13,4,123,123,128,127,10,4,9,7,0.5,0.4
2026-06-19T2300,1955A,85.6888,46.0909,克拉玛依市,乌尔禾区商贸楼,,46,46,29,9,12,114,114,124,120,11,11,6,7,0.3,0.3
2026-06-19T2300,3612A,85.1045,45.6895,克拉玛依市,白碱滩区新站,,39,18,14,16,5,124,124,140,136,5,3,7,7,0.3,0.2
2026-06-19T2300,2697A,76.1457,39.7143,克孜勒苏柯尔克孜自治州,市人民政府,,42,42,27,21,15,82,82,108,96,14,9,9,8,0.1,0.1
2026-06-19T2300,3665A,76.1654,39.7157,克孜勒苏柯尔克孜自治州,克州文化中心,颗粒物(PM10),58,61,38,22,18,85,85,116,109,13,6,6,8,0.3,0.2
2026-06-19T2300,1450A,102.8203,24.889,昆明市,呈贡新区,,32,32,17,11,10,23,23,59,48,22,12,4,5,0.8,0.6
2026-06-19T2300,1452A,102.7253,25.0904,昆明市,龙泉镇,,33,30,17,23,8,10,10,71,45,24,12,6,7,0.7,0.4
2026-06-19T2300,1453A,102.7267,25.0378,昆明市,东风东路,,34,34,16,21,9,33,33,68,55,30,16,2,4,0.7,0.5
2026-06-19T2300,1454A,102.6744,25.0671,昆明市,金鼎山,,28,28,20,16,8,35,35,68,52,27,14,4,6,0.8,0.6
2026-06-19T2300,1455A,102.6643,25.0401,昆明市,碧鸡广场,,30,30,18,15,9,39,39,62,53,22,15,2,3,0.7,0.6
2026-06-19T2300,3179A,102.7491,25.012,昆明市,官渡区博物馆,,30,22,18,21,8,12,12,60,42,28,15,3,4,0.7,0.4
2026-06-19T2300,3375A,102.8016,24.8336,昆明市,青年创业园,,20,14,19,14,10,1,1,62,40,25,11,5,6,0.7,0.5
2026-06-19T2300,3550A,102.8,24.9787,昆明市,昆明学院,,25,25,19,8,6,23,23,69,53,26,12,5,6,0.5,0.5
2026-06-19T2300,3551A,102.5969,24.6738,昆明市,晋宁区生态环境分局,,40,40,18,20,9,33,33,66,60,12,6,4,5,0.6,0.5
2026-06-19T2300,3552A,102.6673,24.9861,昆明市,云天化总部,,23,23,14,13,6,44,44,66,59,14,10,4,5,0.8,0.7
2026-06-19T2300,1456A,91.132,29.6515,拉萨市,八廓街,,40,13,17,3,9,126,126,132,126,8,7,5,5,0.3,0.3
2026-06-19T2300,1457A,91.1221,29.6748,拉萨市,市环保局,,38,12,10,3,5,119,119,126,123,13,9,7,7,0.2,0.2
2026-06-19T2300,1458A,91.0874,29.6476,拉萨市,区监测站,,40,NA,9,9,6,125,125,124,123,10,10,5,5,0.2,0.2
2026-06-19T2300,1459A,91.1774,29.6541,拉萨市,西藏大学,,41,12,8,10,6,130,130,132,128,8,9,5,5,0.3,0.3
2026-06-19T2300,1460A,90.9798,29.6586,拉萨市,区辐射站,,38,15,11,15,7,120,120,127,121,14,12,6,6,0.4,0.3
2026-06-19T2300,1461A,91.0831,29.6292,拉萨市,拉萨火车站,NA,NA,8,9,3,6,NA,NA,128,NA,8,10,4,4,0.2,0.3
2026-06-19T2300,2520A,109.2203,23.7252,来宾市,来宾技工学校,,31,31,26,9,11,20,20,50,33,9,9,6,7,0.7,0.4
2026-06-19T2300,3535A,109.1781,23.7293,来宾市,兴宾区政府,,27,27,28,3,10,26,26,46,37,9,6,4,5,0.8,0.8
2026-06-19T2300,4002A,109.2312,23.7428,来宾市,中南小学,NA,NA,24,26,9,12,NA,NA,50,38,10,9,9,5,0.5,0.5
2026-06-19T2300,1479A,103.8309,36.0467,兰州市,铁路设计院,,48,48,41,26,22,84,84,138,111,22,18,17,9,0.7,0.7
2026-06-19T2300,3241A,103.7439,36.0841,兰州市,百合公园,,37,37,36,16,20,90,90,135,110,14,21,20,9,0.7,0.6
2026-06-19T2300,3242A,103.9613,35.9985,兰州市,和平,,36,36,30,13,16,91,91,137,119,11,9,14,14,0.6,0.7
2026-06-19T2300,4236A,103.629272,36.093822,兰州市,庄浪东路808号,,31,27,28,15,16,98,98,142,115,16,13,12,11,0.3,0.3
2026-06-19T2300,4237A,103.7251,36.104344,兰州市,安宁西路88号,,39,39,38,11,20,99,99,151,125,10,11,20,16,0.3,0.4
2026-06-19T2300,4238A,103.846982,36.067567,兰州市,北滨河东路1号,,42,42,38,18,19,71,71,134,91,33,26,18,13,0.4,0.5
2026-06-19T2300,1067A,116.6712,39.5109,廊坊市,药材公司,,44,44,78,24,58,95,95,109,108,13,20,2,3,0.5,0.7
2026-06-19T2300,1068A,116.7215,39.5592,廊坊市,开发区,,39,34,87,27,58,97,97,115,113,8,20,3,2,0.4,0.6
2026-06-19T2300,1070A,116.7246,39.5273,廊坊市,北华航天学院,,33,30,61,23,63,84,84,109,105,15,19,3,3,0.4,0.6
2026-06-19T2300,2919A,116.7022,39.5454,廊坊市,河北工业大学,,43,NA,58,30,58,99,99,121,118,13,23,3,2,0.4,0.6
2026-06-19T2300,2536A,103.7629,29.5844,乐山市,牛耳桥,,27,26,24,16,17,86,86,107,102,11,8,5,5,0.6,0.6
2026-06-19T2300,2537A,103.7501,29.6002,乐山市,市第三水厂,,26,24,24,14,17,83,83,100,95,12,10,3,4,0.7,0.7
2026-06-19T2300,2538A,103.7571,29.5664,乐山市,市监测站,,28,21,26,11,14,88,88,101,98,7,7,1,2,0.6,0.6
2026-06-19T2300,3361A,103.7313,29.563,乐山市,理工大学,,30,21,24,14,18,94,94,109,105,7,7,2,3,0.7,0.7
2026-06-19T2300,2599A,100.2497,26.8802,丽江市,丽江古城,,15,13,15,8,7,46,46,74,59,8,8,9,10,0.6,0.6
2026-06-19T2300,2600A,100.2203,26.8906,丽江市,市中心,,16,NA,8,3,6,51,51,67,61,4,6,7,7,0.4,0.4
2026-06-19T2300,1267A,119.9141,28.4513,丽水市,监测站大楼,,16,16,14,9,4,9,9,51,24,11,8,4,4,0.4,0.4
2026-06-19T2300,1268A,119.93,28.4589,丽水市,莲都小学,,9,NA,16,6,3,5,5,51,23,12,8,/,/,/,/
2026-06-19T2300,1269A,119.8794,28.4232,丽水市,余庄前,,22,22,16,7,4,0,0,37,9,10,9,5,5,0.6,0.5
2026-06-19T2300,1173A,119.1759,34.5885,连云港市,市环境监测站,,29,6,6,3,6,90,90,95,95,5,6,7,7,0.4,0.4
2026-06-19T2300,3000A,119.3577,34.6971,连云港市,德源药业,,26,NA,7,3,5,81,81,86,84,12,12,5,5,0.2,0.2
2026-06-19T2300,3007A,119.178,34.8442,连云港市,新城一中,,27,19,19,3,3,84,84,96,95,6,11,2,2,0.4,0.5
2026-06-19T2300,3008A,119.3607,34.7519,连云港市,胡沟管理处,,30,6,7,3,2,94,94,93,93,6,16,8,9,0.3,0.3
2026-06-19T2300,3009A,119.1478,34.5913,连云港市,矿山设计院,,27,6,8,3,4,85,85,89,89,4,6,2,3,0.2,0.2
2026-06-19T2300,3434A,119.2414,34.6539,连云港市,工贸学校,,30,6,5,3,4,93,93,96,96,9,6,3,3,0.4,0.4
2026-06-19T2300,3664A,119.4171,34.734,连云港市,连云街道,,26,6,9,3,5,81,81,93,91,9,8,8,8,0.4,0.4
2026-06-19T2300,2573A,102.2629,27.8981,凉山彝族自治州,西昌市政府,,18,10,19,7,12,57,57,110,91,5,7,5,9,0.4,0.6
2026-06-19T2300,2574A,102.2686,27.885,凉山彝族自治州,凉山州政府,,23,12,17,8,14,72,72,106,92,5,9,4,7,0.5,0.6
2026-06-19T2300,4229A,102.2342,27.8859,凉山彝族自治州,凯乐南路30号,,19,17,23,9,17,60,60,92,80,11,13,8,8,0.6,0.7
2026-06-19T2300,2212A,123.1978,41.2036,辽阳市,宏伟区,,20,16,25,14,15,56,56,88,70,8,6,6,7,0.6,0.6
2026-06-19T2300,2213A,123.1684,41.2497,辽阳市,新华园,,35,35,28,22,17,58,58,98,76,17,9,10,8,0.5,0.5
2026-06-19T2300,2214A,123.2355,41.2663,辽阳市,滨河路,细颗粒物(PM2.5),54,NA,27,37,19,24,24,87,49,105,15,7,7,0.7,0.7
2026-06-19T2300,4083A,123.153,41.2874,辽阳市,铁西路150号,,24,24,32,16,16,72,72,97,82,9,6,7,6,0.5,0.5
2026-06-19T2300,2227A,125.1359,42.8845,辽源市,环保局,,32,32,22,17,10,19,19,146,97,61,26,8,8,0.5,0.5
2026-06-19T2300,4085A,125.0998,42.9134,辽源市,安宁大街333号,,32,32,29,22,12,34,34,144,96,40,25,4,4,0.8,0.8
2026-06-19T2300,1625A,115.9789,36.4372,聊城市,区政府,,25,25,31,16,21,70,70,117,95,9,9,8,9,0.4,0.5
2026-06-19T2300,3200A,115.9772,36.4986,聊城市,监控中心,,33,NA,24,23,25,64,64,124,101,12,9,8,9,0.4,0.4
2026-06-19T2300,3513A,116.0443,36.436,聊城市,九州社区,,36,36,43,19,26,78,78,127,111,8,10,1,4,0.3,0.4
2026-06-19T2300,4018A,116.0564,36.4609,聊城市,星美广场,,30,30,40,18,27,85,85,124,105,7,9,6,6,0.3,0.3
2026-06-19T2300,4113A,116.0091,36.4495,聊城市,利民路,,30,30,45,21,25,78,78,128,108,10,10,10,10,0.6,0.6
2026-06-19T2300,2632A,94.3683,29.6373,林芝市,林芝监测站,,12,11,8,3,6,36,36,63,55,7,7,4,4,0.5,0.4
2026-06-19T2300,2633A,94.3616,29.6634,林芝市,林芝人民医院,,20,NA,12,14,6,38,38,65,54,7,7,3,8,0.6,0.5
2026-06-19T2300,2603A,100.0779,23.8981,临沧市,市环保局,,22,21,12,15,12,27,27,48,42,7,6,7,6,0.3,0.6
2026-06-19T2300,2604A,100.0894,23.882,临沧市,市气象局,,22,16,13,15,12,49,49,55,53,5,5,10,10,0.4,0.4
2026-06-19T2300,1733A,111.5552,36.0791,临汾市,临钢医院,颗粒物(PM10),61,65,25,29,13,89,89,137,126,26,12,9,6,1.0,0.6
2026-06-19T2300,1734A,111.4984,36.0734,临汾市,技工学校,细颗粒物(PM2.5),86,62,30,53,22,75,75,142,124,23,9,5,3,1.5,0.9
2026-06-19T2300,1736A,111.5017,36.0857,临汾市,市委,颗粒物(PM10),69,76,36,32,13,77,77,146,130,27,9,10,7,1.4,0.9
2026-06-19T2300,3018A,111.5048,36.1015,临汾市,唐尧大酒店,颗粒物(PM10),69,76,46,34,13,80,80,147,132,28,12,8,6,1.2,0.7
2026-06-19T2300,4244A,111.4879,36.053,临汾市,启星学校,颗粒物(PM10),62,66,27,36,17,71,71,140,121,25,10,7,6,1.2,0.7
2026-06-19T2300,4271A,103.2464,35.6123,临夏回族自治州,滨河东路1号,,40,40,45,8,16,71,71,100,91,10,13,11,12,0.3,0.3
2026-06-19T2300,4310A,103.207136,35.599807,临夏回族自治州,新华街21号,,29,26,37,12,20,90,90,105,99,5,9,14,10,0.1,0.3
2026-06-19T2300,1618A,118.3429,35.0532,临沂市,沂河小区,,20,7,22,3,13,61,61,68,66,8,12,10,11,0.2,0.3
2026-06-19T2300,1619A,118.2962,35.0568,临沂市,鲁南制药厂,,23,6,19,3,15,73,73,73,73,9,13,7,11,0.3,0.7
2026-06-19T2300,1620A,118.2793,34.9976,临沂市,新光毛纺厂,,20,NA,13,3,14,62,62,70,68,4,12,9,9,0.3,0.3
2026-06-19T2300,1621A,118.3955,35.0889,临沂市,河东保险公司,,15,7,17,3,12,48,48,58,54,7,11,5,8,0.1,0.2
2026-06-19T2300,3370A,118.3563,35.0215,临沂市,十里堡居委,,20,6,12,3,13,63,63,69,66,14,17,9,9,0.4,0.5
2026-06-19T2300,3496A,118.359,35.1067,临沂市,南坊新区,,17,6,22,3,15,54,54,66,63,12,15,9,9,0,0.2
2026-06-19T2300,3860A,118.3915,35.0297,临沂市,皇山花园小区,,19,7,17,3,12,59,59,71,66,10,13,9,10,0.4,0.5
2026-06-19T2300,1870A,109.4854,24.3898,柳州市,柳东小学,,16,16,18,7,10,37,37,51,42,7,5,4,4,0.6,0.6
2026-06-19T2300,1871A,109.4109,24.3304,柳州市,环保监测站,,20,20,18,3,9,34,34,44,38,9,7,6,6,0.8,0.7
2026-06-19T2300,1872A,109.3886,24.3408,柳州市,河西水厂,,23,19,20,16,12,22,22,39,36,25,9,4,6,0.7,0.6
2026-06-19T2300,1873A,109.4263,24.2951,柳州市,市四中,,17,17,20,10,12,33,33,45,39,12,9,5,5,0.8,0.8
2026-06-19T2300,1874A,109.396,24.3658,柳州市,市九中,,26,26,23,15,11,26,26,43,39,17,9,5,5,0.7,0.6
2026-06-19T2300,1875A,109.4912,24.3164,柳州市,古亭山,,25,25,19,9,7,23,23,51,40,12,6,3,3,0.8,0.7
2026-06-19T2300,3402A,109.5422,24.3994,柳州市,市二中,,16,16,17,6,9,30,30,49,44,12,5,6,6,0.7,0.6
2026-06-19T2300,2307A,116.5078,31.7369,六安市,监测大楼,,23,NA,13,14,13,73,73,73,71,6,6,3,3,0.5,0.5
2026-06-19T2300,2308A,116.4738,31.7642,六安市,皖西学院,,22,NA,16,13,14,69,69,78,62,4,5,5,6,0.5,0.5
2026-06-19T2300,2309A,116.4997,31.7904,六安市,朝阳厂,,22,NA,12,14,12,69,69,72,67,6,8,6,7,0.3,0.4
2026-06-19T2300,2310A,116.5566,31.7885,六安市,开发区,,23,NA,8,14,11,73,73,78,71,5,6,5,5,0.3,0.3
2026-06-19T2300,2577A,104.8293,26.592,六盘水市,黄土坡,,36,32,20,25,12,91,91,110,102,8,9,7,10,0.5,0.6
2026-06-19T2300,2579A,104.8481,26.5898,六盘水市,民中,,33,29,15,23,13,78,78,104,94,9,12,1,4,0.6,0.6
2026-06-19T2300,2580A,104.9541,26.5506,六盘水市,双水,,33,31,17,23,10,81,81,100,88,6,8,4,6,0.3,0.5
2026-06-19T2300,4151A,104.8899,26.5685,六盘水市,钟山大道中段564号,NA,NA,NA,22,NA,10,NA,NA,109,100,3,7,4,8,0.7,1
2026-06-19T2300,2336A,117.022,25.1031,龙岩市,龙岩市监测站,,13,13,13,9,7,13,13,43,30,12,5,6,5,0.5,0.4
2026-06-19T2300,2337A,117.0257,25.0662,龙岩市,闽西职业技术学院,,15,14,12,10,7,5,5,39,24,9,4,4,5,0.4,0.4
2026-06-19T2300,2338A,117.0195,25.0306,龙岩市,龙岩学院,,14,14,13,7,5,17,17,40,26,2,2,2,2,/,/
2026-06-19T2300,2885A,104.9344,33.3827,陇南市,滨江中学,,36,36,34,18,14,85,85,107,100,5,7,8,9,0.3,0.3
2026-06-19T2300,3247A,104.9551,33.3709,陇南市,市总工会,,29,24,28,14,14,90,90,107,100,4,5,8,8,0.3,0.4
2026-06-19T2300,2488A,111.9984,27.7346,娄底市,市监测站,,12,8,11,3,3,36,36,44,41,6,5,5,5,0.3,0.3
2026-06-19T2300,2491A,111.9888,27.7035,娄底市,市政府,,12,9,10,3,1,36,36,49,45,1,2,4,5,0.2,0.2
2026-06-19T2300,4127A,111.9812,27.7591,娄底市,涟钢职大,,14,14,9,3,4,32,32,54,45,6,3,3,4,0.7,0.5
2026-06-19T2300,4128A,112.0303,27.7457,娄底市,娄底体校,,19,19,16,3,3,39,39,52,48,6,3,2,2,0.5,0.3
2026-06-19T2300,1894A,105.4427,28.9063,泸州市,小市上码头,,24,24,24,12,11,75,75,103,89,9,13,5,4,0.5,0.5
2026-06-19T2300,1895A,105.4241,28.8573,泸州市,兰田宪桥,,34,34,33,18,17,38,38,108,79,18,13,2,2,0.6,0.5
2026-06-19T2300,1896A,105.4378,28.8833,泸州市,市环监站,,20,20,23,9,8,64,64,101,83,16,16,4,6,0.6,0.7
2026-06-19T2300,4272A,105.3689,28.7783,泸州市,纳溪中医医院,,38,38,25,25,19,21,21,106,80,18,11,5,5,0.9,0.8
2026-06-19T2300,2183A,111.1447,37.5212,吕梁市,环保局,,40,40,25,15,8,112,112,138,133,21,10,5,4,0.3,0.3
2026-06-19T2300,2185A,111.1285,37.5338,吕梁市,自来水公司,,37,37,20,24,7,108,108,135,132,22,12,4,3,0.5,0.4
2026-06-19T2300,2867A,111.1225,37.5093,吕梁市,马茂庄小学,,37,37,24,23,8,116,116,142,134,24,18,5,6,0.4,0.4
2026-06-19T2300,1812A,112.3934,34.6517,洛阳市,市委党校,,29,NA,19,20,16,74,74,104,96,11,9,7,7,0.5,0.4
2026-06-19T2300,1815A,112.494,34.6883,洛阳市,河南林校,,29,24,23,20,13,72,72,117,101,19,11,10,9,0.2,0.2
2026-06-19T2300,1816A,112.3843,34.623,洛阳市,开发区管委会,,29,20,19,12,15,90,90,117,109,7,6,9,9,0.4,0.4
2026-06-19T2300,1817A,112.4263,34.6249,洛阳市,市委新办公区,,22,17,17,14,13,69,69,105,92,9,6,10,9,0.3,0.3
2026-06-19T2300,3340A,112.6005,34.6323,洛阳市,伊滨,,25,NA,19,17,13,56,56,100,87,13,8,6,6,0.6,0.5
2026-06-19T2300,3341A,112.495,34.6338,洛阳市,中移产业园,,26,NA,16,18,15,65,65,109,93,10,6,7,7,0.6,0.6
2026-06-19T2300,3593A,112.5736,34.8993,洛阳市,吉利监测站,,25,24,22,17,13,52,52,98,84,20,8,9,9,0.3,0.3
2026-06-19T2300,3635A,112.3678,34.6623,洛阳市,河科大西苑校区,,26,19,19,16,16,82,82,111,103,14,10,9,9,0.7,0.6
2026-06-19T2300,3636A,112.4387,34.678,洛阳市,英才小学,,22,17,19,11,15,69,69,109,97,15,8,8,8,0.5,0.5
2026-06-19T2300,4214A,112.460027,34.694929,洛阳市,春都路1号院,,23,14,15,10,14,71,71,110,96,13,8,5,5,0.2,0.2
2026-06-19T2300,2399A,114.051,33.5721,漯河市,三五一五工厂,,25,8,11,8,14,80,80,96,89,9,10,4,4,0.3,0.3
2026-06-19T2300,2400A,114.0055,33.5698,漯河市,漯河大学,,27,NA,9,16,15,86,86,100,92,9,10,5,5,0.4,0.5
2026-06-19T2300,2401A,114.0134,33.5826,漯河市,市水利局,,27,NA,12,13,16,84,84,100,91,9,10,4,4,0.3,0.3
2026-06-19T2300,2402A,114.0261,33.5697,漯河市,市广电局,,27,NA,8,18,17,84,84,100,91,9,10,4,4,0.4,0.5
2026-06-19T2300,3478A,113.9691,33.568,漯河市,市图书馆,,28,11,16,11,12,88,88,102,93,8,9,5,5,0.5,0.6
2026-06-19T2300,4250A,114.089259,33.588274,漯河市,韶山路11号,NA,NA,NA,30,2,13,72,72,95,NA,11,11,9,8,1.1,0.4
2026-06-19T2300,1798A,118.5084,31.6838,马鞍山市,湖东路四小,,24,6,20,3,11,74,74,70,59,7,8,6,7,0.5,0.5
2026-06-19T2300,1799A,118.5019,31.6449,马鞍山市,开发区,,25,6,17,3,11,80,80,74,64,4,5,5,6,0.5,0.6
2026-06-19T2300,3633A,118.4914,31.681,马鞍山市,雨山,,25,6,17,3,8,79,79,77,64,6,7,6,7,0.7,0.7
2026-06-19T2300,4191A,118.527362,31.722269,马鞍山市,慈湖高新区,,19,6,20,3,14,60,60,70,55,23,12,11,7,1.0,0.5
2026-06-19T2300,1686A,111.0285,21.469,茂名市,电白南海,,24,24,31,10,12,61,61,66,57,2,2,4,4,0.7,0.6
2026-06-19T2300,1687A,110.9294,21.6533,茂名市,茂石化七小,,31,31,35,13,14,55,55,66,54,6,6,6,7,0.4,0.5
2026-06-19T2300,1688A,110.9108,21.6688,茂名市,健康路,,24,24,24,12,14,56,56,69,57,6,6,4,6,0.6,0.6
2026-06-19T2300,1689A,110.8592,21.6826,茂名市,高岭,,36,36,34,14,15,49,49,65,53,4,4,3,3,/,/
2026-06-19T2300,3450A,111.0101,21.5165,茂名市,电白水东,,24,24,24,11,14,60,60,66,57,3,3,2,2,/,/
2026-06-19T2300,2540A,103.8414,30.0871,眉山市,气象局,,33,33,22,15,17,103,103,130,126,12,14,6,6,0.8,0.8
2026-06-19T2300,3148A,103.829,30.0563,眉山市,区人社局,,43,43,40,16,20,94,94,124,117,18,15,6,7,0.6,0.5
2026-06-19T2300,4148A,103.8836,30.0695,眉山市,眉职院,NA,NA,33,30,17,15,NA,NA,127,124,17,12,6,7,1.0,0.7
2026-06-19T2300,1690A,116.1248,24.3307,梅州市,梅江月梅,,27,27,21,9,8,4,4,42,23,10,8,/,/,/,/
2026-06-19T2300,1691A,116.0798,24.2719,梅州市,梅县新城,,16,12,15,11,9,4,4,40,26,12,10,8,8,0.6,0.5
2026-06-19T2300,3315A,116.1234,24.2994,梅州市,梅龙,,17,17,13,9,10,8,8,44,30,11,9,6,6,0.7,0.6
2026-06-19T2300,1878A,104.7775,31.4741,绵阳市,富乐山,细颗粒物(PM2.5),52,41,27,36,22,114,114,134,130,7,6,10,10,0.9,0.8
2026-06-19T2300,1880A,104.6698,31.4668,绵阳市,高新区自来水公司,细颗粒物(PM2.5),58,52,33,39,24,104,104,128,126,11,6,10,10,0.9,0.8
2026-06-19T2300,3491A,104.6899,31.5324,绵阳市,西科大附属小学,细颗粒物(PM2.5),54,52,35,37,25,105,105,130,127,16,9,6,5,0.3,0.3
2026-06-19T2300,3492A,104.5647,31.5343,绵阳市,安州区旅游局,细颗粒物(PM2.5),76,56,36,48,25,80,80,128,122,11,5,6,6,0.6,0.5
2026-06-19T2300,4146A,104.7092,31.4972,绵阳市,科技城新区公安局,,50,41,31,35,22,127,127,137,137,13,8,10,10,0.7,0.6
2026-06-19T2300,4226A,104.765114,31.453094,绵阳市,绵阳市气象局,,45,38,29,31,23,110,110,128,127,12,9,8,8,0.6,0.5
2026-06-19T2300,1784A,129.61,44.561,牡丹江市,环保大楼,,26,26,23,12,11,53,53,126,92,13,12,5,5,0.4,0.4
2026-06-19T2300,1787A,129.6364,44.6075,牡丹江市,机车工厂,,39,39,28,24,17,35,35,128,93,22,12,8,7,0.4,0.4
2026-06-19T2300,1788A,129.6386,44.5462,牡丹江市,第一中学,,31,31,16,13,11,48,48,134,91,10,8,5,7,0.4,0.4
2026-06-19T2300,4287A,129.5992,44.5964,牡丹江市,东晓云街98号,,31,31,29,18,18,40,40,132,96,14,10,5,5,0.3,0.3
2026-06-19T2300,2531A,105.0703,29.61,内江市,市监测站,,29,21,15,20,16,16,16,97,74,33,14,9,8,0.9,0.6
2026-06-19T2300,2533A,105.0657,29.5807,内江市,内江二中,,31,31,19,18,16,38,38,104,82,18,12,9,9,0.7,0.6
2026-06-19T2300,2534A,105.0407,29.5828,内江市,内江日报社,,26,26,16,14,17,42,42,106,84,34,20,12,12,0.5,0.5
2026-06-19T2300,4147A,105.0433,29.6105,内江市,玉峰路西段888号,,43,38,21,30,16,26,26,101,76,30,17,8,8,0.8,0.7
2026-06-19T2300,2628A,92.0653,31.4846,那曲市,那曲监测站,,40,NA,15,12,9,126,126,137,134,9,7,3,4,0.3,0.3
2026-06-19T2300,4243A,92.0515,31.4787,那曲市,那曲市委宣传部,,42,NA,10,9,6,132,132,140,139,6,5,5,5,0.3,0.3
2026-06-19T2300,1291A,115.8887,28.7006,南昌市,省林业公司,,19,NA,5,13,6,26,26,50,42,14,4,9,5,0.6,0.6
2026-06-19T2300,1292A,115.813,28.7443,南昌市,林科所,,11,7,5,7,6,33,33,44,39,2,6,7,7,0.6,0.6
2026-06-19T2300,1294A,115.8518,28.687,南昌市,建工学校,,20,NA,9,14,7,22,22,46,38,13,5,7,5,0.6,0.6
2026-06-19T2300,1295A,115.8926,28.6425,南昌市,象湖,,15,NA,1,10,6,28,28,46,39,13,7,9,8,0.5,0.4
2026-06-19T2300,3046A,115.9084,28.6062,南昌市,机电学校,,18,13,13,12,6,22,22,46,34,10,6,6,6,0.5,0.5
2026-06-19T2300,3690A,115.9718,28.7032,南昌市,外国语学校,,16,12,11,11,7,25,25,45,34,10,6,13,12,0.8,0.7
2026-06-19T2300,4106A,115.7923,28.6873,南昌市,工业二路,,15,10,13,10,6,28,28,44,37,3,3,8,6,0.5,0.4
2026-06-19T2300,4192A,115.931587,28.686774,南昌市,南京东路235号,,23,NA,10,16,8,28,28,57,42,12,8,4,4,0.4,0.3
2026-06-19T2300,1906A,106.0791,30.8022,南充市,南充市委,,32,30,27,22,18,50,50,90,79,21,12,5,5,0.4,0.3
2026-06-19T2300,1907A,106.1038,30.8215,南充市,南充炼油厂,,44,44,27,25,18,56,56,100,86,18,10,6,6,0.5,0.4
2026-06-19T2300,4227A,106.108336,30.788436,南充市,梨树横街98号,,29,28,27,20,19,62,62,99,90,16,12,6,6,0.7,0.6
2026-06-19T2300,4304A,106.1172,30.843,南充市,清泉寺北路188号,,41,41,27,19,17,63,63,100,90,13,8,7,7,0.5,0.4
2026-06-19T2300,4305A,106.067,30.7616,南充市,同庆路1号,,38,38,29,16,20,57,57,92,82,14,13,7,6,0.5,0.4
2026-06-19T2300,1151A,118.8033,32.1085,南京市,迈皋桥,,17,8,38,3,24,52,52,71,40,7,7,4,5,0.3,0.3
2026-06-19T2300,1152A,118.7487,32.057,南京市,草场门,,19,7,19,3,25,60,60,73,44,8,10,4,4,0.2,0.4
2026-06-19T2300,1154A,118.770105,32.004342,南京市,中华门,NA,NA,2,16,NA,26,61,61,78,45,6,6,7,7,0.3,0.4
2026-06-19T2300,1155A,118.8059,32.0329,南京市,瑞金路,,15,6,23,3,19,47,47,70,35,13,13,4,4,0.4,0.5
2026-06-19T2300,1156A,118.7946,32.0774,南京市,玄武湖,NA,NA,6,25,NA,21,50,50,64,38,6,9,6,6,0.1,0.3
2026-06-19T2300,1157A,118.6415,32.0964,南京市,浦口,,17,6,22,3,22,53,53,67,44,8,13,3,3,0.5,0.6
2026-06-19T2300,1158A,118.730129,32.000956,南京市,奥体中心,NA,NA,4,21,NA,27,47,47,72,33,15,14,6,6,0.4,0.6
2026-06-19T2300,1159A,118.9072,32.1047,南京市,仙林大学城,,19,19,28,8,23,45,45,70,44,16,8,7,7,0.8,0.8
2026-06-19T2300,3422A,118.8443,31.919,南京市,江宁彩虹桥,NA,NA,2,19,NA,23,70,70,70,52,7,7,3,3,0.3,0.3
2026-06-19T2300,3427A,118.8497,32.3599,南京市,六合雄州,,19,7,26,3,21,59,59,47,47,9,21,4,4,0.2,0.5
2026-06-19T2300,4086A,118.7641,32.0841,南京市,新模范马路66号,NA,NA,7,25,NA,20,60,60,77,46,6,6,4,4,0.3,0.5
2026-06-19T2300,4249A,118.8707617,31.34017673,南京市,汶溪路181号,NA,NA,3,12,NA,13,82,82,77,61,5,5,6,6,0.4,0.5
2026-06-19T2300,4312A,119.019,31.6512,南京市,中山西路1号,,25,7,17,6,17,80,80,82,58,3,9,4,4,0.5,0.5
2026-06-19T2300,1401A,108.3098,22.788,南宁市,二十一中,,38,38,24,16,11,47,47,64,64,10,8,1,1,0.7,0.7
2026-06-19T2300,1402A,108.3135,22.8529,南宁市,北湖,,34,34,25,20,15,50,50,50,45,8,9,5,5,0.5,0.5
2026-06-19T2300,1403A,108.3205,22.8222,南宁市,市监测站,,25,25,22,14,11,61,61,58,54,6,6,2,2,0.7,0.6
2026-06-19T2300,1404A,108.3828,22.8038,南宁市,大自然花园,,36,NA,21,25,9,59,59,54,53,4,5,3,3,0.5,0.5
2026-06-19T2300,1406A,108.2397,22.8462,南宁市,区农职院,,34,34,25,18,13,45,45,51,45,10,9,2,2,0.8,0.8
2026-06-19T2300,1407A,108.3285,22.7356,南宁市,英华嘉园,,33,33,28,15,12,36,36,56,50,23,10,3,4,0.5,0.5
2026-06-19T2300,3401A,108.4829,22.762,南宁市,红星社区,,24,24,22,14,11,64,64,64,61,6,4,5,5,0.5,0.5
2026-06-19T2300,4132A,108.2927,23.1477,南宁市,起凤路9号,,32,32,25,18,15,43,43,52,42,10,10,6,5,0.4,0.4
2026-06-19T2300,4221A,108.2177,22.7774,南宁市,乐贤路16号,,28,28,27,14,11,41,41,44,36,13,16,3,8,0.6,0.6
2026-06-19T2300,2332A,118.1682,26.6371,南平市,南平市监测站,,21,21,18,10,9,3,3,46,26,15,8,3,4,0.6,0.5
2026-06-19T2300,2334A,118.1757,26.6276,南平市,南平七中,,30,30,20,3,7,9,9,42,28,10,6,2,2,0.3,0.3
2026-06-19T2300,1168A,120.9056,31.9669,南通市,狼山街道,,8,6,6,3,10,20,20,57,42,15,12,4,4,0.6,0.6
2026-06-19T2300,1170A,120.8635,32.0231,南通市,城中,,8,8,16,3,9,22,22,61,47,13,11,2,1,0.8,0.5
2026-06-19T2300,1171A,120.9376,31.9301,南通市,星湖花园,,8,6,12,3,11,21,21,63,47,15,10,4,4,0.5,0.5
2026-06-19T2300,1172A,120.8053,32.046,南通市,紫琅学院,,8,6,8,3,8,18,18,52,39,16,14,5,5,0.5,0.6
2026-06-19T2300,3291A,121.0631,32.0644,南通市,通州监测站,,9,7,13,3,8,28,28,60,48,9,8,5,5,0.4,0.5
2026-06-19T2300,3432A,120.9348,31.9874,南通市,环境教育馆,,8,6,17,3,9,22,22,54,43,16,15,5,5,0.5,0.5
2026-06-19T2300,4091A,120.8692,31.9885,南通市,洪江路,,7,6,15,3,10,20,20,54,42,13,11,3,2,0.6,0.7
2026-06-19T2300,2404A,112.5338,33.0086,南阳市,瓦房庄,,29,19,16,10,7,92,92,105,99,6,3,4,4,0.7,0.6
2026-06-19T2300,2405A,112.5002,32.9734,南阳市,汉画馆,,29,22,15,9,7,91,91,104,99,10,6,6,6,0.5,0.5
2026-06-19T2300,2406A,112.5778,33.0144,南阳市,气象站,,28,11,10,9,6,88,88,104,98,8,3,7,7,0.4,0.4
2026-06-19T2300,2407A,112.548,32.9687,南阳市,理工学院,,28,21,14,10,9,87,87,109,102,10,4,6,6,0.4,0.4
2026-06-19T2300,4008A,112.5233,32.9921,南阳市,卧龙区政府,,30,18,11,18,8,94,94,106,101,8,4,5,5,0.7,0.7
2026-06-19T2300,1234A,121.8352,29.9111,宁波市,区环保大楼,,18,11,18,3,6,56,56,78,70,4,15,4,4,0.4,0.6
2026-06-19T2300,1235A,121.5595,29.8208,宁波市,万里学院,,21,21,20,3,5,57,57,74,67,3,9,9,7,0.5,0.6
2026-06-19T2300,1236A,121.713,29.9564,宁波市,龙赛医院,,20,13,18,3,8,62,62,83,76,4,16,4,4,0.3,0.4
2026-06-19T2300,1240A,121.5855,29.8635,宁波市,太古小学,,17,15,13,3,6,53,53,71,63,5,8,4,4,0.4,0.4
2026-06-19T2300,1241A,121.5239,29.8673,宁波市,市环境监测中心,,23,23,22,3,6,45,45,69,61,6,11,2,3,0.3,0.3
2026-06-19T2300,2871A,121.6156,29.9015,宁波市,万里国际学校,,19,11,9,3,6,58,58,77,69,2,6,6,6,0.4,0.5
2026-06-19T2300,3710A,121.5593,29.8976,宁波市,白沙活动中心,,17,16,16,3,6,52,52,74,66,5,10,6,7,0.4,0.5
2026-06-19T2300,4095A,121.8962,29.7529,宁波市,中科路88号,,22,22,15,8,6,58,58,89,74,2,4,6,6,0.3,0.3
2026-06-19T2300,2341A,119.5387,26.6611,宁德市,宁德市监测站,,11,NA,19,7,8,34,34,63,50,12,11,4,4,0.6,0.6
2026-06-19T2300,3209A,119.5231,26.6562,宁德市,宁德一中,,15,15,16,10,9,41,41,67,51,5,6,7,7,0.4,0.7
2026-06-19T2300,2618A,98.859,25.8541,怒江傈僳族自治州,州监测站,,16,16,19,6,9,44,44,54,51,10,10,5,5,0.4,0.4
2026-06-19T2300,2619A,98.8607,25.8168,怒江傈僳族自治州,泸水一中,,10,10,15,6,10,31,31,51,45,11,9,4,4,0.6,0.6
2026-06-19T2300,1888A,101.6891,26.571,攀枝花市,弄弄坪,颗粒物(PM10),62,66,38,25,10,35,35,107,92,32,13,7,6,0.6,0.5
2026-06-19T2300,1889A,101.577,26.5914,攀枝花市,河门口,,33,33,28,15,14,64,64,112,97,15,14,70,22,0.8,1.4
2026-06-19T2300,1891A,101.7365,26.4986,攀枝花市,仁和,,22,22,20,15,12,26,26,80,62,11,11,4,11,0.5,1.1
2026-06-19T2300,2835A,101.7222,26.567,攀枝花市,四十中小,,40,32,21,28,12,50,50,105,94,33,11,27,15,0.9,0.9
2026-06-19T2300,1604A,122.0303,41.1489,盘锦市,开发区,,22,NA,26,13,24,68,68,102,72,7,8,7,7,0.3,0.3
2026-06-19T2300,1605A,122.0486,41.0883,盘锦市,兴隆台,,25,NA,27,17,21,60,60,86,65,13,15,4,5,0.4,0.5
2026-06-19T2300,1606A,121.8297,41.1026,盘锦市,新生街道,,19,14,20,12,13,58,58,89,74,12,12,5,5,0.3,0.3
2026-06-19T2300,1832A,113.3257,33.7423,平顶山市,新华旅馆,,27,27,20,10,10,73,73,99,90,15,8,2,2,0.5,0.5
2026-06-19T2300,1833A,113.2917,33.737,平顶山市,规划设计院,,25,15,11,15,10,80,80,102,95,14,10,5,5,0.6,0.6
2026-06-19T2300,1834A,113.182,33.7738,平顶山市,平顶山工学院,,28,19,11,9,14,87,87,108,100,8,7,5,5,0.4,0.4
2026-06-19T2300,3594A,112.8736,33.9068,平顶山市,石龙区,,28,28,22,16,18,67,67,103,95,12,8,5,4,0.7,0.6
2026-06-19T2300,4116A,113.284,33.7139,平顶山市,姚电大道23号,,29,15,11,12,13,91,91,108,102,10,6,7,6,0.8,0.8
2026-06-19T2300,2656A,106.6633,35.5338,平凉市,聚贤嘉苑,,42,42,34,17,10,62,62,126,113,35,15,8,8,0.6,0.6
2026-06-19T2300,2657A,106.7021,35.5307,平凉市,博物馆,,37,37,35,16,10,74,74,135,122,24,12,8,4,0.4,0.4
2026-06-19T2300,2348A,113.8384,27.6436,萍乡市,中医院,,12,12,17,6,6,12,12,31,26,17,13,7,9,0.9,0.8
2026-06-19T2300,2350A,113.8677,27.6438,萍乡市,市环保局,,28,28,18,11,9,16,16,36,29,12,9,11,12,0.6,0.6
2026-06-19T2300,2351A,113.8663,27.6202,萍乡市,安源区政府,,21,21,17,9,7,6,6,35,26,21,10,9,9,1.7,0.6
2026-06-19T2300,4107A,113.8686,27.6668,萍乡市,联洪村委会,,11,11,15,3,7,15,15,34,29,9,8,7,8,0.8,0.7
2026-06-19T2300,2319A,119.0142,25.4324,莆田市,荔城区仓后路,,16,16,20,10,9,29,29,52,39,8,9,/,/,/,/
2026-06-19T2300,2320A,119.0016,25.4553,莆田市,莆田市监测站,,21,21,21,10,6,21,21,52,35,4,5,3,3,0.3,0.3
2026-06-19T2300,2321A,119.112,25.4561,莆田市,涵江区六中,,18,18,19,10,7,23,23,54,36,13,11,/,/,0.3,0.3
2026-06-19T2300,2322A,119.1014,25.3215,莆田市,秀屿区政府,,19,19,18,10,9,37,37,58,46,7,8,6,6,0.5,0.5
2026-06-19T2300,2392A,115.0312,35.7636,濮阳市,环保局,,22,18,23,15,17,68,68,98,79,13,10,4,4,0.5,0.5
2026-06-19T2300,3021A,115,35.7667,濮阳市,濮水河管理处,,27,27,27,16,16,59,59,77,67,14,12,5,4,0.5,0.4
2026-06-19T2300,4118A,115.0552,35.7816,濮阳市,中原东路68号,,36,36,39,17,16,64,64,100,87,14,10,3,4,0.4,0.4
2026-06-19T2300,4216A,115.0923632,35.76857718,濮阳市,任丘路479号,,37,37,35,17,18,69,69,100,88,13,10,2,3,0.5,0.5
2026-06-19T2300,2601A,100.9801,22.7634,普洱市,市环保局,,36,36,30,11,12,40,40,63,59,5,5,4,5,0.6,0.6
2026-06-19T2300,2602A,100.9763,22.8237,普洱市,普洱第二中学,,34,34,28,9,11,27,27,60,52,11,8,5,5,0.7,0.7
2026-06-19T2300,3345A,131.0413,45.7795,七台河市,中波台,,27,26,10,14,11,86,86,103,90,24,12,4,6,0.5,0.5
2026-06-19T2300,3637A,131.0136,45.7688,七台河市,人民广场,,28,22,19,9,12,87,87,108,92,8,10,8,7,0.5,0.6
2026-06-19T2300,3684A,130.8639,45.8144,七台河市,新建矿广场,NA,NA,17,18,NA,13,71,71,99,81,8,13,11,14,0.3,0.4
2026-06-19T2300,1779A,123.9307,47.3641,齐齐哈尔市,安居小区,细颗粒物(PM2.5),58,50,25,39,15,102,102,122,112,11,12,4,4,0.6,0.4
2026-06-19T2300,1780A,123.9497,47.3389,齐齐哈尔市,中心广场,细颗粒物(PM2.5),64,62,28,42,13,97,97,117,114,10,12,4,3,0.6,0.4
2026-06-19T2300,1781A,123.9483,47.3229,齐齐哈尔市,农牧车辆厂,细颗粒物(PM2.5),56,51,32,38,16,70,70,125,118,9,11,5,5,0.3,0.2
2026-06-19T2300,1783A,123.9442,47.2994,齐齐哈尔市,市环境监测站,细颗粒物(PM2.5),76,NA,23,48,22,105,105,122,120,10,10,3,3,0.7,0.5
2026-06-19T2300,3662A,123.6341,47.2079,齐齐哈尔市,富区青少年活动中心,细颗粒物(PM2.5),62,63,33,41,20,112,112,130,126,17,15,5,5,0.7,0.6
2026-06-19T2300,2591A,107.9765,26.5724,黔东南苗族侗族自治州,市环境监测站,,33,33,21,23,17,27,27,82,66,15,8,2,4,0.7,0.6
2026-06-19T2300,2881A,107.8909,26.531,黔东南苗族侗族自治州,凯里学院,NA,NA,NA,NA,NA,0,NA,NA,51,NA,NA,NA,NA,3,NA,1.0
2026-06-19T2300,2593A,107.5223,26.2371,黔南布依族苗族自治州,小围寨,,12,12,10,7,7,29,29,69,58,8,5,4,5,0.5,0.5
2026-06-19T2300,3538A,107.5175,26.2977,黔南布依族苗族自治州,沙坝,,17,17,14,9,7,36,36,67,60,4,4,4,3,0.8,0.8
2026-06-19T2300,2589A,104.9022,25.0943,黔西南布依族苗族自治州,场坝街,,18,12,14,7,7,57,57,53,53,3,6,1,2,0.2,0.3
2026-06-19T2300,2590A,104.8812,25.0994,黔西南布依族苗族自治州,坪东大道,,20,20,16,3,6,57,57,55,55,3,6,6,6,0.4,0.4
2026-06-19T2300,2502A,108.6238,21.9667,钦州市,市环保站,,24,24,23,14,11,71,71,77,76,4,5,3,3,0.5,0.5
2026-06-19T2300,2503A,108.655,21.9481,钦州市,沙埠小学,,25,25,29,15,15,69,69,82,79,5,4,1,2,0.6,0.7
2026-06-19T2300,2504A,108.5989,21.7435,钦州市,港区一小,,29,27,34,20,17,64,64,86,80,9,5,3,2,0.4,0.5
2026-06-19T2300,3404A,108.5959,21.9634,钦州市,北职校,,30,30,29,10,11,67,67,77,75,6,5,4,3,0.6,0.7
2026-06-19T2300,1046A,119.5247,39.9346,秦皇岛市,建设大厦,,35,35,52,13,19,87,87,117,105,8,14,5,6,0.3,0.3
2026-06-19T2300,3132A,119.5979,39.938,秦皇岛市,文明里,,33,33,52,16,22,84,84,112,94,9,13,6,7,0.2,0.2
2026-06-19T2300,4066A,119.7458,39.9952,秦皇岛市,南园路157号,,25,17,35,10,19,79,79,93,82,6,13,8,9,0.1,0.2
2026-06-19T2300,4067A,119.5131,39.8858,秦皇岛市,翠岛大街1号,,25,15,28,10,19,78,78,114,97,11,12,4,5,0.4,0.5
2026-06-19T2300,4198A,119.509013,39.825305,秦皇岛市,北戴河轮滑馆,,30,30,42,9,16,81,81,116,95,10,11,9,10,0.2,0.3
2026-06-19T2300,1310A,120.404,36.0625,青岛市,市南区东部子站,,20,NA,3,3,6,63,63,66,66,4,5,6,6,0.2,0.2
2026-06-19T2300,1311A,120.362344,36.10282,青岛市,四方区子站,,25,6,4,3,5,77,77,77,75,6,6,8,8,0.6,0.6
2026-06-19T2300,1312A,120.294373,36.054183,青岛市,市南区西部子站,,17,NA,3,3,4,52,52,72,71,29,16,4,5,0.5,0.5
2026-06-19T2300,1313A,120.4581,36.0858,青岛市,崂山区子站,,20,NA,4,3,5,63,63,68,68,7,12,6,7,0.3,0.3
2026-06-19T2300,1315A,120.3945,36.3083,青岛市,城阳区子站,,24,7,10,3,6,76,76,81,75,2,3,7,7,0.3,0.3
2026-06-19T2300,3642A,120.3454,36.0735,青岛市,市北区南部,,23,6,5,6,5,73,73,71,71,10,11,2,2,0.6,0.6
2026-06-19T2300,3643A,120.3897,36.18,青岛市,李沧区北部,,22,NA,2,3,4,69,69,65,65,10,9,5,5,0.4,0.4
2026-06-19T2300,4110A,120.5222,36.4089,青岛市,盟旺路653号,,22,7,9,3,4,69,69,73,69,6,5,6,6,0.5,0.5
2026-06-19T2300,4290A,120.196923,35.954556,青岛市,珠江路669号,,17,NA,4,6,5,40,40,71,64,34,12,5,4,0.3,0.2
2026-06-19T2300,4291A,120.0424,35.8656,青岛市,黄岛区人民政府广场,,20,NA,2,3,4,64,64,75,74,15,12,5,5,0.6,0.5
2026-06-19T2300,1703A,113.0218,23.7086,清远市,凤城街办,,25,25,20,11,12,33,33,58,51,10,15,/,/,/,/
2026-06-19T2300,3025A,113.0479,23.6343,清远市,技师学院,,23,23,17,11,9,34,34,66,57,11,14,5,4,0.5,0.4
2026-06-19T2300,3318A,112.9898,23.7403,清远市,清新太和,,24,24,19,13,13,36,36,66,57,11,13,5,4,0.4,0.5
2026-06-19T2300,3455A,113.076,23.72,清远市,清城东城,,26,26,19,12,10,34,34,60,52,10,11,/,/,/,/
2026-06-19T2300,2661A,107.6325,35.7357,庆阳市,庆阳五中,,42,42,23,21,10,99,99,134,122,26,8,6,4,0.4,0.3
2026-06-19T2300,2662A,107.6361,35.7067,庆阳市,市环保局,,37,37,25,17,9,101,101,134,123,21,9,4,4,0.5,0.4
2026-06-19T2300,1916A,103.7897,25.5036,曲靖市,环境监测站,,18,18,16,3,8,39,39,84,70,7,10,1,2,0.4,0.6
2026-06-19T2300,1917A,103.8013,25.5357,曲靖市,烟厂办公区,,20,20,17,3,9,41,41,78,68,7,11,1,3,0.5,0.6
2026-06-19T2300,3376A,103.7926,25.4651,曲靖市,南苑二区,,20,19,15,14,10,35,35,72,61,11,12,4,4,0.4,0.5
2026-06-19T2300,3377A,103.7442,25.5259,曲靖市,曲靖师范学院,,35,35,14,24,10,39,39,84,71,17,10,15,5,0.5,0.5
2026-06-19T2300,1264A,118.8694,28.94,衢州市,环保大楼,,11,11,14,3,7,30,30,33,31,9,13,/,/,/,/
2026-06-19T2300,1266A,118.8622,28.9809,衢州市,衢州学院,,11,NA,3,6,7,33,33,36,34,8,13,4,4,0.3,0.4
2026-06-19T2300,4097A,118.9646,28.9832,衢州市,衢州三中,,12,12,14,7,9,22,22,28,26,9,14,5,5,0.4,0.5
2026-06-19T2300,1611A,118.5818,24.9116,泉州市,涂山街,,18,18,17,12,10,30,30,46,37,7,8,3,3,0.5,0.5
2026-06-19T2300,1612A,118.597,24.8976,泉州市,津头埔,,17,17,16,10,10,28,28,44,33,8,9,1,2,0.6,0.6
2026-06-19T2300,1613A,118.6669,24.9422,泉州市,万安,,18,18,17,11,10,29,29,47,35,7,7,3,3,0.3,0.3
2026-06-19T2300,4105A,118.6355,24.9148,泉州市,霞新路6号,,16,16,19,6,13,26,26,48,35,10,10,/,/,0.5,0.5
2026-06-19T2300,2626A,88.8873,29.2723,日喀则市,日喀则监测站,,35,NA,7,10,4,112,112,126,124,4,4,7,7,0.4,0.4
2026-06-19T2300,3726A,88.8775,29.2425,日喀则市,林业技术推广中心,,40,10,10,3,1,127,127,125,125,2,2,6,6,0.4,0.4
2026-06-19T2300,1659A,119.4711,35.421,日照市,监测站,,19,NA,0,8,2,60,60,72,71,15,10,8,8,0.2,0.2
2026-06-19T2300,1660A,119.523,35.4216,日照市,市政府广场,,19,NA,3,7,3,59,59,66,66,13,10,8,8,0.4,0.4
2026-06-19T2300,1661A,119.5511,35.4113,日照市,港务局,,21,NA,1,3,2,66,66,78,77,10,8,6,5,0.6,0.6
2026-06-19T2300,3507A,119.5326,35.4627,日照市,职业技术学院,,19,NA,4,13,2,56,56,77,74,14,7,7,7,0.4,0.4
2026-06-19T2300,3604A,119.3267,35.1043,日照市,岚山环保分局,,22,9,6,3,2,68,68,84,83,19,13,21,9,1.8,0.6
2026-06-19T2300,1835A,111.1922,34.7752,三门峡市,市政府,,42,34,21,29,12,49,49,108,94,20,7,9,8,0.5,0.3
2026-06-19T2300,1836A,111.1588,34.794,三门峡市,开发区,,32,31,17,22,13,60,60,109,100,16,7,7,6,0.6,0.4
2026-06-19T2300,3039A,111.1911,34.7829,三门峡市,三门峡市第一小学,,45,33,19,31,13,60,60,114,104,19,7,8,8,0.6,0.4
2026-06-19T2300,3598A,111.1031,34.719,三门峡市,富达温泉假日酒店,,43,43,27,16,13,44,44,104,93,22,10,9,10,0.7,0.6
2026-06-19T2300,2324A,117.621,26.2626,三明市,三钢,,17,17,19,7,11,16,16,47,34,16,11,17,10,1.2,1.3
2026-06-19T2300,2325A,117.6352,26.2714,三明市,三明二中,,25,25,21,9,9,17,17,49,34,13,10,6,7,0.6,1
2026-06-19T2300,2326A,117.6028,26.2377,三明市,三元区政府,,21,21,23,8,13,14,14,51,34,8,11,8,8,0.5,0.9
2026-06-19T2300,1877A,109.4962,18.2682,三亚市,河西子站,,31,31,29,18,17,72,72,83,78,18,9,2,2,0.3,0.3
2026-06-19T2300,3540A,109.7348,18.3443,三亚市,君悦子站,,39,39,35,13,13,80,80,78,78,3,4,2,2,0.4,0.4
2026-06-19T2300,4135A,109.1714,18.3739,三亚市,城东小学站,,27,27,27,14,16,79,79,81,81,3,3,/,/,/,/
2026-06-19T2300,2624A,91.7592,29.234,山南市,山南监测站,,41,22,37,14,7,130,130,124,124,1,2,6,6,0.2,0.2
2026-06-19T2300,2625A,91.7701,29.2436,山南市,山南人民医院,,40,38,44,18,6,128,128,123,123,1,2,4,4,0.2,0.2
2026-06-19T2300,1674A,116.6795,23.3666,汕头市,金平子站,,16,16,16,9,9,36,36,46,43,4,7,2,3,0.5,0.5
2026-06-19T2300,1675A,116.7248,23.3632,汕头市,龙湖子站,,16,11,20,11,10,30,30,44,37,4,5,6,6,/,/
2026-06-19T2300,1676A,116.7257,23.2774,汕头市,濠江子站,,24,24,22,10,8,25,25,42,33,13,11,8,8,/,/
2026-06-19T2300,1677A,116.7518,23.4712,汕头市,澄海子站,,23,23,23,12,12,25,25,45,34,8,8,4,4,0.7,0.7
2026-06-19T2300,1678A,116.6088,23.2539,汕头市,潮阳子站,,15,15,23,10,10,26,26,45,38,7,6,6,6,0.6,0.6
2026-06-19T2300,3444A,116.4539,23.2684,汕头市,潮南峡山,,21,21,18,10,13,32,32,41,38,2,6,6,7,0.4,0.5
2026-06-19T2300,3624A,116.4069,23.2533,汕头市,潮南子站,,17,17,21,9,11,28,28,38,35,5,7,6,5,/,/
2026-06-19T2300,1693A,115.3653,22.7751,汕尾市,市环保局,,14,14,21,7,8,35,35,44,40,2,4,5,5,0.5,0.5
2026-06-19T2300,1695A,115.362,22.7926,汕尾市,新城中学,,16,16,20,9,9,40,40,51,45,2,3,6,6,0.5,0.5
2026-06-19T2300,2645A,109.9155,33.8714,商洛市,监测站,,21,21,17,13,11,55,55,114,98,11,7,6,5,0.8,0.8
2026-06-19T2300,3045A,109.9647,33.8486,商洛市,商州区中学,,30,30,23,12,11,40,40,118,100,30,9,8,8,0.8,0.8
2026-06-19T2300,2408A,115.6701,34.4283,商丘市,环境监测站,,19,NA,27,13,22,56,56,95,66,8,7,4,4,0.5,0.4
2026-06-19T2300,2409A,115.6458,34.4047,商丘市,粮食局,,22,NA,26,15,17,59,59,98,67,10,9,6,5,0.5,0.5
2026-06-19T2300,3171A,115.6069,34.4465,商丘市,梁园区档案局,,22,22,33,15,20,57,57,90,65,7,9,1,1,0.5,0.5
2026-06-19T2300,4119A,115.6701,34.3767,商丘市,北海东路185号,NA,NA,16,27,6,17,NA,NA,94,70,9,11,3,3,0.4,0.4
2026-06-19T2300,4120A,115.6172,34.3704,商丘市,中山大街3号,,23,23,36,3,16,59,59,87,67,6,8,7,7,0.5,0.5
2026-06-19T2300,1141A,121.401,31.2382,上海市,普陀,,11,8,21,3,13,33,33,78,54,18,18,5,5,0.2,0.2
2026-06-19T2300,1142A,121.4774,31.2043,上海市,十五厂,,11,8,19,7,15,33,33,69,47,15,19,5,5,0.6,0.5
2026-06-19T2300,1143A,121.4673,31.3011,上海市,虹口,,11,NA,18,7,15,35,35,76,55,8,11,4,4,0.6,0.6
2026-06-19T2300,1147A,121.4253,31.226,上海市,静安监测站,,10,7,15,6,14,32,32,73,51,15,16,8,8,0.6,0.6
2026-06-19T2300,1148A,121.7029,31.1905,上海市,浦东川沙,,15,11,19,9,16,45,45,96,63,12,19,8,8,0.5,0.5
2026-06-19T2300,1149A,121.5339,31.229,上海市,浦东新区监测站,,12,8,18,7,14,36,36,73,51,11,14,6,6,0.4,0.4
2026-06-19T2300,1150A,121.5776,31.2038,上海市,浦东张江,,13,8,18,7,14,41,41,82,57,12,15,6,6,0.3,0.3
2026-06-19T2300,3265A,121.4242,31.3303,上海市,宝山庙行,,10,6,26,6,14,30,30,78,55,14,13,9,9,0.2,0.3
2026-06-19T2300,3266A,121.8789,31.4662,上海市,崇明上实东滩,,11,10,14,6,13,35,35,89,61,14,13,8,8,0.3,0.3
2026-06-19T2300,3268A,121.316,31.2839,上海市,嘉定南翔,,11,6,16,3,12,20,20,73,46,22,18,5,5,0.2,0.2
2026-06-19T2300,3269A,121.3357,30.7455,上海市,金山新城,,14,8,15,6,12,42,42,76,52,8,9,4,4,0.8,0.7
2026-06-19T2300,3270A,121.4996,31.0741,上海市,闵行浦江,,12,7,18,6,15,36,36,74,48,14,12,6,6,0.3,0.3
2026-06-19T2300,3271A,121.2886,31.1663,上海市,青浦徐泾,,10,8,19,6,13,29,29,69,49,8,7,6,5,0.2,0.3
2026-06-19T2300,3272A,121.2193,31.0382,上海市,松江图书馆,,12,11,23,8,19,29,29,72,50,8,7,6,6,0.4,0.4
2026-06-19T2300,3273A,121.3904,31.206,上海市,长宁仙霞,,10,9,16,7,15,22,22,59,37,14,15,7,7,0.4,0.3
2026-06-19T2300,3274A,121.7964,31.0507,上海市,浦东惠南,,15,13,14,9,12,45,45,113,78,25,14,7,7,0.5,0.5
2026-06-19T2300,3544A,121.4891,30.925,上海市,奉贤南桥新城,,14,8,16,6,14,43,43,87,57,13,16,6,6,0.4,0.4
2026-06-19T2300,4183A,121.417401,31.16637,上海市,冠生园路458号,,10,10,22,6,16,29,29,64,42,15,15,4,4,0.6,0.7
2026-06-19T2300,4205A,121.541914,31.268301,上海市,宁武路151号,NA,NA,7,19,6,14,NA,NA,68,NA,15,24,6,6,0.3,0.3
2026-06-19T2300,2382A,117.9758,28.4439,上饶市,市监测站,,30,30,18,10,6,21,21,44,32,8,5,5,5,/,/
2026-06-19T2300,2383A,117.9521,28.4637,上饶市,凤凰光学,,27,27,17,13,7,17,17,51,37,14,7,6,8,0.6,0.5
2026-06-19T2300,3685A,117.897,28.4316,上饶市,双创科技城,,30,30,18,17,9,16,16,46,35,19,11,7,7,0.6,0.5
2026-06-19T2300,4211A,118.190438,28.444845,上饶市,裕丰大道,,14,14,13,3,1,15,15,44,26,7,6,9,8,0.4,0.4
2026-06-19T2300,1669A,113.5821,24.7733,韶关市,市八中,,18,6,16,3,8,55,55,63,62,6,11,3,8,0.5,0.6
2026-06-19T2300,1671A,113.5916,24.7973,韶关市,园林处,,16,6,17,3,10,51,51,54,54,8,15,6,8,/,/
2026-06-19T2300,1673A,113.5971,24.6864,韶关市,曲江监测站,,15,13,16,6,10,45,45,57,54,8,12,5,7,0.7,0.7
2026-06-19T2300,2809A,113.6668,24.7756,韶关市,大学路288号,,17,13,23,3,11,53,53,59,53,6,8,7,11,/,/
2026-06-19T2300,3622A,113.5556,24.8082,韶关市,碧湖山庄,,17,10,18,3,8,54,54,62,62,7,11,4,5,0.6,0.6
2026-06-19T2300,2464A,111.5277,27.2442,邵阳市,市化工厂,,16,13,15,11,9,34,34,58,50,10,4,8,7,0.6,0.4
2026-06-19T2300,2466A,111.4327,27.2276,邵阳市,市环保局,,13,NA,9,9,9,29,29,48,38,3,3,3,3,0.5,0.5
2026-06-19T2300,4218A,111.446,27.2472,邵阳市,北塔二期4-26地块,NA,NA,7,12,3,7,30,30,51,38,4,5,4,5,NA,0.4
2026-06-19T2300,4219A,111.4739,27.2282,邵阳市,邵水西路287号,NA,NA,18,12,10,11,NA,NA,54,NA,4,2,3,3,0.2,0.2
2026-06-19T2300,1247A,120.6053,29.9927,绍兴市,城东开发委,,15,6,13,3,8,47,47,62,55,2,9,7,7,0.3,0.4
2026-06-19T2300,2921A,120.5482,30.0003,绍兴市,树下王站,,14,6,11,3,8,42,42,60,50,3,9,7,7,0.2,0.4
2026-06-19T2300,3408A,120.5685,29.936,绍兴市,绍兴中专,,15,6,14,3,7,48,48,65,59,2,8,4,4,0.4,0.6
2026-06-19T2300,3409A,120.4905,30.086,绍兴市,柯桥区政府,,14,10,16,3,14,42,42,68,48,2,7,5,5,0.4,0.5
2026-06-19T2300,3410A,120.8751,30.0249,绍兴市,重华小学,,13,6,12,3,9,41,41,52,41,5,11,8,8,0.6,0.7
2026-06-19T2300,3411A,120.837,30.0137,绍兴市,上虞中学,,15,6,13,3,8,46,46,58,45,1,8,7,7,0.4,0.5
2026-06-19T2300,3560A,120.4715,30.0414,绍兴市,柯桥妇保,,15,6,16,3,10,46,46,71,50,3,9,5,5,0.4,0.5
2026-06-19T2300,3658A,120.6156,30.0762,绍兴市,袍江中学,,15,NA,18,10,20,44,44,62,53,4,8,5,5,0.4,0.4
2026-06-19T2300,1356A,114.0948,22.5506,深圳市,通心岭子站,,15,15,16,6,6,36,36,46,40,3,6,2,2,0.5,0.5
2026-06-19T2300,1357A,114.1153,22.5713,深圳市,洪湖,,19,19,18,6,6,33,33,46,38,3,8,5,5,0.3,0.3
2026-06-19T2300,1358A,113.9823,22.5398,深圳市,华侨城,,20,20,18,7,6,31,31,42,36,5,7,/,/,/,/
2026-06-19T2300,1359A,113.9181,22.517,深圳市,南海子站,,22,22,21,9,9,25,25,43,35,10,6,5,4,0.8,0.8
2026-06-19T2300,1360A,114.2345,22.565,深圳市,盐田,,16,16,16,6,4,18,18,39,29,7,11,5,5,0.3,0.3
2026-06-19T2300,1363A,114.4911,22.5381,深圳市,南澳,,21,21,19,7,6,34,34,47,41,6,4,/,/,/,/
2026-06-19T2300,1364A,114.41,22.6346,深圳市,葵涌,,22,22,16,7,6,14,14,44,31,25,12,6,6,0.7,0.7
2026-06-19T2300,1365A,114.2967,22.5978,深圳市,梅沙,,20,20,16,3,4,21,21,42,32,7,8,/,/,/,/
2026-06-19T2300,1366A,114.0563,22.7353,深圳市,观澜,,20,20,21,7,10,34,34,48,40,6,16,5,5,0.5,0.5
2026-06-19T2300,3305A,114.0614,22.556,深圳市,莲花,,15,15,12,8,7,23,23,29,25,6,6,/,/,/,/
2026-06-19T2300,3306A,114.0144,22.6163,深圳市,民治,,24,24,21,7,7,34,34,39,36,3,5,/,/,/,/
2026-06-19T2300,3307A,114.1756,22.6421,深圳市,横岗,,10,10,14,3,8,27,27,51,40,8,11,/,/,/,/
2026-06-19T2300,3447A,114.344,22.7115,深圳市,坪山,,15,15,14,3,8,28,28,45,37,8,8,6,6,0.5,0.5
2026-06-19T2300,3623A,113.8952,22.586,深圳市,西乡,,20,20,22,6,7,30,30,38,34,9,11,4,3,0.4,0.4
2026-06-19T2300,4220A,114.214113,22.713717,深圳市,黄阁路,,18,18,17,3,7,17,17,48,35,18,16,6,6,0.5,0.5
2026-06-19T2300,1099A,123.5058,41.7084,沈阳市,浑南东路,,39,28,27,22,20,2,2,101,54,78,34,2,3,0.7,0.8
2026-06-19T2300,1100A,123.4238,41.6992,沈阳市,新秀街,,38,38,38,19,19,10,10,114,72,66,23,7,16,0.4,0.5
2026-06-19T2300,1102A,123.5903,41.8412,沈阳市,东陵路,,31,31,31,10,14,68,68,119,78,19,22,3,3,0.6,0.8
2026-06-19T2300,1103A,123.4267,41.8466,沈阳市,陵东街,,35,28,29,24,22,27,27,115,78,28,15,6,7,0.8,0.8
2026-06-19T2300,1104A,123.4116,41.7654,沈阳市,文化路,,35,34,29,24,19,46,46,116,78,30,17,5,9,0.6,0.8
2026-06-19T2300,1105A,123.4673,41.787,沈阳市,小河沿,,32,31,33,22,19,24,24,109,72,32,12,3,5,0.9,0.9
2026-06-19T2300,1106A,123.4019,41.7978,沈阳市,太原街,颗粒物(PM10),60,63,32,30,20,44,44,117,80,27,10,8,6,0.6,0.7
2026-06-19T2300,1108A,123.3778,41.9233,沈阳市,京沈街,细颗粒物(PM2.5),56,57,43,38,27,36,36,125,76,37,19,5,7,0.7,0.8
2026-06-19T2300,2897A,123.2429,41.7341,沈阳市,沈辽西路,细颗粒物(PM2.5),54,50,31,37,29,17,17,106,68,42,14,8,8,0.8,0.8
2026-06-19T2300,2900A,123.5951,41.9085,沈阳市,裕农路,,24,24,30,13,17,67,67,119,78,13,18,6,7,0.4,0.7
2026-06-19T2300,2429A,110.78,32.6494,十堰市,滨河新村,,34,34,18,22,7,35,35,97,74,22,8,/,/,0.9,0.7
2026-06-19T2300,2430A,110.7305,32.6408,十堰市,刘家沟,,17,14,11,10,4,54,54,97,82,6,4,/,/,/,/
2026-06-19T2300,2431A,110.8843,32.5712,十堰市,铁二处,,22,22,9,7,5,34,34,93,67,3,4,8,8,0.6,0.6
2026-06-19T2300,3545A,110.8053,32.8401,十堰市,郧阳区金沙路,,24,24,23,7,6,54,54,86,74,7,5,8,8,0.6,0.6
2026-06-19T2300,2709A,86.0391,44.298,石河子市,艾青诗歌馆,细颗粒物(PM2.5),56,NA,26,38,7,82,82,141,129,33,14,8,8,0.7,0.3
2026-06-19T2300,3442A,86.047,44.2331,石河子市,南区管委会,,46,46,25,16,4,103,103,152,137,14,6,6,6,0.3,0.3
2026-06-19T2300,4051A,86.0791,44.3018,石河子市,世纪广场,,35,NA,34,24,19,74,74,137,123,26,14,6,7,0.4,0.3
2026-06-19T2300,4167A,86.0126,44.2349,石河子市,城南景苑小区,,38,38,18,16,6,88,88,132,117,19,10,7,7,0.3,0.3
2026-06-19T2300,1030A,114.5919,38.0328,石家庄市,高新区,,45,41,42,31,26,59,59,113,95,21,14,2,3,0.6,0.5
2026-06-19T2300,1032A,114.4556,38.0136,石家庄市,西南高教,,49,46,42,34,25,69,69,108,95,14,11,3,2,0.5,0.5
2026-06-19T2300,1033A,114.533,38.0177,石家庄市,世纪公园,,41,41,49,23,23,64,64,91,82,13,8,3,3,0.5,0.5
2026-06-19T2300,1034A,114.5105,38.0489,石家庄市,人民会堂,,42,40,46,29,26,69,69,105,94,15,12,3,2,0.3,0.3
2026-06-19T2300,3456A,114.2887,38.0905,石家庄市,鹿泉一中,,46,46,42,23,26,61,61,113,88,14,9,3,2,0.5,0.6
