timepoint,stationcode,longitude,latitude,area,positionname,primarypollutant,aqi,pm10,pm10_24h,pm2_5,pm2_5_24h,o3,o3_24h,o3_8h,o3_8h_24h,no2,no2_24h,so2,so2_24h,co,co_24h
2026-05-23T0000,2568A,102.2503,31.8896,阿坝藏族羌族自治州,马师校,,25,20,20,11,9,80,80,102,81,6,6,7,7,0.3,0.3
2026-05-23T0000,3994A,102.2174,31.9016,阿坝藏族羌族自治州,马尔康中学西区,,27,27,17,9,11,75,75,100,84,9,6,5,5,0.2,0.2
2026-05-23T0000,2695A,80.2899,41.1684,阿克苏地区,电视台,颗粒物(PM10),317,433,545,178,207,22,22,102,86,61,16,4,3,1.5,0.7
2026-05-23T0000,2696A,80.2592,41.1541,阿克苏地区,艺术中心,细颗粒物(PM2.5),272,347,454,222,274,10,10,105,80,72,24,4,4,1.2,0.6
2026-05-23T0000,2205A,105.699,38.8409,阿拉善盟,蒙二幼,,39,39,98,14,28,99,99,119,110,17,11,8,8,0.3,0.3
2026-05-23T0000,2206A,105.7198,38.8508,阿拉善盟,环保局新楼,,48,48,89,10,27,108,108,116,112,3,3,8,10,0.3,0.3
2026-05-23T0000,2708A,88.1266,47.8515,阿勒泰地区,市站,颗粒物(PM10),57,59,27,10,3,79,79,101,88,3,6,6,6,0.1,0.1
2026-05-23T0000,4166A,88.1198,47.7931,阿勒泰地区,阿勒泰路33号,颗粒物(PM10),90,105,38,15,4,74,74,98,84,2,5,4,4,0.1,0.1
2026-05-23T0000,2630A,80.1171,32.4999,阿里地区,阿里监测站,,39,21,26,6,8,123,123,130,130,1,3,9,7,0.3,0.3
2026-05-23T0000,3192A,80.0906,32.5029,阿里地区,阿里藏医院,,39,20,25,3,6,122,122,126,126,2,2,5,5,0.2,0.2
2026-05-23T0000,2644A,109.0088,32.6974,安康市,汉滨区检察院,,32,32,35,16,19,12,12,79,50,11,9,5,5,0.6,0.5
2026-05-23T0000,4054A,109.0324,32.6913,安康市,市邮政管理局,细颗粒物(PM2.5),62,59,37,41,25,15,15,84,50,14,10,8,9,0.7,0.5
2026-05-23T0000,2291A,117.0806,30.5181,安庆市,环科院,,22,22,27,3,18,13,13,74,30,32,20,7,8,0.4,0.7
2026-05-23T0000,2292A,117.0331,30.5118,安庆市,马山宾馆,,26,26,29,7,20,6,6,77,28,29,15,4,6,0.7,0.8
2026-05-23T0000,2294A,116.9897,30.6146,安庆市,安庆大学,,14,14,30,8,20,24,24,89,41,21,15,4,5,0.5,0.6
2026-05-23T0000,3173A,117.0598,30.5351,安庆市,市人大,,23,23,31,3,18,21,21,82,41,19,14,4,6,0.5,0.7
2026-05-23T0000,3123A,105.9408,26.2431,安顺市,凤凰山,,28,NA,18,19,15,55,55,84,70,7,5,5,5,0.5,0.5
2026-05-23T0000,3124A,105.9443,26.2567,安顺市,金钟山,,25,NA,19,17,14,55,55,79,68,5,4,6,6,0.5,0.5
2026-05-23T0000,3125A,105.8983,26.248,安顺市,娄家坡,,20,14,18,14,13,57,57,80,70,3,3,6,6,0.7,0.5
2026-05-23T0000,1819A,114.3552,36.1017,安阳市,红庙街,,43,43,28,28,17,24,24,98,70,29,14,2,3,0.6,0.4
2026-05-23T0000,1820A,114.361,36.0681,安阳市,银杏小区,颗粒物(PM10),60,64,32,38,21,42,42,99,78,22,10,2,2,0.5,0.3
2026-05-23T0000,3141A,114.3921,36.0879,安阳市,信访局,,41,41,28,26,20,34,34,104,82,33,10,3,3,0.4,0.3
2026-05-23T0000,3669A,114.4706,36.0634,安阳市,左辅环卫站,,36,36,38,16,19,24,24,92,76,39,12,3,2,0.4,0.4
2026-05-23T0000,4117A,114.2918,36.0769,安阳市,钢三路198号,,44,44,31,25,21,28,28,95,61,18,11,1,3,0.7,0.5
2026-05-23T0000,1748A,123.0441,41.1201,鞍山市,深沟寺,,25,12,20,3,12,80,80,108,87,8,10,7,8,0.5,0.5
2026-05-23T0000,1749A,123.011,41.0931,鞍山市,太阳城,,24,14,29,3,16,76,76,104,84,4,9,7,8,0.6,0.7
2026-05-23T0000,1750A,123.0483,41.1445,鞍山市,太平,,27,18,27,3,12,85,85,107,89,6,12,6,8,0.5,0.5
2026-05-23T0000,1751A,122.964,41.0968,鞍山市,铁西三道街,,25,16,30,3,14,78,78,102,86,10,16,5,7,0.6,0.6
2026-05-23T0000,1753A,123.0219,41.0822,鞍山市,明达新区,,28,10,25,3,13,87,87,105,91,6,11,6,7,0.4,0.5
2026-05-23T0000,4201A,122.944647,41.082639,鞍山市,兴盛南路290号,,26,13,31,3,16,82,82,105,87,10,17,8,9,0.7,0.7
2026-05-23T0000,2195A,107.4206,40.7609,巴彦淖尔市,附二中,颗粒物(PM10),79,90,111,42,41,62,62,114,84,26,15,8,10,0.5,0.6
2026-05-23T0000,2196A,107.37,40.7372,巴彦淖尔市,市环保大楼,颗粒物(PM10),75,84,95,28,35,62,62,120,91,20,11,7,8,0.4,0.6
2026-05-23T0000,1956A,86.1476,41.7529,巴音郭楞蒙古自治州,孔雀公园,颗粒物(PM10),295,416,380,167,133,2,2,94,68,80,24,4,5,0.9,0.7
2026-05-23T0000,1957A,86.1971,41.7166,巴音郭楞蒙古自治州,棉纺厂,颗粒物(PM10),347,457,425,239,146,32,32,100,82,56,26,/,/,/,/
2026-05-23T0000,1958A,86.236,41.7172,巴音郭楞蒙古自治州,经济开发区,细颗粒物(PM2.5),186,318,300,140,121,44,44,96,78,22,9,1,2,0.5,0.4
2026-05-23T0000,3181A,106.776805,31.852614,巴中市,市五中,,49,NA,17,34,9,7,7,78,48,17,8,7,6,0.7,0.6
2026-05-23T0000,3183A,106.7419,31.8654,巴中市,圣泉水务公司,,39,NA,20,27,8,8,8,83,49,26,9,7,7,0.7,0.6
2026-05-23T0000,3616A,106.7617,31.8343,巴中市,市中心医院,,46,34,17,32,10,12,12,82,51,23,9,5,6,0.7,0.6
2026-05-23T0000,2235A,122.7909,45.608,白城市,洮北区环保局,,30,11,49,10,21,96,96,122,102,4,8,4,4,0.1,0.2
2026-05-23T0000,2236A,122.8741,45.5725,白城市,市环保局,,30,7,58,6,14,93,93,120,100,9,13,4,4,0.3,0.3
2026-05-23T0000,2231A,126.4219,41.9172,白山市,喜丰,,35,31,42,24,10,112,112,99,81,10,17,10,10,0.5,0.5
2026-05-23T0000,2232A,126.4082,41.9416,白山市,环保局,,35,30,20,24,8,92,92,102,82,12,10,12,11,0.6,0.6
2026-05-23T0000,2647A,104.1727,36.5448,白银市,第三小学,颗粒物(PM10),134,207,162,67,66,15,15,116,84,118,22,32,24,0.6,0.4
2026-05-23T0000,2648A,104.1467,36.5482,白银市,动力公司,颗粒物(PM10),115,159,148,56,59,8,8,117,95,83,17,16,15,0.6,0.5
2026-05-23T0000,2512A,106.6102,23.901,百色市,市监测站,,29,29,30,18,16,58,58,86,68,9,10,13,14,0.5,0.6
2026-05-23T0000,2513A,106.6524,23.8842,百色市,市中心血站,,21,21,28,11,20,61,61,85,69,7,9,12,14,0.6,0.7
2026-05-23T0000,4133A,106.6273,23.8798,百色市,龙景西路,,28,28,39,15,17,49,49,80,61,11,11,18,15,0.7,0.6
2026-05-23T0000,2270A,117.396,32.9389,蚌埠市,工人疗养院,细颗粒物(PM2.5),74,71,61,47,33,77,77,142,107,16,25,5,7,0.7,0.6
2026-05-23T0000,2271A,117.3606,32.9428,蚌埠市,百货大楼,细颗粒物(PM2.5),80,52,46,50,32,84,84,138,105,14,20,6,8,0.7,0.6
2026-05-23T0000,2273A,117.4183,32.8909,蚌埠市,蚌埠学院,细颗粒物(PM2.5),78,NA,42,49,32,81,81,140,110,16,14,5,6,0.7,0.6
2026-05-23T0000,2274A,117.3534,32.9672,蚌埠市,淮上区政府,细颗粒物(PM2.5),70,53,48,45,30,86,86,148,109,13,21,5,6,0.6,0.6
2026-05-23T0000,2275A,117.3143,32.8977,蚌埠市,高新区,细颗粒物(PM2.5),100,NA,55,60,39,84,84,127,98,14,21,7,7,0.5,0.5
2026-05-23T0000,3715A,117.3091,32.9314,蚌埠市,蚌埠田家炳中学,细颗粒物(PM2.5),100,NA,52,60,37,68,68,136,94,17,15,5,6,0.6,0.6
2026-05-23T0000,1585A,109.8761,40.6533,包头市,市环境监测站,颗粒物(PM10),90,105,73,46,32,10,10,134,88,93,26,6,9,0.7,0.6
2026-05-23T0000,1587A,109.9992,40.5843,包头市,包头八中,颗粒物(PM10),102,124,77,46,35,10,10,125,80,85,26,9,11,0.5,0.5
2026-05-23T0000,1589A,109.8641,40.6288,包头市,惠龙物流,颗粒物(PM10),85,98,64,40,31,16,16,128,93,83,20,8,10,0.6,0.4
2026-05-23T0000,1590A,110.0376,40.5546,包头市,东河鸿龙湾,细颗粒物(PM2.5),88,89,58,54,31,3,3,128,88,71,19,7,6,0.8,0.5
2026-05-23T0000,3283A,109.9154,40.5684,包头市,滨河大厦,颗粒物(PM10),67,73,60,29,29,47,47,126,93,59,24,8,7,0.4,0.4
2026-05-23T0000,3419A,109.9449,40.6259,包头市,包头市委党校,颗粒物(PM10),75,85,62,36,35,19,19,134,97,86,23,8,10,0.4,0.5
2026-05-23T0000,3683A,109.8332,40.6577,包头市,昆区政府,颗粒物(PM10),100,119,71,42,32,14,14,127,87,104,29,5,9,0.8,0.7
2026-05-23T0000,1931A,107.0802,34.3129,宝鸡市,竹园沟,颗粒物(PM10),88,103,159,40,57,48,48,112,78,10,5,8,8,0.4,0.5
2026-05-23T0000,1933A,107.1429,34.3549,宝鸡市,监测站,颗粒物(PM10),102,123,190,44,68,54,54,118,90,15,10,7,7,0.3,0.3
2026-05-23T0000,1934A,107.1172,34.3759,宝鸡市,技工学校,颗粒物(PM10),102,125,167,47,70,57,57,122,100,14,9,5,5,0.6,0.5
2026-05-23T0000,1936A,107.2025,34.3518,宝鸡市,文理学院,颗粒物(PM10),104,128,179,52,77,61,61,122,98,16,11,6,6,0.5,0.5
2026-05-23T0000,1937A,107.2396,34.3626,宝鸡市,三迪小学,颗粒物(PM10),108,139,190,48,81,52,52,125,97,24,14,7,7,0.5,0.4
2026-05-23T0000,4155A,107.1721,34.3558,宝鸡市,滨河北路,颗粒物(PM10),80,92,134,24,38,54,54,117,92,16,11,8,8,0.6,0.5
2026-05-23T0000,4308A,107.3898,34.3601,宝鸡市,陈仓区北开路21号,颗粒物(PM10),114,155,173,45,57,35,35,109,86,36,13,3,4,0.5,0.4
2026-05-23T0000,1051A,115.4803,38.8568,保定市,游泳馆,,26,26,25,15,16,82,82,115,103,15,9,5,5,0.1,0
2026-05-23T0000,1052A,115.509,38.8895,保定市,华电二区,,29,29,27,8,12,82,82,112,104,17,10,7,4,0.6,0.7
2026-05-23T0000,1053A,115.4588,38.9037,保定市,接待中心,,32,32,30,10,14,98,98,116,110,1,3,3,3,0.2,0.1
2026-05-23T0000,1054A,115.4484,38.8344,保定市,地表水厂,,35,35,34,16,15,79,79,118,105,16,9,1,2,0.3,0.2
2026-05-23T0000,3581A,115.3136,38.9511,保定市,满城区生态环境分局,,25,12,15,11,13,80,80,118,105,5,5,2,2,0.1,0.1
2026-05-23T0000,3582A,115.4709,38.7628,保定市,清苑区第二中学,,24,15,36,9,17,75,75,113,94,16,11,1,2,0.2,0.3
2026-05-23T0000,3583A,115.6231,39.0223,保定市,徐水物探局,,23,23,31,11,18,73,73,112,98,22,11,2,2,0.2,0.3
2026-05-23T0000,4004A,115.4199,38.8665,保定市,双鹰农机,,28,22,22,6,15,87,87,118,106,8,7,3,3,0.1,0.1
2026-05-23T0000,4034A,115.515,38.8589,保定市,植保所站,,37,37,33,7,14,79,79,124,106,22,12,4,3,0.2,0
2026-05-23T0000,2594A,99.1589,25.1137,保山市,市环境监测站,,31,31,32,21,20,73,73,93,84,6,7,7,7,0.3,0.3
2026-05-23T0000,2595A,99.1616,25.1381,保山市,市环保局,,35,28,34,24,27,75,75,94,89,4,5,7,7,0.1,0.1
2026-05-23T0000,1867A,109.1435,21.4085,北海市,海滩公园,颗粒物(PM10),75,85,38,16,8,62,62,72,68,4,7,1,1,0.6,0.6
2026-05-23T0000,1868A,109.0983,21.466,北海市,新市环保局,,21,20,20,8,15,65,65,74,70,5,9,3,2,0.4,0.4
2026-05-23T0000,1869A,109.1775,21.5232,北海市,北海工业园,,18,17,31,9,12,55,55,66,61,3,10,1,5,0.7,0.6
2026-05-23T0000,3400A,109.1844,21.4396,北海市,龙潭自来水厂,,19,17,20,3,7,59,59,68,65,2,6,3,2,0.5,0.6
2026-05-23T0000,1001A,116.3611,39.8786,北京市,万寿西宫,,25,11,24,7,15,78,78,102,98,12,14,3,3,0.6,0.4
2026-05-23T0000,1003A,116.4174,39.9289,北京市,东四,,26,14,25,9,15,81,81,109,104,12,14,3,3,0.6,0.4
2026-05-23T0000,1004A,116.4073,39.8858,北京市,天坛,,19,10,23,6,14,58,58,81,62,15,17,3,2,0.7,0.5
2026-05-23T0000,1005A,116.4622,39.9364,北京市,农展馆,,23,14,26,9,16,73,73,98,93,16,18,3,3,0.7,0.4
2026-05-23T0000,1006A,116.3399,39.9293,北京市,官园,,25,10,21,7,13,79,79,104,101,15,15,4,4,0.5,0.3
2026-05-23T0000,1007A,116.2879,39.9613,北京市,海淀万柳,,25,8,21,3,12,79,79,92,90,17,18,3,3,0.6,0.4
2026-05-23T0000,1008A,116.6635,40.1349,北京市,顺义新城,,18,14,28,7,17,57,57,101,88,18,13,2,2,0.7,0.5
2026-05-23T0000,1009A,116.6275,40.327,北京市,怀柔镇,,18,13,23,8,14,57,57,88,80,15,6,1,1,0.4,0.3
2026-05-23T0000,1010A,116.2295,40.217,北京市,昌平镇,,20,14,19,8,9,62,62,87,83,19,17,3,3,0.6,0.5
2026-05-23T0000,1011A,116.3968,39.982,北京市,奥体中心,,21,13,23,8,14,66,66,91,87,15,15,3,3,0.6,0.4
2026-05-23T0000,3418A,116.8336,40.4095,北京市,密云新城,,19,12,23,6,14,60,60,98,73,10,9,1,1,0.5,0.5
2026-05-23T0000,3671A,116.0879,39.9725,北京市,门头沟三家店,,30,16,20,9,10,94,94,96,94,11,15,2,2,0.4,0.4
2026-05-23T0000,3672A,116.1507,39.8246,北京市,丰台云岗,,21,21,24,9,11,50,50,88,79,18,14,3,3,0.4,0.4
2026-05-23T0000,3674A,115.9578,39.7602,北京市,房山燕山,,25,23,23,14,13,79,79,95,85,14,12,2,1,0.3,0.3
2026-05-23T0000,3675A,116.4669,39.7734,北京市,大兴旧宫,,24,9,31,7,20,74,74,101,96,13,14,3,3,0.8,0.5
2026-05-23T0000,3694A,115.9859,40.4562,北京市,延庆石河营,,29,19,13,12,7,92,92,97,94,7,7,1,1,0.3,0.3
2026-05-23T0000,3695A,116.6151,40.3052,北京市,怀柔新城,,20,13,23,8,15,62,62,83,69,10,10,3,3,0.6,0.5
2026-05-23T0000,3696A,116.2542,39.8764,北京市,丰台小屯,,24,8,22,3,12,76,76,85,81,12,15,3,2,0.6,0.4
2026-05-23T0000,3697A,116.8399,40.3843,北京市,密云镇,,17,13,24,6,14,53,53,102,84,14,10,4,3,0.6,0.5
2026-05-23T0000,4057A,115.9423,40.4431,北京市,延庆百泉,,30,25,13,11,7,93,93,104,100,9,8,1,2,0.4,0.3
2026-05-23T0000,4058A,116.6598,39.9164,北京市,通州新华,,18,16,34,12,22,55,55,91,82,15,17,2,1,0.8,0.5
2026-05-23T0000,4182A,116.1942,39.9158,北京市,石景山八角,,24,14,23,8,12,75,75,102,96,16,13,7,3,0.5,0.4
2026-05-23T0000,4194A,117.078628,40.151726,北京市,平谷新城,,17,9,34,3,22,54,54,88,73,8,8,2,2,0.5,0.6
2026-05-23T0000,1761A,123.8274146,41.31234549,本溪市,大峪,,33,15,16,7,7,105,105,112,106,5,8,6,6,0.4,0.4
2026-05-23T0000,1763A,123.7169,41.3094,本溪市,彩屯,,31,31,26,12,9,88,88,110,90,21,19,12,13,2.2,1.7
2026-05-23T0000,1764A,123.7672166,41.28649327,本溪市,东明,,33,12,23,9,5,105,105,114,106,10,12,5,7,0.5,0.5
2026-05-23T0000,1765A,123.799345,41.266614,本溪市,新立屯,颗粒物(PM10),74,83,20,7,5,107,107,118,106,8,13,7,7,0.4,0.4
2026-05-23T0000,1766A,123.829144,41.336777,本溪市,威宁,,35,35,23,7,8,81,81,111,96,6,10,7,7,0.6,0.6
2026-05-23T0000,2587A,105.287,27.3133,毕节市,八中,,43,37,36,30,26,62,62,100,86,14,10,9,9,0.7,0.6
2026-05-23T0000,2588A,105.3079,27.2987,毕节市,师专,,45,33,32,31,23,68,68,98,86,8,9,12,12,0.6,0.6
2026-05-23T0000,4263A,105.3688,27.3598,毕节市,工业大道,,36,36,39,22,22,69,69,100,87,8,9,10,11,/,/
2026-05-23T0000,1629A,117.9961,37.3604,滨州市,第二水厂,,27,12,44,6,26,85,85,128,83,4,12,5,7,0.3,0.5
2026-05-23T0000,1630A,117.9789,37.3931,滨州市,北中新校,,28,9,40,3,25,87,87,135,87,6,15,4,6,0.2,0.4
2026-05-23T0000,3514A,117.9379,37.3959,滨州市,中海酒店,,27,NA,32,7,26,85,85,140,87,9,16,6,9,0.3,0.4
2026-05-23T0000,3515A,117.9381509,37.35547456,滨州市,开发区一中,,27,9,36,8,27,85,85,131,82,11,15,6,8,0.3,0.5
2026-05-23T0000,3516A,118.0914,37.6938,滨州市,金海六路,,27,NA,38,9,28,85,85,136,76,11,15,5,7,0.4,0.6
2026-05-23T0000,4028A,117.9955,37.3752,滨州市,滨州市西街道办事处,,27,NA,30,6,27,85,85,133,85,2,11,4,5,0.4,0.6
2026-05-23T0000,2311A,115.8071,33.8399,亳州市,污水处理厂,,32,NA,26,22,31,50,50,89,74,12,11,3,4,0.3,0.3
2026-05-23T0000,2312A,115.7789,33.8519,亳州市,三国揽胜宫,,30,29,38,21,27,53,53,87,70,7,9,3,4,0.4,0.3
2026-05-23T0000,3332A,115.7631,33.803,亳州市,亳州学院,,33,NA,22,23,30,71,71,92,80,7,9,3,4,0.4,0.4
2026-05-23T0000,2693A,82.0482,44.8553,博尔塔拉蒙古自治州,市党校,颗粒物(PM10),142,228,64,95,21,72,72,116,99,2,6,2,3,0.1,0.2
2026-05-23T0000,2694A,82.0805,44.8966,博尔塔拉蒙古自治州,市环保局,细颗粒物(PM2.5),205,187,60,155,23,72,72,113,97,3,12,3,3,0.2,0.3
2026-05-23T0000,1071A,116.8733,38.2922,沧州市,沧县城建局,,36,NA,41,25,29,73,73,100,98,11,10,3,4,0.3,0.3
2026-05-23T0000,1072A,116.8462,38.3189,沧州市,电视转播站,,35,32,44,24,26,44,44,85,77,18,15,4,6,0.3,0.4
2026-05-23T0000,1073A,116.8588,38.3161,沧州市,市环保局,,32,32,45,20,29,65,65,101,97,21,16,7,7,0.3,0.4
2026-05-23T0000,3324A,116.8011,38.294,沧州市,河北水利电力学院,,33,NA,34,23,27,70,70,98,91,25,18,1,9,0.3,0.4
2026-05-23T0000,2622A,97.1813,31.1289,昌都市,昌都监测站,,28,9,15,3,4,87,87,102,99,7,9,9,9,0.4,0.4
2026-05-23T0000,3719A,97.1707,31.1428,昌都市,昌都会议中心,,30,8,12,3,5,94,94,113,109,4,4,11,10,0.4,0.4
2026-05-23T0000,2692A,87.2722,44.0298,昌吉回族自治州,新区政务中心,,36,36,30,22,19,24,24,125,108,68,22,6,6,0.7,0.4
2026-05-23T0000,3613A,87.3069,44.0093,昌吉回族自治州,亚心广场,颗粒物(PM10),62,66,42,26,11,53,53,126,111,61,20,7,8,0.9,0.6
2026-05-23T0000,4164A,87.2057,43.9289,昌吉回族自治州,财政所,颗粒物(PM10),55,56,42,18,9,85,85,128,118,12,11,8,8,0.3,0.4
2026-05-23T0000,1120A,125.2874,43.9024,长春市,客车厂,,34,34,28,17,14,72,72,110,91,21,23,6,6,0.4,0.4
2026-05-23T0000,1121A,125.2943,43.8508,长春市,邮电学院,,29,29,24,14,14,78,78,112,93,19,21,7,7,0.3,0.2
2026-05-23T0000,1122A,125.3648,43.8745,长春市,劳动公园,,24,24,24,11,12,71,71,114,95,25,24,7,7,0.4,0.4
2026-05-23T0000,1123A,125.3233,43.8781,长春市,园林处,,25,20,30,14,13,80,80,114,96,16,20,4,4,0.5,0.5
2026-05-23T0000,1124A,125.4604,43.7904,长春市,净月潭,,22,22,18,13,12,66,66,111,86,28,20,6,5,0.4,0.4
2026-05-23T0000,1126A,125.38,43.8422,长春市,经开区环卫处,,22,22,26,12,13,62,62,113,92,31,29,5,5,0.4,0.3
2026-05-23T0000,1127A,125.234,43.7761,长春市,高新区管委会,,22,20,24,13,14,68,68,109,86,21,27,6,6,0.4,0.4
2026-05-23T0000,1128A,125.1695,43.83,长春市,岱山公园,,33,33,26,17,15,70,70,118,93,22,23,4,4,0.4,0.3
2026-05-23T0000,4281A,125.334645,43.916281,长春市,北亚泰大街1068号,,38,38,29,15,14,75,75,110,92,21,26,6,6,0.4,0.4
2026-05-23T0000,1335A,113.082,28.2421,长沙市,经开区环保局,,19,9,22,8,12,58,58,50,43,10,8,3,4,0.5,0.7
2026-05-23T0000,1336A,112.8873,28.2202,长沙市,高开区环保局,,23,6,28,3,16,72,72,69,59,2,6,6,7,0.3,0.5
2026-05-23T0000,1337A,113.0785,28.2012,长沙市,马坡岭,,21,8,22,7,14,65,65,61,54,12,9,5,6,0.6,0.7
2026-05-23T0000,1338A,112.9448,28.1894,长沙市,湖南师范大学,,24,8,26,3,13,74,74,62,56,1,7,5,6,0.6,0.7
2026-05-23T0000,1339A,113.0177,28.1322,长沙市,雨花区环保局,,21,NA,21,8,12,67,67,58,49,2,5,3,4,0.6,0.7
2026-05-23T0000,1340A,112.9795,28.2593,长沙市,伍家岭,,20,12,24,9,14,62,62,61,50,8,10,3,4,0.5,0.6
2026-05-23T0000,1341A,113.002,28.1944,长沙市,火车新站,,17,8,25,3,12,53,53,47,41,8,10,4,5,0.5,0.6
2026-05-23T0000,1342A,112.9846,28.1177,长沙市,天心区环保局,,25,NA,23,8,15,79,79,66,56,6,10,4,6,0.5,0.7
2026-05-23T0000,1343A,112.8906,28.1307,长沙市,湖南中医药大学,,22,11,25,6,14,69,69,67,56,4,10,6,7,0.5,0.7
2026-05-23T0000,1727A,113.1146,36.1547,长治市,清华站,,27,27,21,10,12,84,84,133,104,11,10,7,8,0.6,0.6
2026-05-23T0000,1730A,113.0887,36.2126,长治市,审计局,,33,33,22,12,14,69,69,131,106,16,8,9,9,0.6,0.5
2026-05-23T0000,1731A,113.0845,36.1856,长治市,长治八中,,38,38,25,15,14,70,70,128,102,20,13,10,11,0.6,0.4
2026-05-23T0000,2845A,113.1561,36.1912,长治市,德盛苑,,30,21,20,14,14,94,94,135,115,9,9,9,9,0.5,0.5
2026-05-23T0000,3568A,113.0603,36.0464,长治市,向阳小学,颗粒物(PM10),62,66,53,11,14,60,60,135,99,14,6,10,10,0.6,0.6
2026-05-23T0000,3569A,112.8788,36.315,长治市,屯留一中,,21,21,21,10,14,56,56,115,90,26,10,8,10,0.2,0.3
2026-05-23T0000,4189A,113.113092,36.199482,长治市,英华南巷50号,,35,35,28,12,15,69,69,135,107,19,12,8,8,0.7,0.6
2026-05-23T0000,4190A,113.23666,36.33435,长治市,学府街1号,,41,41,26,6,14,8,8,123,77,63,18,4,5,0.6,0.6
2026-05-23T0000,1854A,111.696,28.9725,常德市,市二中,,32,26,31,22,31,54,54,82,54,6,8,8,9,1.0,1
2026-05-23T0000,3138A,111.7152,29.0288,常德市,武陵区永安,,26,20,30,18,25,55,55,83,59,7,7,6,7,0.5,0.6
2026-05-23T0000,3139A,111.6891,28.9881,常德市,鼎城区玉霞,,40,NA,32,28,33,66,66,82,53,6,9,9,10,0.9,1
2026-05-23T0000,3140A,111.6651,29.0526,常德市,武陵区长庚,,38,NA,31,26,30,61,61,76,61,4,6,8,8,0.8,0.9
2026-05-23T0000,1196A,119.9524,31.7586,常州市,市监测站,细颗粒物(PM2.5),114,87,50,75,31,102,102,176,146,13,18,8,9,0.9,0.9
2026-05-23T0000,1200A,119.9351,31.703,常州市,武进监测站,细颗粒物(PM2.5),88,100,55,54,26,101,101,174,149,12,17,4,7,0.8,0.9
2026-05-23T0000,3002A,119.9701,31.813,常州市,行政中心,细颗粒物(PM2.5),108,NA,38,68,25,105,105,168,144,17,20,6,7,0.5,0.5
2026-05-23T0000,3003A,120.0434,31.7726,常州市,经开区,细颗粒物(PM2.5),105,109,54,65,25,100,100,175,147,24,26,8,5,1.7,1
2026-05-23T0000,3010A,119.8919,31.7892,常州市,钟楼,细颗粒物(PM2.5),102,88,46,62,26,116,116,181,156,18,21,8,9,0.3,0.4
2026-05-23T0000,3429A,119.8595,31.706,常州市,武进经发区,颗粒物(PM10),80,91,51,38,28,98,98,164,140,25,24,12,10,0.9,0.9
2026-05-23T0000,3430A,119.5812,31.7256,常州市,金坛城区,"颗粒物(PM10),细颗粒物(PM2.5)",60,63,39,40,25,113,113,171,150,11,12,7,8,1.1,0.9
2026-05-23T0000,4089A,119.9551,31.863,常州市,崇义南街5-H号,细颗粒物(PM2.5),108,76,42,68,24,110,110,176,150,25,22,8,9,0.8,0.9
2026-05-23T0000,2220A,120.4318,41.588,朝阳市,西梁,,27,15,23,3,20,86,86,114,86,8,11,5,6,0.4,0.5
2026-05-23T0000,2221A,120.452,41.565,朝阳市,河畔小区,,27,10,19,9,15,85,85,118,93,11,10,6,6,0.4,0.5
2026-05-23T0000,2222A,120.4176,41.5648,朝阳市,八里堡,,28,16,24,8,25,89,89,112,88,8,13,3,4,0.5,0.6
2026-05-23T0000,3026A,116.6179,23.6608,潮州市,市政府,,24,24,31,13,19,25,25,68,35,11,13,7,6,0.7,0.7
2026-05-23T0000,4036A,116.646,23.676,潮州市,金山,,18,17,28,12,17,23,23,72,36,7,7,3,2,0.6,0.5
2026-05-23T0000,2473A,113.0116,25.8228,郴州市,市职中,NA,NA,NA,2,NA,0,NA,NA,NA,NA,NA,3,NA,6,NA,1
2026-05-23T0000,2475A,113.0381,25.8074,郴州市,市审计局,,14,NA,8,7,5,43,43,43,43,4,7,2,5,/,/
2026-05-23T0000,2476A,113.0348,25.7757,郴州市,市环保局,,15,9,7,8,4,45,45,48,48,3,4,5,8,0.5,0.5
2026-05-23T0000,4252A,113.0138,25.8011,郴州市,好美居路49号,,14,10,6,3,4,42,42,43,42,3,5,9,8,/,/
2026-05-23T0000,1431A,103.9727,30.7242,成都市,金泉两河,,46,44,46,32,34,60,60,149,118,16,14,2,3,0.5,0.5
2026-05-23T0000,1432A,104.1423,30.6765,成都市,十里店,,40,32,51,28,36,62,62,135,107,12,12,4,4,0.4,0.4
2026-05-23T0000,1433A,104.0594,30.5765,成都市,三瓦窑,细颗粒物(PM2.5),56,NA,44,38,39,48,48,142,105,29,19,2,2,0.6,0.6
2026-05-23T0000,1434A,104.1122,30.6306,成都市,沙河铺,,39,36,47,27,36,57,57,118,94,17,19,2,2,0.2,0.3
2026-05-23T0000,2880A,104.0219,30.6561,成都市,大石西路,,49,41,51,34,40,61,61,135,107,15,17,4,4,0.6,0.7
2026-05-23T0000,3136A,104.2724,30.559,成都市,龙泉驿区区政府,,40,NA,36,28,38,76,76,108,93,4,13,7,7,0.5,0.6
2026-05-23T0000,3357A,104.0028,30.6891,成都市,金博路,,40,NA,41,28,36,71,71,146,118,13,16,6,6,0.6,0.6
2026-05-23T0000,3359A,104.056,30.5228,成都市,华阳,,38,29,46,26,38,68,68,138,109,10,12,2,2,0.5,0.5
2026-05-23T0000,3488A,104.387954,30.746684,成都市,青石路225号,,39,32,42,27,34,54,54,97,81,8,8,2,2,0.5,0.5
2026-05-23T0000,3489A,104.0788,30.4054,成都市,科学城,,28,25,42,19,29,78,78,127,104,5,10,5,5,0.7,0.7
2026-05-23T0000,4011A,103.8505,30.6946,成都市,光华大道三段,细颗粒物(PM2.5),74,NA,48,47,47,87,87,167,148,19,14,4,4,0.5,0.5
2026-05-23T0000,4144A,104.3257,30.6406,成都市,八角井街185号,,30,25,46,21,34,67,67,98,84,8,12,6,6,0.5,0.6
2026-05-23T0000,4224A,104.2433276,30.53529463,成都市,鲸龙路1057号,,26,26,47,10,30,71,71,108,89,14,13,6,7,0.6,0.6
2026-05-23T0000,1062A,117.9531,40.908,承德市,铁路,,18,16,27,3,14,56,56,92,70,9,17,1,2,0.2,0.4
2026-05-23T0000,1063A,117.9397,40.9763,承德市,中国银行,,15,14,24,10,12,42,42,100,69,10,11,2,2,0.3,0.4
2026-05-23T0000,4073A,117.9462,40.95,承德市,杏林街1号,,21,21,21,8,19,36,36,108,78,12,11,2,2,0.2,0.3
2026-05-23T0000,4274A,117.7994,40.9605,承德市,滨河大街98号,,24,10,16,3,12,75,75,110,76,8,7,2,2,0.3,0.4
2026-05-23T0000,2314A,117.4698,30.6617,池州市,池州学院,,21,21,21,10,16,21,21,88,44,16,13,3,4,0.6,0.9
2026-05-23T0000,3237A,117.4918,30.6617,池州市,展览馆,,17,17,27,7,14,23,23,87,45,11,10,2,2,0.3,0.6
2026-05-23T0000,3333A,117.5626,30.695,池州市,第八中学,,12,12,22,6,13,22,22,81,40,12,10,3,4,0.6,0.8
2026-05-23T0000,3334A,117.5037,30.6242,池州市,第十二中学,,13,13,25,6,14,13,13,75,35,15,14,3,3,0.8,0.9
2026-05-23T0000,1744A,118.9229,42.2816,赤峰市,松山一中,,29,6,15,3,14,92,92,112,110,15,16,8,8,0.5,0.6
2026-05-23T0000,1745A,118.9588,42.2733,赤峰市,哈达街,,30,12,15,3,14,95,95,106,105,9,14,9,10,0.5,0.5
2026-05-23T0000,1746A,118.8792,42.2551,赤峰市,天义路,,24,7,11,3,12,75,75,98,95,15,16,6,6,0.3,0.4
2026-05-23T0000,3058A,119.2656,42.0356,赤峰市,银河街,,32,12,34,3,25,100,100,105,92,6,11,11,12,0.8,1
2026-05-23T0000,3286A,118.9359,42.3146,赤峰市,桥北物流园区,,23,12,26,7,13,72,72,92,83,8,14,5,3,0.5,0.6
2026-05-23T0000,2521A,107.3473,22.4137,崇左市,市环保局江州分局,,40,40,30,8,13,0,0,64,34,19,10,1,3,0.6,0.6
2026-05-23T0000,4256A,107.375,22.3736,崇左市,石景林东路7号,,36,36,24,16,13,13,13,68,42,20,11,1,2,0.6,0.6
2026-05-23T0000,3207A,118.31131,32.3033,滁州市,市政府原办公楼,细颗粒物(PM2.5),100,NA,41,60,47,87,87,151,NA,16,20,5,7,0.8,0.7
2026-05-23T0000,3331A,118.3268,32.2633,滁州市,图书馆,细颗粒物(PM2.5),106,88,55,66,34,72,72,152,123,17,17,10,10,0.9,0.7
2026-05-23T0000,4101A,118.3196,32.3335,滁州市,银山路666号,细颗粒物(PM2.5),94,87,57,57,41,60,60,156,123,21,21,6,8,0.5,0.5
2026-05-23T0000,4102A,118.3426,32.2979,滁州市,黄山路555号,细颗粒物(PM2.5),120,94,64,81,45,73,73,162,127,23,18,8,9,0.7,0.6
2026-05-23T0000,2606A,101.5379,25.0492,楚雄彝族自治州,市经济开发区,,38,38,32,24,23,85,85,94,93,6,9,2,2,0.6,0.6
2026-05-23T0000,4153A,101.5536,25.0343,楚雄彝族自治州,团结路562号,,35,NA,29,24,21,94,94,106,104,5,5,3,3,0.5,0.5
2026-05-23T0000,2549A,107.5087,31.2186,达州市,市环境监测站,,25,25,22,11,6,18,18,92,56,31,18,6,6,0.4,0.3
2026-05-23T0000,2550A,107.4988,31.2132,达州市,凤凰小区,,34,34,23,11,6,12,12,86,51,34,18,5,5,0.4,0.3
2026-05-23T0000,2551A,107.5081,31.1987,达州市,达县机关宾馆,,36,36,22,24,10,4,4,87,38,39,24,4,4,0.3,0.3
2026-05-23T0000,2552A,107.4644,31.2124,达州市,市政中心,,34,34,25,17,5,15,15,88,54,40,18,4,5,0.5,0.3
2026-05-23T0000,2614A,100.2168,25.5818,大理白族自治州,大理市环境监测站,,29,24,29,16,18,90,90,98,93,8,7,4,4,0.4,0.4
2026-05-23T0000,2615A,100.1542,25.7055,大理白族自治州,大理古城,,29,29,26,20,15,72,72,95,85,11,7,8,9,0.6,0.5
2026-05-23T0000,1109A,121.6119,38.974,大连市,甘井子,,35,35,21,16,7,76,76,100,94,4,11,7,8,0.5,0.5
2026-05-23T0000,1110A,121.565,38.9509,大连市,周水子,,29,28,22,20,9,81,81,102,96,12,21,3,6,0.3,0.4
2026-05-23T0000,1111A,121.5637,38.8849,大连市,星海三站,,33,33,18,23,8,78,78,107,102,11,11,6,6,0.5,0.5
2026-05-23T0000,1112A,121.6301,38.9117,大连市,青泥洼桥,,32,32,13,16,6,81,81,108,101,10,11,5,6,0.3,0.3
2026-05-23T0000,1113A,121.6248,38.8643,大连市,傅家庄,,25,25,11,13,4,70,70,105,97,9,6,5,5,0.5,0.5
2026-05-23T0000,1114A,121.5117,38.8636,大连市,七贤岭,颗粒物(PM10),53,54,19,24,9,66,66,105,94,15,12,6,6,0.4,0.5
2026-05-23T0000,1116A,121.7507,39.1339,大连市,金州,,30,22,24,21,5,82,82,108,103,8,9,6,7,0.3,0.3
2026-05-23T0000,1117A,121.7811,39.0495,大连市,开发区,,26,26,23,15,9,76,76,97,90,10,22,6,7,0.4,0.5
2026-05-23T0000,1118A,121.9762,39.0631,大连市,双D港,,21,14,11,9,7,66,66,98,92,7,6,5,5,0.3,0.4
2026-05-23T0000,4082A,121.2548,38.8188,大连市,旅顺,,22,22,15,15,7,65,65,92,86,13,13,7,7,0.4,0.4
2026-05-23T0000,1789A,124.8085,46.0381,大庆市,大同区,,34,16,55,11,16,107,107,126,110,7,14,2,2,0.5,0.5
2026-05-23T0000,1790A,125.1166,46.5255,大庆市,龙凤区,,31,24,43,9,19,98,98,113,91,5,13,5,5,0.2,0.2
2026-05-23T0000,1791A,124.8894,46.4007,大庆市,红岗区,,43,43,55,10,19,97,97,118,98,4,10,7,8,0.4,0.4
2026-05-23T0000,1792A,125.1391,46.578,大庆市,萨尔图区,,33,19,42,11,16,104,104,117,97,5,14,4,6,0.2,0.4
2026-05-23T0000,1793A,124.9026,46.6217,大庆市,让胡路区,,33,33,41,15,18,105,105,124,102,3,11,4,4,0.4,0.4
2026-05-23T0000,3481A,125.127,46.6277,大庆市,萨区政府监测点,,36,36,46,9,16,110,110,125,106,2,8,8,9,0.3,0.4
2026-05-23T0000,1723A,113.2926,40.0759,大同市,云冈宾馆,,34,34,40,10,22,98,98,119,113,22,15,7,6,0.6,0.6
2026-05-23T0000,1724A,113.3437,40.0921,大同市,大同大学,,40,40,46,18,22,94,94,117,110,22,15,5,5,0.4,0.5
2026-05-23T0000,1725A,113.2637,40.129,大同市,安家小村,,45,45,60,18,23,115,115,118,118,15,15,8,7,0.6,0.5
2026-05-23T0000,3282A,113.3399,40.0586,大同市,大同市卫生学校,颗粒物(PM10),52,52,47,13,20,85,85,124,114,30,14,8,6,0.5,0.6
2026-05-23T0000,3565A,113.1371,40.1122,大同市,云冈站,,37,37,55,12,23,74,74,112,102,29,11,5,5,0.3,0.4
2026-05-23T0000,3566A,113.1186,40.2556,大同市,图书馆,,46,46,56,14,19,116,116,121,120,12,11,6,6,0.5,0.6
2026-05-23T0000,3567A,113.5931,40.0459,大同市,区一中,,38,29,40,12,14,120,120,132,123,17,12,9,8,0.3,0.3
2026-05-23T0000,4199A,113.2798248,40.09972476,大同市,魏都大道141号,,35,35,52,19,22,103,103,119,115,20,14,5,5,0.4,0.5
2026-05-23T0000,2269A,124.1068,50.4091,大兴安岭地区,科技局,,30,19,35,10,14,96,96,100,91,3,5,8,7,0.3,0.3
2026-05-23T0000,3663A,124.117,50.4279,大兴安岭地区,红旗社区,,35,NA,25,6,12,112,112,115,106,7,10,10,10,0.4,0.4
2026-05-23T0000,1600A,124.33,40.0625,丹东市,江湾东路,,32,22,23,14,13,102,102,109,107,6,12,4,5,0.4,0.4
2026-05-23T0000,1601A,124.4242,40.1513,丹东市,临江后街,,29,26,28,11,10,91,91,108,100,7,12,7,8,0.3,0.4
2026-05-23T0000,1602A,124.3935,40.1461,丹东市,元宝山,颗粒物(PM10),58,61,34,10,10,99,99,107,104,8,12,6,6,0.5,0.5
2026-05-23T0000,1603A,124.3634,40.1093,丹东市,民主桥,,33,33,26,18,13,88,88,103,99,9,12,8,8,0.5,0.4
2026-05-23T0000,3541A,109.5726195,19.51688767,儋州市,第一中学子站,,31,31,19,12,5,25,25,42,37,9,4,5,2,0.5,0.5
2026-05-23T0000,3542A,109.5567,19.5187,儋州市,东坡学校子站,,23,19,17,16,6,22,22,43,38,9,4,7,2,0.6,0.5
2026-05-23T0000,2616A,98.5611,24.4273,德宏傣族景颇族自治州,德宏州监测站,,43,NA,29,30,29,57,57,103,87,12,10,6,6,0.7,0.5
2026-05-23T0000,3677A,98.5887,24.4366,德宏傣族景颇族自治州,芒市人民政府综合楼,颗粒物(PM10),52,52,58,30,32,58,58,103,90,13,12,5,5,0.4,0.3
2026-05-23T0000,1901A,104.424,31.1209,德阳市,东山公园,,39,NA,18,27,25,52,52,83,71,6,6,3,3,0.7,0.7
2026-05-23T0000,1902A,104.3827,31.1318,德阳市,西小区,,39,33,30,27,20,50,50,84,70,13,11,6,5,0.8,0.7
2026-05-23T0000,1904A,104.3553,31.1091,德阳市,耐火材料厂,,43,NA,26,30,22,49,49,98,81,25,11,2,2,0.5,0.5
2026-05-23T0000,4145A,104.4144,31.1495,德阳市,市林业局,,46,33,29,32,23,52,52,98,79,16,11,6,6,0.7,0.6
2026-05-23T0000,1622A,116.3034,37.4675,德州市,儿童乐园,,29,29,42,3,23,76,76,113,90,22,14,7,9,0.5,0.7
2026-05-23T0000,1624A,116.2992,37.4449,德州市,监理站,,27,27,40,6,22,45,45,119,87,49,20,14,13,0.4,0.4
2026-05-23T0000,3066A,116.2722,37.438,德州市,九衢泉纯净水厂,,33,24,40,3,22,21,21,106,64,66,28,10,10,0.7,0.8
2026-05-23T0000,3371A,116.3693,37.44,德州市,开发区人民医院,,36,36,43,10,25,30,30,109,77,38,23,6,8,0.5,0.4
2026-05-23T0000,3511A,116.5687,37.3331,德州市,陵城艺术中心,,34,34,39,14,27,27,27,98,76,33,18,6,7,0.6,0.6
2026-05-23T0000,4292A,116.352738,37.420875,德州市,新河东路,,31,31,36,3,22,13,13,107,72,51,23,8,9,0.6,0.7
2026-05-23T0000,2621A,99.7054,27.8319,迪庆藏族自治州,迪庆州站,,28,28,23,13,12,76,76,89,83,7,9,9,8,0.6,0.5
2026-05-23T0000,3180A,99.7122,27.8129,迪庆藏族自治州,质量技术监督局,,26,18,23,14,13,82,82,95,88,6,10,8,8,0.3,0.4
2026-05-23T0000,4257A,104.6092,35.5962,定西市,将台街,"颗粒物(PM10),细颗粒物(PM2.5)",98,117,185,59,82,85,85,121,108,10,10,4,4,0.2,0.2
2026-05-23T0000,4309A,104.6159,35.5701,定西市,正龙路62号,颗粒物(PM10),106,135,206,41,69,86,86,119,110,10,10,4,4,0.3,0.2
2026-05-23T0000,4071A,114.9883,38.5232,定州市,交通局,,29,21,21,7,9,92,92,112,104,18,14,5,5,0.2,0.4
2026-05-23T0000,4072A,115.0045,38.5136,定州市,第五中学,,31,31,34,13,13,92,92,85,NA,12,12,2,2,0.2,0.3
2026-05-23T0000,1390A,113.7943,23.0132,东莞市,东城石井,,22,20,18,15,11,33,33,67,43,8,14,4,4,0.6,0.6
2026-05-23T0000,1391A,113.7384,22.9659,东莞市,南城西平,,19,19,18,10,9,36,36,67,45,7,12,3,3,0.4,0.4
2026-05-23T0000,3319A,113.7283,23.041,东莞市,万江金泰,,21,21,21,14,15,26,26,66,38,11,11,6,6,0.6,0.6
2026-05-23T0000,4129A,113.8666,23.1062,东莞市,裕兴路,,25,25,22,12,10,29,29,68,39,10,16,6,6,0.6,0.7
2026-05-23T0000,4130A,114.0076,22.9739,东莞市,教育路1号,,36,36,21,16,9,15,15,64,35,21,16,5,4,0.6,0.5
2026-05-23T0000,4131A,113.7981,22.8124,东莞市,长怡路1号,,34,34,22,17,11,27,27,59,35,15,20,4,4,0.6,0.6
2026-05-23T0000,1666A,118.6612,37.4313,东营市,市环保局,细颗粒物(PM2.5),94,NA,49,57,47,46,46,143,82,19,9,1,4,0.3,0.4
2026-05-23T0000,3036A,118.6903,37.4337,东营市,开发区管委会,,48,34,41,33,30,52,52,145,87,28,19,8,9,0.5,0.6
2026-05-23T0000,3365A,118.5721,37.5654,东营市,垦利区民丰路,,22,12,44,3,25,69,69,150,91,10,15,9,10,0.5,0.7
2026-05-23T0000,3498A,118.5063,37.8606,东营市,河口城区,,29,6,39,3,24,91,91,165,96,7,11,6,10,0.7,0.9
2026-05-23T0000,3646A,118.4979,37.4623,东营市,胜利站,NA,NA,NA,43,NA,45,NA,NA,138,NA,NA,19,NA,5,NA,0.4
2026-05-23T0000,3734A,118.5753,37.4405,东营市,理想之城,细颗粒物(PM2.5),68,NA,42,44,34,45,45,142,76,13,12,6,8,0.5,0.6
2026-05-23T0000,1591A,110.0024,39.8127,鄂尔多斯市,综合楼,颗粒物(PM10),103,127,89,31,33,48,48,122,92,56,18,10,5,0.6,0.5
2026-05-23T0000,1592A,109.9485,39.8259,鄂尔多斯市,巴音孟克林场办事处,颗粒物(PM10),62,66,76,16,28,63,63,129,100,38,14,4,5,0.6,0.3
2026-05-23T0000,1593A,109.7734,39.5987,鄂尔多斯市,康泽苑,颗粒物(PM10),56,58,75,19,26,40,40,132,104,28,10,3,4,0.4,0.3
2026-05-23T0000,1594A,109.8121,39.5987,鄂尔多斯市,华泰汽车城,颗粒物(PM10),65,70,72,24,27,16,16,123,91,51,12,5,5,0.7,0.4
2026-05-23T0000,1595A,109.9734,39.7884,鄂尔多斯市,奥林花园,颗粒物(PM10),83,95,84,30,31,8,8,126,83,79,18,4,4,0.6,0.4
2026-05-23T0000,2436A,114.894,30.3989,鄂州市,市政府,,14,14,45,3,21,42,42,114,74,10,13,4,6,0.7,0.8
2026-05-23T0000,2437A,114.8986,30.3714,鄂州市,赵家坝,,16,13,38,3,19,49,49,127,82,5,10,4,6,0.7,0.8
2026-05-23T0000,3654A,114.8093,30.4091,鄂州市,精准医疗中心,,14,13,31,3,18,44,44,114,75,14,14,4,5,0.8,0.8
2026-05-23T0000,2454A,109.4978,30.2979,恩施土家族苗族自治州,湖北民院,,33,33,26,10,9,42,42,109,81,4,4,8,8,0.5,0.4
2026-05-23T0000,3549A,109.5061,30.3771,恩施土家族苗族自治州,龙凤新区,,21,21,14,3,9,19,19,92,56,6,6,7,7,0.4,0.4
2026-05-23T0000,2499A,108.3411,21.6159,防城港市,沙万,,25,25,30,10,11,43,43,39,39,14,16,3,4,0.6,0.6
2026-05-23T0000,2500A,108.3515,21.7733,防城港市,防城档案局,,26,26,27,9,12,45,45,47,46,6,11,4,4,0.5,0.6
2026-05-23T0000,2501A,108.3506,21.6414,防城港市,大海花园,,21,21,27,10,13,59,59,49,49,4,10,4,6,0.5,0.6
2026-05-23T0000,1371A,113.1293,23.0065,佛山市,湾梁,,22,19,18,15,9,19,19,59,28,11,16,/,/,/,/
2026-05-23T0000,1372A,113.1082,23.0477,佛山市,华材职中,,22,NA,13,15,11,18,18,60,28,10,12,5,5,0.3,0.3
2026-05-23T0000,1373A,113.1439,23.045,佛山市,南海气象局,,22,22,22,14,11,16,16,60,26,20,20,/,/,/,/
2026-05-23T0000,1374A,113.2879,22.8094,佛山市,顺德苏岗,,23,NA,7,16,12,22,22,52,31,10,12,/,/,0.4,0.4
2026-05-23T0000,1376A,112.8384,22.8678,佛山市,高明孔堂,,24,24,13,8,6,30,30,41,33,6,7,/,/,/,/
2026-05-23T0000,1377A,112.8835,23.1584,佛山市,三水监测站,,25,NA,14,17,13,10,10,52,19,18,22,4,3,0.6,0.5
2026-05-23T0000,1378A,112.8668,23.185,佛山市,三水云东海,,29,29,37,16,12,2,2,53,18,18,18,/,/,/,/
2026-05-23T0000,3625A,113.2568,22.7629,佛山市,容桂街道办,NA,NA,NA,12,15,12,NA,NA,49,NA,13,16,/,/,/,/
2026-05-23T0000,1282A,119.2681,26.0506,福州市,师大,,23,23,30,12,18,16,16,51,43,15,19,3,3,0.3,0.3
2026-05-23T0000,1283A,119.2983,26.1028,福州市,五四北路,,29,NA,19,20,15,14,14,49,33,25,20,4,4,0.4,0.3
2026-05-23T0000,1284A,119.2648,26.0769,福州市,杨桥西路,,24,24,21,13,12,10,10,52,41,20,17,3,3,/,/
2026-05-23T0000,3048A,119.5799,26.0937,福州市,九龙,,38,35,21,26,20,4,4,56,23,18,12,5,5,0.3,0.3
2026-05-23T0000,3526A,119.5188,25.9666,福州市,吴航,,45,45,34,28,21,24,24,58,44,17,18,5,6,0.5,0.5
2026-05-23T0000,4104A,119.3106,26.0648,福州市,路通桥巷6号,细颗粒物(PM2.5),58,45,32,39,22,17,17,54,43,34,18,/,/,/,/
2026-05-23T0000,1755A,123.7974,41.8494,抚顺市,望花区,,31,31,28,12,12,80,80,107,85,20,22,16,13,0.5,0.5
2026-05-23T0000,1756A,123.9161,41.8827,抚顺市,顺城区,,34,22,19,8,8,106,106,112,101,10,23,10,10,0.6,0.6
2026-05-23T0000,1757A,124.0437,41.8615,抚顺市,东洲区,,33,14,21,12,6,105,105,112,105,8,17,11,9,0.4,0.4
2026-05-23T0000,1758A,123.9246,41.8638,抚顺市,新抚区,,35,29,31,11,11,111,111,120,106,9,21,8,8,0.7,0.5
2026-05-23T0000,1759A,124.0972,41.8961,抚顺市,大伙房水库,,34,23,17,12,7,108,108,116,110,11,14,9,9,0.4,0.3
2026-05-23T0000,1760A,123.708,41.8386,抚顺市,沈抚新城,,22,22,28,3,12,70,70,109,86,25,23,9,11,0.5,0.6
2026-05-23T0000,2377A,116.3544,27.9833,抚州市,市站,,15,15,15,7,5,22,22,36,28,7,6,7,7,0.7,0.7
2026-05-23T0000,2378A,116.3562,27.9631,抚州市,血防站,,18,18,16,3,4,20,20,35,27,8,7,3,3,0.6,0.6
2026-05-23T0000,2379A,116.3561,28.0007,抚州市,采茶剧团,,15,15,16,6,5,21,21,43,35,8,6,7,9,0.5,0.5
2026-05-23T0000,2380A,116.3854,27.9648,抚州市,医学分院,,28,28,20,8,4,18,18,35,24,9,7,6,6,0.8,0.8
2026-05-23T0000,2207A,121.6095,41.9978,阜新市,工业园区,,26,11,17,3,7,81,81,110,86,10,10,14,10,0.3,0.4
2026-05-23T0000,2208A,121.6567,42.0188,阜新市,长青街,,26,12,16,6,9,81,81,113,81,9,11,10,8,0.4,0.4
2026-05-23T0000,2209A,121.6672,42.07,阜新市,农业园区,,26,14,20,3,7,81,81,117,83,10,11,8,6,0.4,0.5
2026-05-23T0000,2211A,121.6343,42.0455,阜新市,玉龙新城,,24,12,23,3,7,74,74,112,79,9,10,7,7,0.5,0.5
2026-05-23T0000,2301A,115.8276,32.8929,阜阳市,市监测站,细颗粒物(PM2.5),60,47,64,40,47,58,58,111,77,16,16,6,6,0.4,0.4
2026-05-23T0000,2303A,115.8551,32.8606,阜阳市,开发区,细颗粒物(PM2.5),144,NA,77,108,75,58,58,111,79,10,17,4,4,0.7,0.7
2026-05-23T0000,2875A,115.783962,32.889217,阜阳市,阜阳职业技术学院,,50,42,56,35,48,66,66,111,84,8,11,5,6,0.6,0.6
2026-05-23T0000,3468A,115.79,32.8614,阜阳市,市规划展馆,细颗粒物(PM2.5),52,37,60,36,48,67,67,117,90,11,14,6,8,0.8,0.7
2026-05-23T0000,3469A,115.835101,32.918568,阜阳市,枣园社区,细颗粒物(PM2.5),98,NA,62,59,46,55,55,112,76,11,13,6,6,0.6,0.6
2026-05-23T0000,2669A,102.9097,34.9841,甘南藏族自治州,州政府,,26,12,47,11,26,82,82,88,74,9,12,3,2,0.2,0.2
2026-05-23T0000,3380A,102.8915,34.9618,甘南藏族自治州,甘肃民族师范学院,,25,25,53,14,24,80,80,83,67,10,19,1,2,0.1,0.1
2026-05-23T0000,2570A,101.96,30.048,甘孜藏族自治州,水桥子,,28,28,24,16,11,43,43,95,76,31,15,6,7,0.3,0.2
2026-05-23T0000,3065A,101.9534,29.9976,甘孜藏族自治州,州环保局,,42,42,24,17,11,25,25,95,72,42,15,5,5,0.2,0.4
2026-05-23T0000,2363A,114.9368,25.8663,赣州市,地委,,17,17,15,7,4,39,39,39,34,4,8,2,3,0.7,0.8
2026-05-23T0000,2364A,114.946,25.8483,赣州市,气象台,,18,18,17,12,7,42,42,44,40,6,8,4,3,0.3,0.2
2026-05-23T0000,2365A,114.932,25.8332,赣州市,市图书馆,,16,NA,11,8,5,51,51,49,46,5,7,6,4,0.6,0.5
2026-05-23T0000,2366A,114.8905,25.8472,赣州市,华坚鞋城,,19,19,18,3,4,37,37,41,34,8,9,8,6,0.6,0.5
2026-05-23T0000,3109A,115.0094,25.8614,赣州市,赣县区卫计委,NA,NA,37,20,6,6,NA,NA,52,NA,16,11,2,2,0.7,0.8
2026-05-23T0000,2684A,106.2753,36.0057,固原市,监测站,颗粒物(PM10),80,91,147,29,54,82,82,131,115,16,11,8,8,0.4,0.4
2026-05-23T0000,2685A,106.2384,36.0189,固原市,新区,颗粒物(PM10),80,92,139,31,42,79,79,127,111,13,11,6,6,0.5,0.4
2026-05-23T0000,2544A,106.6307,30.4577,广安市,市委,,28,19,13,19,11,51,51,110,90,7,6,8,8,0.4,0.4
2026-05-23T0000,2545A,106.6266,30.4662,广安市,友谊中学,,22,19,15,15,11,62,62,109,90,7,7,8,9,0.5,0.5
2026-05-23T0000,2547A,106.6386,30.4551,广安市,广电花园,,28,NA,12,19,11,54,54,114,NA,6,9,6,7,0.4,0.4
2026-05-23T0000,2902A,106.6347,30.4868,广安市,北辰小学,,25,NA,16,17,11,76,76,110,97,6,7,7,6,0.4,0.4
2026-05-23T0000,2524A,105.8211,32.4444,广元市,老城,细颗粒物(PM2.5),54,41,20,37,8,11,11,91,45,28,12,2,2,0.7,0.6
2026-05-23T0000,2526A,105.8629,32.429,广元市,监测站,颗粒物(PM10),56,58,31,23,6,18,18,86,47,17,12,6,5,0.7,0.7
2026-05-23T0000,3617A,105.8047,32.4167,广元市,经开区,,46,46,17,26,10,5,5,85,42,34,15,4,4,0.8,0.6
2026-05-23T0000,1345A,113.2346,23.1423,广州市,广雅中学,NA,NA,23,16,15,11,NA,NA,60,31,17,17,2,1,0.5,0.4
2026-05-23T0000,1346A,113.2611,23.105,广州市,市五中,,26,26,18,17,12,17,17,70,33,17,18,6,4,/,/
2026-05-23T0000,1348A,113.3477,23.0916,广州市,广东商学院,细颗粒物(PM2.5),54,NA,17,37,20,21,21,66,34,24,24,4,4,0.5,0.6
2026-05-23T0000,1349A,113.4332,23.105,广州市,市八十六中,,18,18,11,12,11,8,8,58,24,26,28,6,6,/,/
2026-05-23T0000,1350A,113.3506,22.9488,广州市,番禺中学,,21,21,18,13,11,21,21,67,35,16,19,4,4,0.6,0.5
2026-05-23T0000,1351A,113.2147,23.3918,广州市,花都师范,,24,24,20,13,13,13,13,60,24,24,27,7,6,0.6,0.6
2026-05-23T0000,1352A,113.2599,23.1329,广州市,市监测站,,24,24,15,13,11,19,19,64,33,3,10,4,3,/,/
2026-05-23T0000,1353A,113.5618,23.3119,广州市,九龙镇镇龙,,29,29,21,17,14,2,2,65,22,33,25,7,6,0.5,0.5
2026-05-23T0000,1354A,113.2764,23.1544,广州市,麓湖,,20,20,16,14,12,21,21,68,34,12,16,6,6,0.7,0.7
2026-05-23T0000,2846A,113.3209,23.1323,广州市,体育西,,24,24,19,13,10,14,14,68,33,19,20,5,5,0.5,0.5
2026-05-23T0000,3298A,113.5718,23.5493,广州市,从化街口,,24,24,22,15,14,13,13,68,31,21,18,6,6,0.5,0.6
2026-05-23T0000,3299A,113.3463,23.369,广州市,白云竹料,,24,24,24,14,15,11,11,66,26,23,22,3,3,0.6,0.6
2026-05-23T0000,3300A,113.2981,23.2365,广州市,白云嘉禾,,38,38,21,17,12,14,14,63,28,20,25,7,6,/,/
2026-05-23T0000,3301A,113.4256,23.1716,广州市,黄埔科学城,NA,NA,21,22,12,16,NA,NA,52,25,17,21,8,8,0.6,0.6
2026-05-23T0000,3302A,113.3942,23.0485,广州市,番禺大学城,,16,16,14,11,9,26,26,77,44,18,18,4,4,0.6,0.5
2026-05-23T0000,3303A,113.4923,22.8169,广州市,南沙黄阁,,19,19,16,13,11,21,21,57,30,13,12,6,6,/,/
2026-05-23T0000,3304A,113.534,22.7893,广州市,南沙街,,23,23,16,14,11,24,24,53,33,16,15,6,7,0.5,0.5
2026-05-23T0000,3443A,113.2905,23.5541,广州市,花都梯面,,24,24,22,12,13,8,8,43,21,25,20,10,9,/,/
2026-05-23T0000,3445A,113.786,23.7479,广州市,从化良口,,24,24,17,11,9,5,5,57,30,21,12,4,4,/,/
2026-05-23T0000,3446A,113.805,23.2614,广州市,增城荔城,,23,23,20,13,12,25,25,72,41,8,11,6,6,0.5,0.4
2026-05-23T0000,2506A,109.604387,23.066791,贵港市,江南子站,,12,12,20,6,12,38,38,64,52,14,10,2,3,0.5,0.5
2026-05-23T0000,2508A,109.5669,23.1065,贵港市,荷城子站,,39,39,21,17,12,22,22,55,41,28,15,3,5,0.6,0.6
2026-05-23T0000,3405A,109.5886,23.1172,贵港市,新世纪学校,,31,31,24,16,12,31,31,60,49,17,14,/,/,0.4,0.5
2026-05-23T0000,4260A,109.5933,23.095,贵港市,中山路155-3号,,27,27,30,6,17,30,30,68,53,23,12,/,/,0.6,0.6
2026-05-23T0000,1439A,106.6863,26.6035,贵阳市,马鞍山,,19,19,17,13,11,55,55,82,69,8,8,7,6,/,/
2026-05-23T0000,1441A,106.6241,26.6266,贵阳市,鉴湖路,,27,27,29,13,9,79,79,87,81,6,8,7,8,0.4,0.6
2026-05-23T0000,1442A,106.7468,26.6344,贵阳市,燕子冲,,27,27,26,14,10,46,46,79,65,11,10,7,9,0.6,0.6
2026-05-23T0000,1443A,106.6556,26.4362,贵阳市,碧云窝,,29,29,30,6,9,51,51,71,63,7,6,8,9,/,/
2026-05-23T0000,1445A,106.6963,26.6063,贵阳市,红边门,,24,24,21,9,10,42,42,76,61,15,11,5,6,/,/
2026-05-23T0000,1446A,106.7162383,26.56964667,贵阳市,新华路,,39,39,29,13,10,34,34,77,60,23,12,15,41,0.4,0.5
2026-05-23T0000,1447A,106.6742,26.542,贵阳市,太慈桥,,27,27,21,13,10,26,26,69,56,25,8,3,4,/,/
2026-05-23T0000,4230A,106.688212,26.56952,贵阳市,花果园大街66号,,18,NA,7,10,9,55,55,80,69,8,8,1,2,/,/
2026-05-23T0000,4231A,106.687268,26.516892,贵阳市,漓江路57号,,19,19,18,11,10,37,37,61,49,10,9,3,4,0.5,0.5
2026-05-23T0000,1864A,110.3091,25.2705,桂林市,龙隐路小学,,32,32,18,18,10,21,21,45,26,12,9,3,3,0.7,0.7
2026-05-23T0000,1865A,110.2849361,25.22909545,桂林市,八中,,24,24,17,12,7,16,16,36,22,18,15,3,3,0.4,0.4
2026-05-23T0000,3531A,110.296,25.1254,桂林市,旅游学院,,25,25,17,14,8,14,14,34,18,11,6,6,6,0.3,0.3
2026-05-23T0000,4222A,110.1835,25.2444,桂林市,环湖路276号,,25,24,14,17,10,2,2,36,20,28,12,3,3,0.6,0.3
2026-05-23T0000,4301A,110.2803,25.2773,桂林市,信义路13号,,30,30,21,21,11,0,0,33,13,23,15,3,3,0.8,0.6
2026-05-23T0000,2674A,100.2262,34.4854,果洛藏族自治州,玛沁县大武镇,,37,37,44,13,14,72,72,105,97,3,3,20,20,0.4,0.3
2026-05-23T0000,1130A,126.5557,45.8109,哈尔滨市,松北商大,,25,18,28,16,15,79,79,126,105,20,18,6,6,0.4,0.5
2026-05-23T0000,1132A,126.6162,45.719,哈尔滨市,南岗学府路,,34,34,39,16,11,80,80,125,108,26,18,8,8,0.6,0.5
2026-05-23T0000,1133A,126.6894,45.7733,哈尔滨市,太平宏伟公园,,25,22,49,12,14,77,77,122,105,28,25,7,7,0.2,0.2
2026-05-23T0000,1134A,126.6361,45.7672,哈尔滨市,道外承德广场,,34,34,52,15,12,80,80,117,101,27,24,5,5,0.5,0.6
2026-05-23T0000,1136A,126.644,45.7261,哈尔滨市,动力和平路,,31,31,43,10,13,75,75,119,103,28,19,8,8,0.4,0.4
2026-05-23T0000,1137A,126.5933,45.7479,哈尔滨市,道里建国路,,29,14,34,12,16,90,90,128,111,28,24,6,6,1.3,0.9
2026-05-23T0000,1138A,126.6127,45.6119,哈尔滨市,平房东轻厂,,28,16,22,10,11,89,89,127,107,12,11,11,10,0.6,0.5
2026-05-23T0000,1139A,126.5875,45.9827,哈尔滨市,呼兰师专,,27,12,40,3,9,84,84,116,105,21,19,6,6,0.4,0.4
2026-05-23T0000,1140A,126.6299,45.6799,哈尔滨市,省农科院,,31,31,81,8,20,59,59,114,94,37,30,8,8,0.5,0.5
2026-05-23T0000,4282A,126.6769,45.7379,哈尔滨市,华山路1号,,28,27,43,12,13,88,88,131,114,24,19,8,9,0.2,0.2
2026-05-23T0000,4283A,126.9717,45.5356,哈尔滨市,解放大街52号,,37,37,32,13,5,64,64,122,99,33,17,4,3,0.4,0.4
2026-05-23T0000,2688A,93.5124,42.8176,哈密市,地区监测站,颗粒物(PM10),93,109,60,55,27,54,54,119,85,46,21,3,4,0.4,0.2
2026-05-23T0000,2689A,93.5014,42.8312,哈密市,哈密师范学校,"颗粒物(PM10),细颗粒物(PM2.5)",104,128,77,64,28,44,44,120,79,47,26,5,4,0.5,0.3
2026-05-23T0000,2671A,100.9016,36.9464,海北藏族自治州,海晏县西海镇,细颗粒物(PM2.5),108,134,62,68,30,115,115,132,127,2,3,7,9,0.5,0.4
2026-05-23T0000,3867A,102.074,36.5056,海东市,平安区公安局北苑,细颗粒物(PM2.5),126,142,218,88,132,NA,NA,121,118,20,10,28,16,0.6,0.5
2026-05-23T0000,4163A,102.0984,36.5119,海东市,滨河路,颗粒物(PM10),115,157,239,71,101,63,63,98,89,55,23,29,14,0.7,0.6
2026-05-23T0000,1410A,110.3189,20.0596,海口市,海南大学,,21,21,19,14,10,36,36,58,45,6,4,5,4,0.4,0.3
2026-05-23T0000,1411A,110.2827,20.0051,海口市,秀英海南医院,,20,20,15,13,10,37,37,58,42,6,9,5,5,0.3,0.3
2026-05-23T0000,1412A,110.3391,19.9979,海口市,海南师范大学,,25,25,22,10,10,34,34,52,41,6,5,3,3,0.3,0.3
2026-05-23T0000,1413A,110.3303,20.0359,海口市,龙华路环保局宿舍,,27,27,22,11,10,34,34,53,42,6,5,/,/,0.3,0.3
2026-05-23T0000,3539A,110.5111,19.9737,海口市,桂林洋子站,,29,29,21,10,10,34,34,48,38,5,5,/,/,/,/
2026-05-23T0000,4134A,110.1952,20.0451,海口市,长滨二路9号,,17,17,15,11,7,33,33,68,44,4,5,/,/,/,/
2026-05-23T0000,2673A,100.6158,36.2985,海南藏族自治州,共和县恰卜恰镇,细颗粒物(PM2.5),183,NA,84,138,52,101,101,114,106,2,8,10,9,0.3,0.3
2026-05-23T0000,2676A,97.373,37.376,海西蒙古族藏族自治州,德令哈市,颗粒物(PM10),55,57,69,26,23,114,114,121,115,2,5,19,19,0.3,0.4
2026-05-23T0000,1049A,114.492,36.5712,邯郸市,矿院,,29,23,25,20,16,55,55,119,99,28,8,3,3,0.3,0.3
2026-05-23T0000,1050A,114.4839,36.6136,邯郸市,丛台公园,,25,22,23,3,12,80,80,112,102,11,5,3,4,0.3,0.3
2026-05-23T0000,3458A,114.7893,36.5592,邯郸市,香泉濮院小区,,25,19,33,9,19,78,78,114,97,18,12,3,3,0.2,0.3
2026-05-23T0000,3580A,114.1998,36.4439,邯郸市,峰峰矿区临水派出所,,49,40,33,34,22,63,63,112,104,9,3,5,4,0.8,0.5
2026-05-23T0000,4068A,114.5209,36.7697,邯郸市,建安街268号,,33,33,29,10,13,31,31,114,81,55,15,3,3,0.3,0.3
2026-05-23T0000,4069A,114.5488,36.6177,邯郸市,丛台东路558号,,32,32,24,7,13,47,47,111,79,35,16,3,2,0.3,0.3
2026-05-23T0000,2635A,107.0155,33.0707,汉中市,市监测站,颗粒物(PM10),57,59,20,38,11,22,22,92,71,16,8,4,4,0.8,0.7
2026-05-23T0000,2636A,107.0083,33.114,汉中市,鑫源开发区,,39,27,22,27,13,22,22,92,62,20,11,5,5,0.7,0.6
2026-05-23T0000,2637A,107.0072,33.0323,汉中市,南郑大河坎水厂,细颗粒物(PM2.5),100,66,20,60,12,15,15,86,61,14,10,3,3,0.8,0.6
2026-05-23T0000,1223A,120.2073,30.2111,杭州市,滨江,细颗粒物(PM2.5),110,99,88,71,66,34,34,113,86,46,32,8,8,1.0,0.8
2026-05-23T0000,1224A,120.0625,30.2737,杭州市,西溪,细颗粒物(PM2.5),100,66,68,60,63,18,18,87,55,20,18,4,4,1.2,1.1
2026-05-23T0000,1226A,120.3417,30.315,杭州市,下沙,细颗粒物(PM2.5),76,55,52,48,49,42,42,129,91,44,21,5,4,0.8,0.8
2026-05-23T0000,1227A,120.1252,30.2465,杭州市,卧龙桥,细颗粒物(PM2.5),80,55,72,50,54,13,13,99,58,19,22,8,8,0.7,0.6
2026-05-23T0000,1228A,120.1902,30.2691,杭州市,浙江农大,细颗粒物(PM2.5),119,NA,65,80,72,44,44,116,96,38,28,6,6,0.6,0.6
2026-05-23T0000,1230A,120.1195,30.3121,杭州市,和睦小学,细颗粒物(PM2.5),109,NA,68,69,71,44,44,122,98,37,23,8,7,0.7,0.6
2026-05-23T0000,1231A,120.3076,30.4146,杭州市,临平镇,细颗粒物(PM2.5),76,82,71,48,42,48,48,139,107,33,13,7,6,0.7,0.6
2026-05-23T0000,1232A,120.2753,30.1839,杭州市,城厢镇,细颗粒物(PM2.5),122,NA,83,84,80,16,16,118,86,72,35,8,7,1.0,0.8
2026-05-23T0000,1233A,120.0883,30.1808,杭州市,云栖,细颗粒物(PM2.5),72,56,80,46,65,6,6,91,49,21,27,8,8,1.1,1
2026-05-23T0000,3557A,119.9463,30.0496,杭州市,镇二中,细颗粒物(PM2.5),116,78,82,77,70,10,10,96,68,62,32,4,5,0.8,0.7
2026-05-23T0000,3558A,119.7184,30.2367,杭州市,市府大楼,细颗粒物(PM2.5),78,NA,47,49,61,25,25,77,49,20,19,7,6,0.6,0.6
2026-05-23T0000,3656A,120.1554,30.2863,杭州市,消防大队,细颗粒物(PM2.5),113,NA,72,74,68,34,34,114,88,51,29,6,6,0.9,0.8
2026-05-23T0000,1270A,117.1957,31.7845,合肥市,明珠广场,细颗粒物(PM2.5),58,46,58,39,40,50,50,137,70,28,23,6,8,0.8,0.8
2026-05-23T0000,1271A,117.307,31.8765,合肥市,三里街,,35,31,50,24,37,49,49,115,80,26,22,7,8,0.7,0.7
2026-05-23T0000,1272A,117.2587,31.8703,合肥市,琥珀山庄,,22,22,48,12,33,60,60,126,82,15,16,5,6,0.8,0.8
2026-05-23T0000,1275A,117.2593,31.9376,合肥市,庐阳区,,27,27,45,17,32,39,39,125,77,32,20,9,9,0.7,0.7
2026-05-23T0000,1276A,117.345251,31.861615,合肥市,瑶海区,,32,27,55,22,34,65,65,126,91,23,22,7,8,0.7,0.8
2026-05-23T0000,1277A,117.3033,31.7967,合肥市,包河区,,34,34,62,21,37,35,35,125,52,52,50,8,9,0.7,0.8
2026-05-23T0000,1278A,117.278,31.7392,合肥市,滨湖新区,颗粒物(PM10),62,66,59,32,36,41,41,135,90,40,17,9,9,0.9,0.8
2026-05-23T0000,1279A,117.1324,31.8395,合肥市,高新区,,39,39,57,27,31,80,80,131,88,14,14,6,7,0.8,0.7
2026-05-23T0000,3464A,117.3802,31.9148,合肥市,高教基地,,31,31,50,15,31,52,52,118,81,10,12,8,10,0.6,0.7
2026-05-23T0000,4098A,117.2518,31.8404,合肥市,中国科学技术大学,,25,22,52,14,33,79,79,139,94,12,17,7,9,0.7,0.8
2026-05-23T0000,3614A,79.9241,37.0878,和田地区,地区环保局,颗粒物(PM10),500,1020,1662,348,581,44,44,71,62,17,8,2,2,0.7,0.5
2026-05-23T0000,3615A,79.9132,37.1137,和田地区,市环保局,颗粒物(PM10),500,994,1615,358,577,51,51,77,65,24,10,2,2,0.5,0.3
2026-05-23T0000,2517A,108.0496,24.6957,河池市,市环保站,,17,17,25,3,8,40,40,56,52,6,7,6,6,0.6,0.7
2026-05-23T0000,4302A,108.0901,24.6945,河池市,上任中路54号,,17,15,22,3,7,52,52,64,61,6,7,8,7,0.8,0.8
2026-05-23T0000,1697A,114.6962,23.7538,河源市,东埔,,26,26,20,14,15,27,27,84,56,13,11,3,3,0.5,0.5
2026-05-23T0000,1698A,114.6895,23.7232,河源市,老城,,31,31,21,17,18,25,25,87,57,20,14,3,4,0.8,0.7
2026-05-23T0000,3374A,115.5562,35.089,菏泽市,定陶老年大学,,23,19,38,16,26,45,45,106,75,16,13,4,4,0.4,0.5
2026-05-23T0000,4114A,115.4239,35.2593,菏泽市,黄河路600号,,38,30,36,26,26,46,46,92,60,9,9,5,5,0.3,0.4
2026-05-23T0000,4115A,115.5025,35.2727,菏泽市,菏泽市人社局,,23,NA,36,16,29,55,55,93,61,13,13,7,7,0.2,0.3
2026-05-23T0000,4184A,115.479691,35.244011,菏泽市,永昌路1号,,22,19,37,15,28,63,63,100,69,11,10,6,5,0.3,0.3
2026-05-23T0000,4193A,115.471542,35.280012,菏泽市,长城路999号,,25,NA,31,17,26,57,57,100,63,11,11,5,5,0.2,0.3
2026-05-23T0000,2514A,111.5264,24.4178,贺州市,环保小区,,18,14,17,12,10,29,29,43,36,9,10,8,8,0.4,0.4
2026-05-23T0000,2515A,111.561,24.4074,贺州市,政协大楼,,16,NA,10,11,10,30,30,51,41,13,13,13,11,0.6,0.6
2026-05-23T0000,3534A,111.4744,24.455,贺州市,西湾,,32,32,22,8,8,24,24,45,34,14,13,10,7,0.5,0.5
2026-05-23T0000,2385A,114.17,35.9019,鹤壁市,市监测站,,42,33,38,29,33,32,32,84,64,21,12,5,4,0.6,0.7
2026-05-23T0000,2386A,114.2953,35.7512,鹤壁市,市交警支队,颗粒物(PM10),52,52,38,33,25,30,30,87,72,24,17,9,7,1.2,0.7
2026-05-23T0000,2387A,114.2877,35.7302,鹤壁市,迎宾馆,,50,50,44,24,23,32,32,92,76,20,14,6,8,1.0,0.6
2026-05-23T0000,3474A,114.2616,35.6824,鹤壁市,大新区,细颗粒物(PM2.5),56,51,35,38,28,26,26,98,79,35,15,8,8,1.0,0.6
2026-05-23T0000,3596A,114.1573,35.9607,鹤壁市,南山宾馆,,49,NA,40,34,33,46,46,88,74,9,12,8,7,0.6,0.4
2026-05-23T0000,2244A,130.2537,47.3416,鹤岗市,哈啤分公司,,29,29,31,18,20,78,78,130,106,12,14,10,9,0.2,0.3
2026-05-23T0000,2245A,130.2683,47.3087,鹤岗市,斯达机电,,32,32,36,10,17,84,84,137,110,10,13,9,9,0.3,0.3
2026-05-23T0000,2246A,130.3114,47.3388,鹤岗市,东山纸板厂,,47,47,70,15,25,68,68,120,93,15,20,9,11,0.2,0.4
2026-05-23T0000,2263A,127.4832,50.2524,黑河市,交通局,,32,32,38,13,16,101,101,112,102,6,11,6,6,0.3,0.4
2026-05-23T0000,2264A,127.5146,50.2339,黑河市,环保局,,34,18,35,13,16,108,108,115,106,7,10,8,8,0.3,0.3
2026-05-23T0000,1074A,115.6839,37.754,衡水市,电机北厂,,35,35,36,13,20,87,87,119,107,15,10,2,3,0.1,0.3
2026-05-23T0000,1075A,115.6303,37.7318,衡水市,市监测站,,24,21,34,3,16,74,74,113,100,16,12,4,5,0.4,0.5
2026-05-23T0000,3188A,115.6684,37.7216,衡水市,市城管局,,31,31,33,9,20,82,82,114,100,13,12,1,2,0.1,0.2
2026-05-23T0000,3459A,115.599,37.5491,衡水市,地表水厂,颗粒物(PM10),73,82,49,9,11,9,9,111,60,61,18,5,5,0.2,0.2
2026-05-23T0000,2457A,112.6209,26.9268,衡阳市,衡阳化工总厂,,27,27,23,11,10,21,21,50,38,12,7,5,4,0.6,0.7
2026-05-23T0000,2458A,112.621,26.8957,衡阳市,珠晖区环保局,,18,18,22,3,7,23,23,45,32,12,12,5,7,0.6,0.7
2026-05-23T0000,2459A,112.628,26.8654,衡阳市,市委党校,,15,15,19,3,6,23,23,48,36,6,3,8,9,0.7,0.7
2026-05-23T0000,2460A,112.6007,26.8977,衡阳市,市监测站,,21,21,17,8,9,40,40,40,NA,8,7,5,5,0.7,0.9
2026-05-23T0000,2461A,112.5658,26.9013,衡阳市,真空机电公司,,24,18,19,7,9,74,74,57,50,12,10,5,5,1.2,1.1
2026-05-23T0000,3399A,112.6703,26.8817,衡阳市,师范学院,,17,17,18,9,12,25,25,45,36,7,5,9,7,0.6,0.7
2026-05-23T0000,3038A,103.3757,23.3679,红河哈尼族彝族自治州,州图书馆,,32,32,19,20,11,67,67,74,72,4,4,2,2,0.3,0.3
2026-05-23T0000,4154A,103.401,23.3561,红河哈尼族彝族自治州,蒙自市朝阳路,,29,29,13,18,11,69,69,76,74,3,3,6,6,0.4,0.4
2026-05-23T0000,1090A,111.6506,40.7517,呼和浩特市,呼市一监,颗粒物(PM10),68,75,59,34,31,69,69,124,100,24,13,16,10,0.4,0.3
2026-05-23T0000,1094A,111.7516,40.8369,呼和浩特市,如意水处理厂,颗粒物(PM10),80,92,66,30,31,46,46,124,100,44,13,10,8,0.6,0.4
2026-05-23T0000,1095A,111.727798,40.806187,呼和浩特市,二十九中,颗粒物(PM10),86,100,64,36,35,68,68,118,103,30,13,20,10,0.7,0.6
2026-05-23T0000,1097A,111.717,40.7617,呼和浩特市,化肥厂生活区,颗粒物(PM10),69,76,59,34,37,73,73,119,98,26,15,14,9,0.5,0.4
2026-05-23T0000,3699A,111.6519,40.8389,呼和浩特市,海东办,颗粒物(PM10),67,73,63,35,39,21,21,115,84,50,14,6,6,0.6,0.4
2026-05-23T0000,4275A,111.591512,40.827312,呼和浩特市,成吉思汗西街8号,颗粒物(PM10),67,73,64,17,23,12,12,111,76,71,23,3,5,0.3,0.3
2026-05-23T0000,4276A,111.6597,40.8077,呼和浩特市,公园东路75号,颗粒物(PM10),74,83,64,39,27,72,72,111,99,25,12,13,9,0.5,0.4
2026-05-23T0000,4277A,111.5427,40.7846,呼和浩特市,金海路35号,颗粒物(PM10),81,93,67,41,33,35,35,110,83,45,16,6,5,0.5,0.4
2026-05-23T0000,3061A,119.7511,49.1576,呼伦贝尔市,国华电力东,,40,40,36,16,15,97,97,103,101,5,5,4,4,0.3,0.3
2026-05-23T0000,4279A,119.7569,49.2222,呼伦贝尔市,伊敏大街东7号,,39,39,32,17,15,95,95,102,94,6,8,6,6,0.3,0.3
2026-05-23T0000,1250A,120.075,30.867,湖州市,城西水厂,细颗粒物(PM2.5),84,66,55,52,43,88,88,144,127,19,17,7,5,0.8,0.8
2026-05-23T0000,2873A,120.083,30.8929,湖州市,仁皇山新区,细颗粒物(PM2.5),96,68,55,58,46,81,81,136,118,22,17,6,5,0.7,0.6
2026-05-23T0000,2907A,120.1846,30.8592,湖州市,吴兴区站,细颗粒物(PM2.5),88,57,46,54,40,57,57,146,116,37,18,8,6,0.5,0.5
2026-05-23T0000,3562A,120.4146,30.8538,湖州市,南浔区站,细颗粒物(PM2.5),76,NA,38,48,38,49,49,135,102,30,17,7,7,0.8,0.8
2026-05-23T0000,1607A,120.904878,40.721091,葫芦岛市,龙港区,,28,17,15,10,12,89,89,104,95,8,10,8,9,0.4,0.4
2026-05-23T0000,1608A,120.8382,40.7521,葫芦岛市,化工街,,28,14,15,10,14,89,89,95,86,9,17,8,9,0.4,0.4
2026-05-23T0000,1609A,120.8339,40.7078,葫芦岛市,新区,,29,15,15,9,10,92,92,101,91,7,12,8,8,0.5,0.5
2026-05-23T0000,1610A,120.8697,40.7679,葫芦岛市,东城区,,29,21,16,18,15,90,90,102,88,10,16,8,9,0.5,0.5
2026-05-23T0000,2483A,109.9297,27.5383,怀化市,河西地税局,颗粒物(PM10),58,61,37,29,26,7,7,41,26,19,11,5,5,/,/
2026-05-23T0000,2484A,109.9783,27.5342,怀化市,市四医院,,29,29,24,20,18,27,27,44,42,10,7,6,6,0.5,0.5
2026-05-23T0000,2485A,109.9971,27.5579,怀化市,监测楼,,31,31,25,18,19,21,21,40,38,12,8,7,7,0.5,0.5
2026-05-23T0000,1210A,119.0566,33.5991,淮安市,钵池山,,39,29,35,27,26,62,62,132,92,18,19,10,11,0.5,0.6
2026-05-23T0000,1211A,119.0083,33.578,淮安市,北京南路,,48,NA,38,33,29,69,69,138,96,9,13,6,7,0.7,0.7
2026-05-23T0000,1212A,118.9938,33.6083,淮安市,市监测站,,43,NA,28,30,28,71,71,135,96,12,15,5,6,0.6,0.6
2026-05-23T0000,1213A,119.135,33.5038,淮安市,楚州区监测站,,45,NA,36,31,30,64,64,135,93,11,14,5,6,0.5,0.6
2026-05-23T0000,3426A,118.8757,33.2897,淮安市,新华书店,,33,33,41,20,23,58,58,141,100,16,19,7,7,0.8,0.8
2026-05-23T0000,4092A,119.119691,33.550006,淮安市,枚皋中路89号,细颗粒物(PM2.5),52,NA,37,36,33,71,71,135,98,13,13,6,7,0.6,0.6
2026-05-23T0000,4206A,119.028838,33.631911,淮安市,承德北路606号,,42,31,37,29,28,60,60,132,86,13,14,5,6,0.6,0.7
2026-05-23T0000,2282A,116.8005,33.9749,淮北市,监测站,,45,NA,33,31,22,75,75,114,84,10,10,5,6,0.6,0.5
2026-05-23T0000,2283A,116.8094,33.9008,淮北市,烈山区政府,细颗粒物(PM2.5),72,54,45,46,24,68,68,114,88,9,5,6,7,0.5,0.5
2026-05-23T0000,4017A,116.7926,33.9534,淮北市,市博物馆,,39,28,29,27,21,77,77,121,91,8,9,6,6,0.7,0.6
2026-05-23T0000,4100A,116.8322,33.9884,淮北市,杜集区第一实验学校,细颗粒物(PM2.5),64,51,49,42,23,64,64,122,85,13,9,2,3,0.6,0.4
2026-05-23T0000,2277A,116.8304,32.7726,淮南市,潘集区政府,细颗粒物(PM2.5),60,53,55,40,32,58,58,122,94,8,13,6,8,0.7,0.7
2026-05-23T0000,2279A,116.8569,32.5949,淮南市,谢家集区政府,细颗粒物(PM2.5),82,82,50,51,36,63,63,137,109,26,20,11,9,0.6,0.5
2026-05-23T0000,2280A,116.8279,32.6333,淮南市,八公山区政府,细颗粒物(PM2.5),84,NA,51,52,41,82,82,130,101,11,12,4,5,0.5,0.5
2026-05-23T0000,2894A,117.0561,32.6536,淮南市,经济技术开发区消防队,细颗粒物(PM2.5),92,NA,46,56,42,65,65,131,104,13,16,7,8,0.7,0.6
2026-05-23T0000,3329A,117.011,32.5891,淮南市,山南新区,细颗粒物(PM2.5),103,65,52,63,44,83,83,140,118,13,12,9,9,0.7,0.5
2026-05-23T0000,4209A,117.003137,32.644456,淮南市,国庆中路369号,细颗粒物(PM2.5),102,93,67,62,44,62,62,130,104,11,12,9,9,0.5,0.5
2026-05-23T0000,2446A,114.9021,30.474,黄冈市,职工中心,,13,13,34,3,25,38,38,136,78,7,8,4,7,0.9,0.9
2026-05-23T0000,2929A,114.8858,30.4519,黄冈市,红卫路,,15,15,35,3,26,40,40,123,71,4,4,7,10,0.5,0.2
2026-05-23T0000,3398A,114.9134,30.4446,黄冈市,市林业局,,15,11,39,10,28,37,37,118,67,15,14,3,6,0.3,0.4
2026-05-23T0000,2672A,102.02,35.5101,黄南藏族自治州,同仁县隆务镇,颗粒物(PM10),95,112,154,50,67,88,88,113,104,5,3,9,9,0.2,0.2
2026-05-23T0000,2295A,118.2905,29.6965,黄山市,延安路89号,,10,10,21,3,14,20,20,53,36,8,10,5,5,0.4,0.5
2026-05-23T0000,2297A,118.1369,30.2755,黄山市,黄山区政府5号楼,,21,21,19,3,13,5,5,58,31,9,5,2,3,0.4,0.4
2026-05-23T0000,4210A,118.335445,29.720283,黄山市,滨江东路7-2号,,13,13,30,3,17,24,24,58,38,6,9,/,/,/,/
2026-05-23T0000,2423A,115.0547,30.2332,黄石市,沈家营,,23,23,58,3,23,49,49,112,66,2,12,4,7,0.4,0.5
2026-05-23T0000,2426A,114.899,30.211,黄石市,铁山,,25,25,32,3,18,34,34,102,53,14,10,8,9,0.6,0.7
2026-05-23T0000,2427A,115.0259,30.2108,黄石市,团城山,,21,21,43,3,20,54,54,116,72,6,8,4,5,1.1,0.6
2026-05-23T0000,3149A,115.0174,30.1591,黄石市,笔架山北路,,22,22,54,3,20,41,41,99,55,4,8,5,5,0.4,0.5
2026-05-23T0000,4185A,115.078022,30.21118,黄石市,磁湖东路29号,,20,20,54,3,24,57,57,114,66,5,14,2,7,0.5,0.6
2026-05-23T0000,1392A,114.4181,23.0528,惠州市,河南岸金山湖子站,,22,22,27,11,15,23,23,68,37,12,12,5,6,0.6,0.6
2026-05-23T0000,1393A,114.4055,23.0824,惠州市,下埔横江三路子站,,27,27,20,14,10,24,24,71,34,10,8,5,5,0.7,0.6
2026-05-23T0000,1395A,114.4645,22.7832,惠州市,惠阳区承修路船湖子站,,31,31,20,16,9,28,28,58,39,11,12,2,2,0.3,0.4
2026-05-23T0000,1396A,114.5316,22.7423,惠州市,大亚湾管委会子站,,33,33,21,16,12,11,11,59,42,21,9,4,4,0.5,0.4
2026-05-23T0000,3314A,114.4334,22.8134,惠州市,惠阳秋长,,26,22,18,18,12,28,28,64,42,11,13,/,/,/,/
2026-05-23T0000,3452A,114.6521,22.7755,惠州市,大亚湾霞涌,,16,NA,16,11,15,37,37,52,45,10,9,/,/,/,/
2026-05-23T0000,4300A,114.4089,23.1147,惠州市,文华一路1号,,25,25,18,15,10,24,24,79,38,11,9,/,/,/,/
2026-05-23T0000,2240A,130.9618,45.2926,鸡西市,环保局,,35,30,44,17,18,109,109,110,100,5,20,8,7,0.2,0.3
2026-05-23T0000,2243A,130.9294,45.2959,鸡西市,第一中学,,34,22,37,21,17,108,108,106,100,2,10,7,7,0.5,0.3
2026-05-23T0000,3707A,131.0069,45.2988,鸡西市,欧美日汽修厂,,33,23,38,20,21,104,104,97,88,3,13,6,6,0.4,0.4
2026-05-23T0000,2367A,114.9753,27.0803,吉安市,红声器材厂,,13,13,17,3,2,22,22,40,32,10,8,3,3,0.2,0.3
2026-05-23T0000,2369A,114.9903,27.1313,吉安市,市环境监测站,,17,17,17,3,3,18,18,43,31,13,7,7,7,/,/
2026-05-23T0000,2370A,115.009527,27.096792,吉安市,青原区法院,,20,20,16,3,3,18,18,47,30,17,9,7,7,0.2,0.3
2026-05-23T0000,1772A,126.54,43.8622,吉林市,哈达湾,,25,25,25,13,13,67,67,112,88,31,20,5,5,0.4,0.4
2026-05-23T0000,1773A,126.5843,43.8358,吉林市,东局子,,37,37,29,17,15,50,50,103,58,38,19,4,4,0.5,0.5
2026-05-23T0000,1774A,126.5051,43.8243,吉林市,电力学院,,24,24,26,10,13,55,55,124,76,40,27,4,4,0.6,0.6
2026-05-23T0000,1775A,126.6133,43.8971,吉林市,江北,,24,24,25,12,12,64,64,104,70,26,14,5,4,0.4,0.5
2026-05-23T0000,1776A,126.5549,43.8304,吉林市,江南公园,,27,27,23,15,13,46,46,101,62,36,18,6,6,0.3,0.3
2026-05-23T0000,2868A,126.4737,43.953,吉林市,九站,,27,23,29,12,10,86,86,118,92,25,24,11,12,0.5,0.4
2026-05-23T0000,1299A,116.9866,36.6118,济南市,科干所,,22,NA,24,15,18,68,68,111,73,11,12,5,6,0.6,0.5
2026-05-23T0000,1300A,116.9379,36.6652,济南市,农科所,,25,17,28,17,21,34,34,98,54,29,16,2,2,0.2,0.3
2026-05-23T0000,1301A,117.1265,36.6736,济南市,开发区,,22,17,26,15,20,63,63,108,71,18,14,5,5,0.4,0.5
2026-05-23T0000,1303A,117.0616,36.6865,济南市,省种子仓库,,25,12,32,6,18,80,80,105,76,11,18,4,5,0.3,0.5
2026-05-23T0000,1304A,116.9495185,36.644937,济南市,机床二厂,,27,27,34,16,22,51,51,100,63,28,17,4,5,0.4,0.4
2026-05-23T0000,1305A,117.0496,36.6629,济南市,市监测站,,20,20,29,12,17,58,58,106,65,23,15,3,3,0.4,0.5
2026-05-23T0000,1306A,116.7674,36.5458,济南市,长清党校,,17,17,30,8,20,53,53,102,67,10,12,3,4,0.2,0.3
2026-05-23T0000,1961A,117.5323,36.6865,济南市,东山小学,,33,27,34,23,21,59,59,117,80,14,16,3,4,0.2,0.3
2026-05-23T0000,3059A,117.7181,36.205,济南市,泰兴公司,细颗粒物(PM2.5),56,44,46,38,29,37,37,131,67,41,28,8,11,0.9,0.6
2026-05-23T0000,3064A,117.6861,36.2172,济南市,莱芜战役纪念馆,,40,39,42,28,27,79,79,132,77,11,19,13,14,0.7,0.7
2026-05-23T0000,3494A,117.1673,36.9782,济南市,济阳区政府,,24,17,43,11,28,76,76,93,72,11,22,7,8,0.3,0.4
2026-05-23T0000,3495A,117.1168,36.6299,济南市,锦屏中学,,43,NA,25,30,21,45,45,102,67,15,13,5,6,0.3,0.3
2026-05-23T0000,4108A,117.7107,36.2385,济南市,山财大街5号,细颗粒物(PM2.5),64,NA,36,42,32,82,82,130,82,15,21,6,6,0.7,0.6
2026-05-23T0000,4109A,116.9744,36.6889,济南市,无影山路12号,,20,12,27,12,21,64,64,95,61,14,18,1,1,0.3,0.4
2026-05-23T0000,1653A,116.6229,35.4288,济宁市,火炬城,,43,36,42,30,28,45,45,92,66,9,9,3,4,0.7,0.6
2026-05-23T0000,3500A,116.5808,35.3703,济宁市,北湖一中,,50,NA,41,35,34,62,62,104,79,9,5,3,3,0.5,0.4
2026-05-23T0000,3501A,116.8251,35.5592,济宁市,服务中心,细颗粒物(PM2.5),68,NA,39,44,34,84,84,111,93,9,12,3,2,0.4,0.4
2026-05-23T0000,3678A,116.5907,35.4054,济宁市,市第七中学,,46,32,39,32,29,63,63,108,84,13,13,3,3,0.4,0.4
2026-05-23T0000,4111A,116.6075,35.4566,济宁市,任和路,细颗粒物(PM2.5),54,NA,48,37,32,43,43,109,81,8,8,3,2,0.7,0.7
2026-05-23T0000,4112A,116.5648,35.3921,济宁市,文体南路1号,细颗粒物(PM2.5),74,NA,43,47,38,47,47,91,62,8,7,2,3,0.7,0.7
2026-05-23T0000,4122A,112.6071,35.1015,济源市,市委党校,颗粒物(PM10),62,66,77,27,28,56,56,101,78,21,20,7,8,0.6,0.6
2026-05-23T0000,4123A,112.596,35.0702,济源市,沁园中路1号,,44,44,54,24,28,56,56,105,83,17,14,4,5,0.7,0.7
2026-05-23T0000,2255A,130.2749,46.8028,佳木斯市,佳纺,,38,38,33,12,14,81,81,132,105,4,13,2,2,0.2,0.2
2026-05-23T0000,2257A,130.3258,46.7975,佳木斯市,环保局,,26,26,35,13,19,83,83,134,108,3,12,2,2,0.2,0.2
2026-05-23T0000,4285A,130.363,46.806,佳木斯市,顺和街,,44,44,33,20,14,79,79,131,104,6,12,1,1,0.1,0.2
2026-05-23T0000,4286A,130.3952,46.8268,佳木斯市,长安路196号,,41,41,41,12,16,82,82,134,106,5,12,3,4,0.3,0.3
2026-05-23T0000,1252A,120.7439,30.778,嘉兴市,清河小学,细颗粒物(PM2.5),64,56,36,42,22,55,55,133,98,26,19,9,9,0.7,0.6
2026-05-23T0000,1253A,120.7261,30.7477,嘉兴市,嘉兴学院,细颗粒物(PM2.5),66,52,30,43,26,50,50,132,96,28,19,6,6,0.9,0.7
2026-05-23T0000,2872A,120.7845,30.7524,嘉兴市,南湖区残联,细颗粒物(PM2.5),68,52,30,44,24,54,54,142,99,27,17,7,7,0.8,0.7
2026-05-23T0000,3407A,120.6915,30.7741,嘉兴市,秀洲住建,细颗粒物(PM2.5),64,44,30,42,23,49,49,140,100,26,16,7,7,0.9,0.7
2026-05-23T0000,1945A,98.291,39.7705,嘉峪关市,气象局,,39,39,125,14,44,112,112,136,123,12,12,1,8,0.3,0.3
2026-05-23T0000,2884A,98.2672,39.7978,嘉峪关市,酒钢宾馆,,46,46,131,14,51,122,122,143,134,9,9,7,16,0.2,0.2
2026-05-23T0000,3248A,98.2644,39.7723,嘉峪关市,雄关区,,38,32,108,17,42,119,119,128,124,10,15,4,9,0.2,0.2
2026-05-23T0000,1383A,113.1063,22.6058,江门市,北街,,15,13,17,10,9,21,21,34,26,8,9,/,/,/,/
2026-05-23T0000,1384A,113.073,22.5835,江门市,西区,,22,22,16,14,10,25,25,46,31,12,12,/,/,/,/
2026-05-23T0000,1385A,113.0218,22.531,江门市,圭峰西,,25,24,16,17,9,7,7,41,22,26,10,/,/,/,/
2026-05-23T0000,1386A,113.0826,22.5947,江门市,东湖,,24,24,17,11,8,25,25,45,31,10,9,7,7,0.5,0.4
2026-05-23T0000,3311A,113.1077,22.5647,江门市,江海富民,,30,30,26,11,9,28,28,49,34,8,10,/,/,0.3,0.4
2026-05-23T0000,3449A,113.0496,22.4669,江门市,新会银湖,,20,18,20,14,10,25,25,42,33,11,15,2,2,0.5,0.5
2026-05-23T0000,3335A,113.3137,35.2643,焦作市,马村街道办,,47,47,48,17,24,60,60,109,83,18,13,10,8,0.6,0.5
2026-05-23T0000,3336A,113.2464,35.2374,焦作市,焦作技师学院,,33,33,55,6,28,65,65,111,85,14,13,11,8,0.7,0.8
2026-05-23T0000,3477A,113.1656,35.2536,焦作市,中站许衡医院,,36,36,48,22,32,42,42,110,73,28,16,11,12,0.6,0.7
2026-05-23T0000,3981A,113.2456,35.18,焦作市,原李万街道办,颗粒物(PM10),69,76,44,29,28,59,59,111,87,16,9,8,8,0.4,0.4
2026-05-23T0000,4264A,113.234,35.219,焦作市,新安路1731号,,35,35,46,21,31,75,75,122,98,20,17,15,11,0.5,0.4
2026-05-23T0000,4295A,113.2722,35.2121,焦作市,人民路3066号,,47,47,47,27,27,60,60,105,83,16,13,8,6,0.5,0.5
2026-05-23T0000,1708A,116.3701,23.5345,揭阳市,新兴,,22,22,50,14,17,23,23,50,29,11,14,5,5,0.6,0.7
2026-05-23T0000,1709A,116.3261,23.5442,揭阳市,西马,,33,33,35,15,18,27,27,49,29,9,15,4,4,0.5,0.6
2026-05-23T0000,1710A,116.361,23.5627,揭阳市,东兴,,29,29,28,15,19,24,24,51,30,10,15,2,3,/,/
2026-05-23T0000,1711A,116.4151,23.5295,揭阳市,渔湖,,19,15,34,13,18,24,24,54,34,10,13,3,3,/,/
2026-05-23T0000,3320A,116.4028,23.5699,揭阳市,曲溪,,31,31,30,12,19,26,26,56,33,9,16,4,6,0.5,0.8
2026-05-23T0000,1944A,102.1691,38.5166,金昌市,天庆家园,颗粒物(PM10),95,112,148,35,45,107,107,142,121,14,12,15,14,0.6,0.5
2026-05-23T0000,4022A,102.1648,38.5369,金昌市,金川区人防中心,颗粒物(PM10),95,112,134,36,45,101,101,135,116,15,9,25,16,0.6,0.4
2026-05-23T0000,4239A,102.193042,38.531887,金昌市,长春路96号,颗粒物(PM10),109,141,137,54,51,100,100,134,120,19,10,239,22,0.5,0.5
2026-05-23T0000,1262A,119.6478,29.0773,金华市,十五中,,19,19,34,7,20,36,36,80,60,16,19,3,2,0.7,0.8
2026-05-23T0000,1263A,119.6859,29.1032,金华市,监测站,,17,17,33,8,21,34,34,87,64,16,26,4,4,0.6,0.7
2026-05-23T0000,3659A,119.656,29.1132,金华市,气象局,,16,16,40,7,24,25,25,71,54,22,28,3,3,0.4,0.6
2026-05-23T0000,1767A,121.1114,41.0879,锦州市,南山,,28,NA,16,10,13,89,89,101,83,9,15,4,5,0.5,0.5
2026-05-23T0000,1768A,121.060361,40.842794,锦州市,开发区,,30,19,30,14,12,93,93,101,101,15,22,5,6,0.5,0.5
2026-05-23T0000,1769A,121.1836,41.1118,锦州市,百股街道,,32,13,15,11,13,100,100,99,91,5,12,4,7,0.5,0.5
2026-05-23T0000,1770A,121.1176,41.1224,锦州市,天安街道,,30,14,19,11,14,94,94,105,91,11,16,4,5,0.5,0.5
2026-05-23T0000,1771A,121.1303,41.1385,锦州市,北湖公园,,30,14,19,12,14,93,93,106,88,10,14,6,6,0.4,0.4
2026-05-23T0000,2160A,112.8496,35.5051,晋城市,自来水公司,,44,44,23,8,6,32,32,121,101,33,12,4,4,0.3,0.3
2026-05-23T0000,2162A,112.8509,35.4886,晋城市,市环保局,,42,42,31,24,17,42,42,105,88,26,11,4,3,0.5,0.3
2026-05-23T0000,3620A,112.8258,35.4804,晋城市,泽州一中,,48,48,30,21,18,32,32,117,95,36,14,5,4,0.7,0.6
2026-05-23T0000,4078A,112.8246,35.5152,晋城市,前书院路,,36,36,28,13,14,13,13,111,81,48,14,3,4,0.5,0.6
2026-05-23T0000,4079A,112.8864,35.4773,晋城市,祥云街666号,细颗粒物(PM2.5),66,53,29,43,19,71,71,112,104,23,12,5,5,0.5,0.4
2026-05-23T0000,2174A,112.6992,37.6984,晋中市,榆次区政府,颗粒物(PM10),68,75,35,29,20,59,59,141,109,33,10,6,5,0.6,0.6
2026-05-23T0000,2865A,112.7195,37.683,晋中市,榆次三中,颗粒物(PM10),70,78,34,30,18,49,49,146,108,41,11,5,5,0.4,0.4
2026-05-23T0000,4080A,112.7375,37.7215,晋中市,广安街188号,颗粒物(PM10),60,64,35,16,17,59,59,133,97,42,13,4,4,0.2,0.2
2026-05-23T0000,4200A,112.7478,37.6954,晋中市,迎宾街26号,颗粒物(PM10),63,68,34,22,19,62,62,147,113,34,12,4,4,0.2,0.2
2026-05-23T0000,2439A,112.2012,31.048,荆门市,竹园小学,细颗粒物(PM2.5),84,87,61,52,43,56,56,91,75,18,16,4,5,0.8,0.8
2026-05-23T0000,2440A,112.1968,30.9892,荆门市,掇刀,细颗粒物(PM2.5),72,51,49,46,44,72,72,96,85,14,14,11,11,0.7,0.8
2026-05-23T0000,3012A,112.1849,31.0361,荆门市,西山林语,细颗粒物(PM2.5),68,69,64,44,42,77,77,90,82,9,12,8,8,0.9,1
2026-05-23T0000,3547A,112.1631,31.0134,荆门市,龙泉中学南校,细颗粒物(PM2.5),80,50,44,50,38,82,82,100,89,7,10,6,7,0.5,0.6
2026-05-23T0000,4124A,112.2213,31.0654,荆门市,新台西路6号,细颗粒物(PM2.5),103,95,63,63,49,50,50,95,74,17,15,10,10,1.1,1.1
2026-05-23T0000,1844A,112.2493,30.3198,荆州市,市图书馆,细颗粒物(PM2.5),62,47,36,41,31,59,59,87,65,9,11,5,6,0.6,0.6
2026-05-23T0000,1845A,112.2009,30.3543,荆州市,市委党校,细颗粒物(PM2.5),76,56,44,48,32,60,60,81,71,11,12,6,7,0.6,0.6
2026-05-23T0000,3194A,112.2749,30.3124,荆州市,管委会,细颗粒物(PM2.5),76,59,40,48,34,59,59,88,70,3,4,6,7,0.7,0.7
2026-05-23T0000,4268A,112.1722,30.3366,荆州市,学苑路85号,细颗粒物(PM2.5),76,53,38,48,34,64,64,91,76,8,11,4,5,0.7,0.6
2026-05-23T0000,2343A,117.2114,29.2931,景德镇市,老干部活动中心,,24,24,17,13,15,10,10,39,25,25,13,9,5,0.9,0.8
2026-05-23T0000,2344A,117.1893,29.2789,景德镇市,兽医站,,9,9,20,3,10,23,23,46,34,17,13,4,4,0.6,0.7
2026-05-23T0000,2346A,117.246,29.2958,景德镇市,陶研所,,9,7,14,3,8,28,28,47,37,4,9,3,4,0.4,0.5
2026-05-23T0000,4289A,117.154766,29.256967,景德镇市,青少年活动中心,,9,9,19,3,10,20,20,36,28,13,17,19,20,/,/
2026-05-23T0000,1803A,115.9873,29.6816,九江市,十里,,19,19,31,12,20,19,19,76,40,26,19,9,9,0.7,0.8
2026-05-23T0000,1804A,115.9583,29.7047,九江市,茅山头,,19,19,30,7,25,35,35,100,60,24,21,4,4,0.5,0.6
2026-05-23T0000,1805A,115.9877,29.7295,九江市,西园,,15,15,34,7,27,21,21,95,37,30,38,3,6,0.4,0.6
2026-05-23T0000,1808A,115.9112,29.6038,九江市,综合工业园,,17,17,18,7,15,36,36,102,62,21,19,8,7,0.4,0.6
2026-05-23T0000,3190A,116.0254,29.6995,九江市,外国语学校,,15,15,30,6,22,22,22,72,39,22,19,7,8,0.8,0.9
2026-05-23T0000,4253A,116.010205,29.659402,九江市,莲花大道8号,,16,16,15,6,15,28,28,64,34,8,11,4,4,0.6,0.7
2026-05-23T0000,4240A,98.495752,39.733935,酒泉市,玉门东路5号,颗粒物(PM10),58,61,134,19,45,71,71,116,101,29,10,7,7,0.3,0.3
2026-05-23T0000,4241A,98.5099,39.7506,酒泉市,北大街108号,颗粒物(PM10),72,80,127,25,42,64,64,119,103,32,12,10,11,0.6,0.3
2026-05-23T0000,2698A,76.0071,39.466,喀什地区,巡警大队,NA,NA,NA,1218,55,419,38,38,117,101,72,34,5,6,0.7,0.5
2026-05-23T0000,2699A,75.9756,39.4693,喀什地区,吾办,颗粒物(PM10),115,159,1086,64,397,54,54,110,100,40,23,6,5,0.7,0.4
2026-05-23T0000,4027A,75.9485,39.4688,喀什地区,老干局,颗粒物(PM10),108,139,1091,46,372,48,48,112,101,47,22,4,4,0.6,0.4
2026-05-23T0000,1824A,114.3389,34.778,开封市,肿瘤医院,,25,22,42,17,30,59,59,97,78,17,16,6,7,0.6,0.7
2026-05-23T0000,1826A,114.2884,34.7966,开封市,世纪星幼儿园,,33,33,43,20,27,62,62,97,80,25,15,5,6,0.4,0.6
2026-05-23T0000,3147A,114.3434,34.8101,开封市,龙亭公园,,29,NA,39,20,27,58,58,100,78,16,14,6,7,0.5,0.6
2026-05-23T0000,3210A,114.3645,34.7955,开封市,汴京公园,,29,23,43,20,26,57,57,101,76,15,15,7,7,0.6,0.7
2026-05-23T0000,3473A,114.2485,34.8306,开封市,技师学院,,20,20,46,12,23,60,60,100,77,16,12,6,6,1.0,0.8
2026-05-23T0000,3592A,114.4518,34.7503,开封市,祥符区生态环境局,,32,32,43,22,32,41,41,97,68,23,21,9,9,0.7,0.9
2026-05-23T0000,1951A,84.886,45.6029,克拉玛依市,长征新村,颗粒物(PM10),77,87,47,24,11,99,99,105,105,2,18,3,4,0.3,0.5
2026-05-23T0000,1952A,84.8894,45.5827,克拉玛依市,南林小区,颗粒物(PM10),60,63,44,9,6,100,100,98,98,2,19,1,1,0.1,0.3
2026-05-23T0000,1954A,84.896,44.3328,克拉玛依市,独山子区,NA,NA,NA,36,68,9,87,87,120,106,NA,12,6,6,0.4,0.5
2026-05-23T0000,1955A,85.6888,46.0909,克拉玛依市,乌尔禾区商贸楼,颗粒物(PM10),82,94,47,19,12,83,83,102,100,4,15,5,6,0.2,0.3
2026-05-23T0000,3612A,85.1045,45.6895,克拉玛依市,白碱滩区新站,,45,45,34,16,7,110,110,117,117,1,12,11,11,0.4,0.4
2026-05-23T0000,2697A,76.1457,39.7143,克孜勒苏柯尔克孜自治州,市人民政府,颗粒物(PM10),58,60,931,15,307,97,97,113,109,15,13,11,13,0.0,0.1
2026-05-23T0000,3665A,76.1654,39.7157,克孜勒苏柯尔克孜自治州,克州文化中心,,46,44,918,32,352,110,110,115,115,5,17,8,12,0.2,0.3
2026-05-23T0000,1450A,102.8203,24.889,昆明市,呈贡新区,,39,37,27,27,19,88,88,110,99,11,9,3,3,0.5,0.5
2026-05-23T0000,1452A,102.7253,25.0904,昆明市,龙泉镇,,48,48,29,30,20,62,62,109,89,26,12,5,5,0.4,0.4
2026-05-23T0000,1453A,102.7267,25.0378,昆明市,东风东路,,41,41,29,27,19,86,86,110,96,8,10,3,2,0.5,0.4
2026-05-23T0000,1454A,102.6744,25.0671,昆明市,金鼎山,,44,44,42,25,21,71,71,104,88,18,12,5,5,0.5,0.5
2026-05-23T0000,1455A,102.6643,25.0401,昆明市,碧鸡广场,颗粒物(PM10),59,62,33,28,22,60,60,98,78,28,16,7,6,0.6,0.7
2026-05-23T0000,3179A,102.7491,25.012,昆明市,官渡区博物馆,,41,41,28,21,18,81,81,107,93,13,11,4,4,0.5,0.5
2026-05-23T0000,3375A,102.8016,24.8336,昆明市,青年创业园,,50,50,29,21,18,83,83,109,98,10,5,5,5,0.5,0.4
2026-05-23T0000,3550A,102.8,24.9787,昆明市,昆明学院,,42,42,30,28,17,79,79,103,94,9,9,5,5,0.6,0.5
2026-05-23T0000,3551A,102.5969,24.6738,昆明市,晋宁区生态环境分局,,41,41,23,21,19,90,90,106,102,4,4,3,3,0.5,0.4
2026-05-23T0000,3552A,102.6673,24.9861,昆明市,云天化总部,,40,40,27,22,16,92,92,108,100,9,9,5,4,0.5,0.4
2026-05-23T0000,1456A,91.132,29.6515,拉萨市,八廓街,,26,22,28,7,11,82,82,114,107,16,12,6,6,0.4,0.4
2026-05-23T0000,1457A,91.1221,29.6748,拉萨市,市环保局,,36,36,27,7,8,70,70,105,95,21,12,6,7,0.2,0.1
2026-05-23T0000,1458A,91.0874,29.6476,拉萨市,区监测站,,26,18,21,6,9,82,82,109,105,21,11,5,5,0.4,0.3
2026-05-23T0000,1459A,91.1774,29.6541,拉萨市,西藏大学,,31,19,26,14,10,97,97,112,109,11,13,6,6,0.4,0.4
2026-05-23T0000,1460A,90.9798,29.6586,拉萨市,区辐射站,,29,25,32,13,13,90,90,102,96,11,13,5,5,0.3,0.3
2026-05-23T0000,1461A,91.0831,29.6292,拉萨市,拉萨火车站,,28,22,25,10,9,87,87,116,112,12,6,4,4,0.4,0.4
2026-05-23T0000,2520A,109.2203,23.7252,来宾市,来宾技工学校,,26,26,25,6,9,46,46,67,58,7,9,4,7,0.4,0.5
2026-05-23T0000,3535A,109.1781,23.7293,来宾市,兴宾区政府,,35,35,29,9,10,40,40,66,57,10,6,5,6,0.6,0.6
2026-05-23T0000,4002A,109.2312,23.7428,来宾市,中南小学,,24,24,25,9,12,46,46,72,62,8,11,5,5,0.4,0.4
2026-05-23T0000,1479A,103.8309,36.0467,兰州市,铁路设计院,颗粒物(PM10),124,182,180,69,73,33,33,128,96,62,21,5,10,1.0,0.8
2026-05-23T0000,3241A,103.7439,36.0841,兰州市,百合公园,细颗粒物(PM2.5),105,124,158,65,76,34,34,132,NA,64,19,6,14,0.7,0.5
2026-05-23T0000,3242A,103.9613,35.9985,兰州市,和平,颗粒物(PM10),126,187,182,65,61,75,75,135,110,19,10,9,12,0.5,0.5
2026-05-23T0000,4236A,103.629272,36.093822,兰州市,庄浪东路808号,颗粒物(PM10),124,181,175,80,74,22,22,145,97,80,21,8,13,0.4,0.4
2026-05-23T0000,4237A,103.7251,36.104344,兰州市,安宁西路88号,颗粒物(PM10),121,173,174,68,82,57,57,145,115,45,14,9,15,0.4,0.4
2026-05-23T0000,4238A,103.846982,36.067567,兰州市,北滨河东路1号,颗粒物(PM10),126,187,173,80,80,59,59,128,101,43,20,11,15,0.7,0.6
2026-05-23T0000,1067A,116.6712,39.5109,廊坊市,药材公司,,26,NA,32,18,27,66,66,98,85,17,16,3,2,0.7,0.5
2026-05-23T0000,1068A,116.7215,39.5592,廊坊市,开发区,,20,20,38,11,24,54,54,94,77,23,17,3,3,0.5,0.4
2026-05-23T0000,1070A,116.7246,39.5273,廊坊市,北华航天学院,,19,15,25,11,22,59,59,92,73,20,21,3,2,0.6,0.5
2026-05-23T0000,2919A,116.7022,39.5454,廊坊市,河北工业大学,,21,13,24,10,17,66,66,99,91,21,16,3,3,0.7,0.6
2026-05-23T0000,2536A,103.7629,29.5844,乐山市,牛耳桥,细颗粒物(PM2.5),80,51,46,50,36,77,77,142,120,21,19,5,7,0.8,0.8
2026-05-23T0000,2537A,103.7501,29.6002,乐山市,市第三水厂,细颗粒物(PM2.5),72,NA,41,46,39,84,84,131,119,15,18,4,6,0.7,0.7
2026-05-23T0000,2538A,103.7571,29.5664,乐山市,市监测站,细颗粒物(PM2.5),60,47,45,40,34,78,78,130,112,12,15,4,6,1.0,0.9
2026-05-23T0000,3361A,103.7313,29.563,乐山市,理工大学,细颗粒物(PM2.5),68,44,39,44,32,92,92,138,130,13,14,7,6,0.6,0.6
2026-05-23T0000,2599A,100.2497,26.8802,丽江市,丽江古城,,40,28,20,28,15,74,74,94,79,8,9,7,9,0.7,0.6
2026-05-23T0000,2600A,100.2203,26.8906,丽江市,市中心,,33,25,20,23,13,63,63,97,74,10,9,4,4,0.5,0.5
2026-05-23T0000,1267A,119.9141,28.4513,丽水市,监测站大楼,,16,13,14,11,8,39,39,65,52,14,12,4,4,0.6,0.6
2026-05-23T0000,1268A,119.93,28.4589,丽水市,莲都小学,,18,18,16,7,6,34,34,62,52,13,12,/,/,/,/
2026-05-23T0000,1269A,119.8794,28.4232,丽水市,余庄前,,18,18,14,7,6,3,3,57,28,12,8,5,4,0.7,0.6
2026-05-23T0000,1173A,119.1759,34.5885,连云港市,市环境监测站,,27,NA,27,17,23,85,85,128,95,7,10,8,9,0.5,0.4
2026-05-23T0000,3000A,119.3577,34.6971,连云港市,德源药业,,27,NA,30,12,24,84,84,113,NA,14,18,5,6,0.3,0.3
2026-05-23T0000,3007A,119.178,34.8442,连云港市,新城一中,,41,41,61,3,19,100,100,117,104,9,18,2,4,0.6,0.6
2026-05-23T0000,3008A,119.3607,34.7519,连云港市,胡沟管理处,,21,9,23,3,16,65,65,110,74,37,29,12,13,1.0,1.1
2026-05-23T0000,3009A,119.1478,34.5913,连云港市,矿山设计院,,27,NA,32,12,21,85,85,123,92,1,6,3,2,0.3,0.2
2026-05-23T0000,3434A,119.2414,34.6539,连云港市,工贸学校,,28,NA,25,16,21,87,87,133,99,10,11,3,4,0.7,0.6
2026-05-23T0000,3664A,119.4171,34.734,连云港市,连云街道,,34,12,29,7,17,106,106,126,104,4,9,7,9,0.5,0.5
2026-05-23T0000,2573A,102.2629,27.8981,凉山彝族自治州,西昌市政府,,24,13,33,13,22,74,74,130,102,11,8,5,6,0.5,0.6
2026-05-23T0000,2574A,102.2686,27.885,凉山彝族自治州,凉山州政府,,23,23,31,14,20,65,65,113,90,10,8,5,7,0.5,0.5
2026-05-23T0000,4229A,102.2342,27.8859,凉山彝族自治州,凯乐南路30号,,22,22,31,14,20,70,70,111,90,13,14,6,6,0.5,0.6
2026-05-23T0000,2212A,123.1978,41.2036,辽阳市,宏伟区,,29,12,15,3,2,91,91,115,99,6,7,6,6,0.4,0.4
2026-05-23T0000,2213A,123.1684,41.2497,辽阳市,新华园,,27,19,25,3,3,84,84,115,96,8,8,1,3,0.4,0.4
2026-05-23T0000,2214A,123.2355,41.2663,辽阳市,滨河路,,25,20,17,3,2,79,79,104,89,10,9,6,7,0.3,0.3
2026-05-23T0000,4083A,123.153,41.2874,辽阳市,铁西路150号,,25,20,38,3,12,79,79,108,90,9,12,6,8,0.4,0.6
2026-05-23T0000,2227A,125.1359,42.8845,辽源市,环保局,,30,22,24,9,6,94,94,114,86,12,28,10,9,0.5,0.5
2026-05-23T0000,4085A,125.0998,42.9134,辽源市,安宁大街333号,,33,33,27,11,6,98,98,120,97,12,22,2,3,0.3,0.3
2026-05-23T0000,1625A,115.9789,36.4372,聊城市,区政府,,24,24,34,3,16,40,40,90,78,21,10,7,8,0.6,0.5
2026-05-23T0000,3200A,115.9772,36.4986,聊城市,监控中心,,34,34,34,8,17,8,8,96,64,43,12,7,8,0.4,0.3
2026-05-23T0000,3513A,116.0443,36.436,聊城市,九州社区,,36,36,47,10,19,72,72,98,86,18,13,1,4,0.4,0.4
2026-05-23T0000,4018A,116.0564,36.4609,聊城市,星美广场,NA,NA,56,40,24,18,NA,NA,87,NA,32,18,6,5,0.4,0.3
2026-05-23T0000,4113A,116.0091,36.4495,聊城市,利民路,,17,14,26,7,18,54,54,95,86,22,14,7,8,0.5,0.3
2026-05-23T0000,2632A,94.3683,29.6373,林芝市,林芝监测站,,26,NA,9,15,6,83,83,77,76,4,5,4,4,0.6,0.6
2026-05-23T0000,2633A,94.3616,29.6634,林芝市,林芝人民医院,,28,NA,15,9,6,88,88,84,84,4,6,3,3,0.5,0.5
2026-05-23T0000,2603A,100.0779,23.8981,临沧市,市环保局,,35,NA,33,24,31,65,65,95,92,11,10,7,7,0.6,0.7
2026-05-23T0000,2604A,100.0894,23.882,临沧市,市气象局,细颗粒物(PM2.5),56,40,34,38,29,65,65,106,95,12,11,7,8,0.7,0.6
2026-05-23T0000,1733A,111.5552,36.0791,临汾市,临钢医院,NA,NA,44,35,14,13,45,45,118,100,NA,12,7,6,1.4,0.9
2026-05-23T0000,1734A,111.4984,36.0734,临汾市,技工学校,细颗粒物(PM2.5),70,61,32,45,26,45,45,120,96,34,15,8,7,1.1,0.8
2026-05-23T0000,1736A,111.5017,36.0857,临汾市,市委,颗粒物(PM10),72,80,44,25,16,50,50,123,100,30,16,8,6,1.1,0.8
2026-05-23T0000,3018A,111.5048,36.1015,临汾市,唐尧大酒店,颗粒物(PM10),69,76,51,22,16,50,50,122,103,31,14,8,6,1.1,0.8
2026-05-23T0000,4244A,111.4879,36.053,临汾市,启星学校,颗粒物(PM10),56,58,38,28,21,39,39,116,90,38,15,7,6,1.5,0.9
2026-05-23T0000,4271A,103.2464,35.6123,临夏回族自治州,滨河东路1号,颗粒物(PM10),111,148,242,47,94,78,78,103,87,9,12,12,14,0.3,0.3
2026-05-23T0000,4310A,103.207136,35.599807,临夏回族自治州,新华街21号,细颗粒物(PM2.5),92,102,222,56,101,72,72,96,85,3,7,10,15,0.5,0.6
2026-05-23T0000,1618A,118.3429,35.0532,临沂市,沂河小区,,26,14,39,6,25,83,83,135,94,7,15,9,14,0.2,0.3
2026-05-23T0000,1619A,118.2962,35.0568,临沂市,鲁南制药厂,NA,NA,NA,35,12,30,NA,NA,136,102,8,17,8,14,0.3,0.4
2026-05-23T0000,1620A,118.2793,34.9976,临沂市,新光毛纺厂,,26,NA,35,15,25,82,82,142,103,12,21,8,13,0.3,0.3
2026-05-23T0000,1621A,118.3955,35.0889,临沂市,河东保险公司,,25,12,36,9,28,80,80,135,91,10,21,8,10,0.1,0.2
2026-05-23T0000,3370A,118.3563,35.0215,临沂市,十里堡居委,,27,7,33,6,26,84,84,138,96,7,15,8,12,0.4,0.6
2026-05-23T0000,3496A,118.359,35.1067,临沂市,南坊新区,NA,NA,NA,40,9,29,85,85,134,93,NA,23,7,12,0.2,0.4
2026-05-23T0000,3860A,118.3915,35.0297,临沂市,皇山花园小区,,27,7,37,3,27,86,86,137,94,8,17,8,12,0.4,0.6
2026-05-23T0000,1870A,109.4854,24.3898,柳州市,柳东小学,,24,24,21,12,12,47,47,70,63,8,7,4,4,0.6,0.7
2026-05-23T0000,1871A,109.4109,24.3304,柳州市,环保监测站,,33,33,22,10,10,44,44,61,54,7,8,5,5,0.7,0.7
2026-05-23T0000,1872A,109.3886,24.3408,柳州市,河西水厂,,28,28,21,17,11,43,43,67,60,10,8,6,10,0.5,0.7
2026-05-23T0000,1873A,109.4263,24.2951,柳州市,市四中,,18,18,25,7,9,41,41,60,52,9,9,6,6,0.6,0.6
2026-05-23T0000,1874A,109.396,24.3658,柳州市,市九中,,25,25,26,12,10,45,45,63,56,10,11,4,4,0.4,0.5
2026-05-23T0000,1875A,109.4912,24.3164,柳州市,古亭山,,16,16,23,8,9,51,51,64,57,4,10,3,3,0.7,0.8
2026-05-23T0000,3402A,109.5422,24.3994,柳州市,市二中,,17,15,21,10,5,53,53,68,61,5,8,10,8,0.5,0.6
2026-05-23T0000,2307A,116.5078,31.7369,六安市,监测大楼,细颗粒物(PM2.5),76,NA,39,48,40,98,98,128,122,11,11,4,4,0.4,0.4
2026-05-23T0000,2308A,116.4738,31.7642,六安市,皖西学院,细颗粒物(PM2.5),78,54,46,49,37,87,87,133,120,9,9,6,6,0.5,0.6
2026-05-23T0000,2309A,116.4997,31.7904,六安市,朝阳厂,细颗粒物(PM2.5),84,NA,35,52,37,66,66,119,103,16,12,6,6,0.5,0.5
2026-05-23T0000,2310A,116.5566,31.7885,六安市,开发区,细颗粒物(PM2.5),103,110,39,63,39,78,78,131,113,18,12,6,6,0.8,0.5
2026-05-23T0000,2577A,104.8293,26.592,六盘水市,黄土坡,,23,16,25,16,18,66,66,115,95,7,8,6,7,0.2,0.3
2026-05-23T0000,2579A,104.8481,26.5898,六盘水市,民中,,25,20,22,17,19,68,68,112,91,7,8,5,5,0.4,0.4
2026-05-23T0000,2580A,104.9541,26.5506,六盘水市,双水,,27,27,23,13,16,68,68,101,86,7,6,4,5,0.1,0.1
2026-05-23T0000,4151A,104.8899,26.5685,六盘水市,钟山大道中段564号,,27,27,33,15,17,58,58,107,89,4,5,3,3,0.5,0.5
2026-05-23T0000,2336A,117.022,25.1031,龙岩市,龙岩市监测站,,25,25,17,17,11,7,7,44,18,19,10,8,6,0.5,0.5
2026-05-23T0000,2337A,117.0257,25.0662,龙岩市,闽西职业技术学院,,25,25,16,16,9,3,3,44,18,16,7,5,5,0.5,0.5
2026-05-23T0000,2338A,117.0195,25.0306,龙岩市,龙岩学院,,27,27,16,16,8,10,10,43,22,9,5,2,2,/,/
2026-05-23T0000,2885A,104.9344,33.3827,陇南市,滨江中学,颗粒物(PM10),55,56,38,8,11,50,50,79,60,9,6,6,6,0.6,0.6
2026-05-23T0000,3247A,104.9551,33.3709,陇南市,市总工会,,40,40,29,18,10,52,52,79,63,9,7,6,6,0.5,0.5
2026-05-23T0000,2488A,111.9984,27.7346,娄底市,市监测站,,22,22,26,15,18,15,15,49,35,12,5,10,6,0.4,0.5
2026-05-23T0000,2491A,111.9888,27.7035,娄底市,市政府,,20,20,22,13,16,5,5,55,34,15,5,2,3,0.5,0.4
2026-05-23T0000,4127A,111.9812,27.7591,娄底市,涟钢职大,,23,23,19,14,11,5,5,63,33,22,8,6,4,0.6,0.6
2026-05-23T0000,4128A,112.0303,27.7457,娄底市,娄底体校,,13,NA,23,9,17,6,6,60,33,10,6,4,5,0.5,0.6
2026-05-23T0000,1894A,105.4427,28.9063,泸州市,小市上码头,,31,31,18,21,13,66,66,111,101,20,14,5,5,0.5,0.5
2026-05-23T0000,1895A,105.4241,28.8573,泸州市,兰田宪桥,,42,42,34,29,19,70,70,112,98,19,16,9,9,0.5,0.5
2026-05-23T0000,1896A,105.4378,28.8833,泸州市,市环监站,,34,34,25,17,13,66,66,105,96,21,15,10,10,0.9,0.8
2026-05-23T0000,4272A,105.3689,28.7783,泸州市,纳溪中医医院,,45,37,29,31,23,32,32,111,87,25,12,4,4,0.8,0.7
2026-05-23T0000,2183A,111.1447,37.5212,吕梁市,环保局,颗粒物(PM10),59,62,32,23,13,21,21,118,70,50,18,6,6,0.6,0.5
2026-05-23T0000,2185A,111.1285,37.5338,吕梁市,自来水公司,颗粒物(PM10),60,64,27,25,12,34,34,115,75,39,19,5,5,0.5,0.5
2026-05-23T0000,2867A,111.1225,37.5093,吕梁市,马茂庄小学,颗粒物(PM10),72,80,33,20,12,12,12,118,68,52,19,4,4,0.4,0.4
2026-05-23T0000,1812A,112.3934,34.6517,洛阳市,市委党校,颗粒物(PM10),51,51,49,26,35,68,68,109,94,16,16,8,8,0.6,0.6
2026-05-23T0000,1815A,112.494,34.6883,洛阳市,河南林校,颗粒物(PM10),54,55,57,22,32,72,72,119,95,16,24,10,11,0.6,0.6
2026-05-23T0000,1816A,112.3843,34.623,洛阳市,开发区管委会,,43,43,47,27,35,73,73,108,94,14,14,13,13,0.5,0.5
2026-05-23T0000,1817A,112.4263,34.6249,洛阳市,市委新办公区,,50,50,46,28,34,68,68,110,94,13,12,10,11,0.3,0.3
2026-05-23T0000,3340A,112.6005,34.6323,洛阳市,伊滨,,46,32,49,32,32,49,49,109,89,20,18,8,8,0.6,0.5
2026-05-23T0000,3341A,112.495,34.6338,洛阳市,中移产业园,,47,47,46,22,33,57,57,108,89,15,19,9,9,0.7,0.7
2026-05-23T0000,3593A,112.5736,34.8993,洛阳市,吉利监测站,,44,44,50,18,31,67,67,116,102,18,18,8,10,0.3,0.4
2026-05-23T0000,3635A,112.3678,34.6623,洛阳市,河科大西苑校区,颗粒物(PM10),53,53,50,26,35,69,69,115,104,20,16,9,10,0.7,0.7
2026-05-23T0000,3636A,112.4387,34.678,洛阳市,英才小学,颗粒物(PM10),53,54,53,33,33,59,59,108,88,12,15,9,9,0.5,0.6
2026-05-23T0000,4214A,112.460027,34.694929,洛阳市,春都路1号院,,41,41,48,23,34,55,55,118,93,14,18,6,7,0.3,0.4
2026-05-23T0000,2399A,114.051,33.5721,漯河市,三五一五工厂,颗粒物(PM10),59,62,43,31,24,32,32,120,87,36,16,5,5,0.5,0.3
2026-05-23T0000,2400A,114.0055,33.5698,漯河市,漯河大学,细颗粒物(PM2.5),68,55,34,44,28,44,44,118,93,38,18,6,6,0.7,0.5
2026-05-23T0000,2401A,114.0134,33.5826,漯河市,市水利局,颗粒物(PM10),51,51,40,34,29,44,44,114,86,27,15,4,4,0.7,0.5
2026-05-23T0000,2402A,114.0261,33.5697,漯河市,市广电局,颗粒物(PM10),58,61,39,28,24,31,31,116,91,47,15,5,5,0.8,0.6
2026-05-23T0000,3478A,113.9691,33.568,漯河市,市图书馆,颗粒物(PM10),55,56,42,29,25,38,38,113,88,40,15,6,6,0.8,0.6
2026-05-23T0000,4250A,114.089259,33.588274,漯河市,韶山路11号,颗粒物(PM10),73,81,55,38,30,26,26,111,70,46,19,8,7,0.9,0.6
2026-05-23T0000,1798A,118.5084,31.6838,马鞍山市,湖东路四小,细颗粒物(PM2.5),116,85,63,77,43,71,71,154,130,25,16,6,8,1.0,0.7
2026-05-23T0000,1799A,118.5019,31.6449,马鞍山市,开发区,细颗粒物(PM2.5),111,90,81,72,46,76,76,153,125,22,16,6,7,0.8,0.7
2026-05-23T0000,3633A,118.4914,31.681,马鞍山市,雨山,细颗粒物(PM2.5),86,71,50,53,35,51,51,151,125,26,17,5,7,1.3,0.8
2026-05-23T0000,4191A,118.527362,31.722269,马鞍山市,慈湖高新区,细颗粒物(PM2.5),116,106,70,77,45,68,68,151,126,37,21,5,6,0.8,0.7
2026-05-23T0000,1686A,111.0285,21.469,茂名市,电白南海,,27,27,26,10,11,44,44,47,47,4,4,5,5,0.6,0.9
2026-05-23T0000,1687A,110.9294,21.6533,茂名市,茂石化七小,,31,31,25,8,12,37,37,46,33,9,8,5,6,0.6,0.6
2026-05-23T0000,1688A,110.9108,21.6688,茂名市,健康路,,17,17,15,10,10,40,40,48,37,8,7,4,5,0.6,0.6
2026-05-23T0000,1689A,110.8592,21.6826,茂名市,高岭,,29,29,24,11,12,29,29,45,32,13,8,3,3,/,/
2026-05-23T0000,3450A,111.0101,21.5165,茂名市,电白水东,,18,14,14,12,9,38,38,44,40,4,5,1,2,/,/
2026-05-23T0000,2540A,103.8414,30.0871,眉山市,气象局,,41,41,48,28,35,75,75,144,123,15,20,6,7,0.8,0.8
2026-05-23T0000,3148A,103.829,30.0563,眉山市,区人社局,,39,39,54,17,24,78,78,140,117,14,23,6,7,0.7,0.8
2026-05-23T0000,4148A,103.8836,30.0695,眉山市,眉职院,颗粒物(PM10),53,53,66,25,33,72,72,135,112,13,18,8,10,0.8,0.8
2026-05-23T0000,1690A,116.1248,24.3307,梅州市,梅江月梅,,22,22,24,12,14,3,3,46,NA,14,10,/,/,/,/
2026-05-23T0000,1691A,116.0798,24.2719,梅州市,梅县新城,,27,27,18,11,11,4,4,42,20,19,13,8,8,0.4,0.4
2026-05-23T0000,3315A,116.1234,24.2994,梅州市,梅龙,,18,12,14,12,12,10,10,46,26,15,11,5,7,0.6,0.6
2026-05-23T0000,1878A,104.7775,31.4741,绵阳市,富乐山,,23,21,22,16,12,51,51,89,73,9,8,8,8,0.8,0.7
2026-05-23T0000,1880A,104.6698,31.4668,绵阳市,高新区自来水公司,,37,37,21,20,12,62,62,96,79,15,8,8,8,0.7,0.7
2026-05-23T0000,3491A,104.6899,31.5324,绵阳市,西科大附属小学,,30,30,25,19,16,57,57,96,79,17,12,5,5,0.6,0.6
2026-05-23T0000,3492A,104.5647,31.5343,绵阳市,安州区旅游局,NA,NA,26,28,21,16,NA,NA,106,92,16,7,6,6,0.4,0.5
2026-05-23T0000,4146A,104.7092,31.4972,绵阳市,科技城新区公安局,,26,21,23,18,13,62,62,94,80,11,9,7,7,0.7,0.6
2026-05-23T0000,4226A,104.765114,31.453094,绵阳市,绵阳市气象局,,27,27,21,18,13,60,60,83,74,11,9,7,7,0.7,0.6
2026-05-23T0000,1784A,129.61,44.561,牡丹江市,环保大楼,,38,28,28,14,11,120,120,107,107,4,12,3,4,0.2,0.2
2026-05-23T0000,1787A,129.6364,44.6075,牡丹江市,机车工厂,,36,27,43,11,25,113,113,105,104,3,12,3,5,0.2,0.2
2026-05-23T0000,1788A,129.6386,44.5462,牡丹江市,第一中学,,36,22,22,12,11,114,114,103,102,5,10,4,4,0.2,0.2
2026-05-23T0000,4287A,129.5992,44.5964,牡丹江市,东晓云街98号,,36,34,33,14,16,113,113,104,102,5,9,4,4,0.2,0.2
2026-05-23T0000,2531A,105.0703,29.61,内江市,市监测站,,30,NA,23,21,17,64,64,122,105,11,8,11,10,0.3,0.3
2026-05-23T0000,2533A,105.0657,29.5807,内江市,内江二中,,25,20,24,17,15,45,45,90,80,21,9,7,7,0.5,0.5
2026-05-23T0000,2534A,105.0407,29.5828,内江市,内江日报社,,29,NA,19,20,16,60,60,120,105,22,10,14,14,0.5,0.5
2026-05-23T0000,4147A,105.0433,29.6105,内江市,玉峰路西段888号,,32,25,21,22,16,61,61,110,96,10,9,11,11,0.5,0.5
2026-05-23T0000,2628A,92.0653,31.4846,那曲市,那曲监测站,颗粒物(PM10),63,68,40,35,18,48,48,113,93,39,15,9,7,1.3,0.7
2026-05-23T0000,4243A,92.0515,31.4787,那曲市,那曲市委宣传部,颗粒物(PM10),55,56,32,20,14,35,35,112,95,43,14,7,6,0.7,0.4
2026-05-23T0000,1291A,115.8887,28.7006,南昌市,省林业公司,,12,NA,11,3,13,36,36,54,38,7,10,4,4,0.4,0.5
2026-05-23T0000,1292A,115.813,28.7443,南昌市,林科所,,9,NA,11,6,12,16,16,39,26,5,11,7,8,0.4,0.5
2026-05-23T0000,1294A,115.8518,28.687,南昌市,建工学校,,9,NA,13,3,13,26,26,48,32,8,9,7,7,0.6,0.7
2026-05-23T0000,1295A,115.8926,28.6425,南昌市,象湖,NA,NA,NA,24,2,14,26,26,48,33,13,14,8,8,0.5,0.6
2026-05-23T0000,3046A,115.9084,28.6062,南昌市,机电学校,,12,12,17,3,13,15,15,50,30,20,13,5,5,0.5,0.6
2026-05-23T0000,3690A,115.9718,28.7032,南昌市,外国语学校,,10,7,15,3,12,31,31,47,32,6,7,9,9,0.5,0.5
2026-05-23T0000,4106A,115.7923,28.6873,南昌市,工业二路,,19,NA,20,13,14,16,16,41,30,8,9,5,6,0.5,0.6
2026-05-23T0000,4192A,115.931587,28.686774,南昌市,南京东路235号,,11,11,11,3,11,35,35,54,39,12,13,6,6,0.7,0.8
2026-05-23T0000,1906A,106.0791,30.8022,南充市,南充市委,,26,26,22,18,16,30,30,90,66,22,11,5,5,0.3,0.3
2026-05-23T0000,1907A,106.1038,30.8215,南充市,南充炼油厂,,24,24,26,13,12,50,50,90,75,10,9,5,5,0.4,0.4
2026-05-23T0000,4227A,106.108336,30.788436,南充市,梨树横街98号,,23,23,20,16,14,49,49,97,79,15,10,6,6,0.3,0.3
2026-05-23T0000,4304A,106.1172,30.843,南充市,清泉寺北路188号,,38,38,29,15,13,44,44,96,82,9,6,7,7,0.4,0.3
2026-05-23T0000,4305A,106.067,30.7616,南充市,同庆路1号,,30,30,26,16,15,31,31,86,65,23,13,6,6,0.4,0.3
2026-05-23T0000,1151A,118.8033,32.1085,南京市,迈皋桥,细颗粒物(PM2.5),86,58,40,53,30,123,123,162,154,24,23,6,6,0.5,0.5
2026-05-23T0000,1152A,118.7487,32.057,南京市,草场门,细颗粒物(PM2.5),100,66,45,60,32,107,107,164,150,29,19,6,6,0.9,0.8
2026-05-23T0000,1154A,118.770105,32.004342,南京市,中华门,细颗粒物(PM2.5),92,61,45,56,31,108,108,159,146,13,11,7,6,0.7,0.5
2026-05-23T0000,1155A,118.8059,32.0329,南京市,瑞金路,细颗粒物(PM2.5),78,63,50,49,30,113,113,151,142,10,15,4,4,0.7,0.7
2026-05-23T0000,1156A,118.7946,32.0774,南京市,玄武湖,细颗粒物(PM2.5),76,59,42,48,27,109,109,140,134,15,16,6,5,0.5,0.5
2026-05-23T0000,1157A,118.6415,32.0964,南京市,浦口,细颗粒物(PM2.5),78,49,42,49,29,83,83,147,129,20,25,4,5,0.6,0.5
2026-05-23T0000,1158A,118.730129,32.000956,南京市,奥体中心,细颗粒物(PM2.5),88,68,48,54,30,96,96,144,133,24,18,10,10,0.6,0.5
2026-05-23T0000,1159A,118.9072,32.1047,南京市,仙林大学城,细颗粒物(PM2.5),100,66,48,60,27,119,119,162,152,18,14,6,6,0.8,0.8
2026-05-23T0000,3422A,118.8443,31.919,南京市,江宁彩虹桥,细颗粒物(PM2.5),86,57,46,53,34,113,113,160,149,13,14,3,4,0.7,0.8
2026-05-23T0000,3427A,118.8497,32.3599,南京市,六合雄州,细颗粒物(PM2.5),115,94,47,76,29,79,79,151,125,31,20,4,4,0.8,0.5
2026-05-23T0000,4086A,118.7641,32.0841,南京市,新模范马路66号,细颗粒物(PM2.5),80,73,46,50,23,127,127,168,159,13,14,4,4,0.7,0.6
2026-05-23T0000,4249A,118.8707617,31.34017673,南京市,汶溪路181号,细颗粒物(PM2.5),84,NA,44,52,39,68,68,139,112,13,14,8,7,0.4,0.4
2026-05-23T0000,4312A,119.019,31.6512,南京市,中山西路1号,细颗粒物(PM2.5),96,63,50,58,35,72,72,148,123,12,13,4,4,0.8,0.7
2026-05-23T0000,1401A,108.3098,22.788,南宁市,二十一中,,24,24,21,11,10,36,36,46,40,10,8,1,2,0.5,0.5
2026-05-23T0000,1402A,108.3135,22.8529,南宁市,北湖,,30,30,25,16,13,42,42,51,43,5,7,2,3,0.5,0.5
2026-05-23T0000,1403A,108.3205,22.8222,南宁市,市监测站,,24,24,22,10,10,45,45,58,49,6,5,3,2,0.6,0.5
2026-05-23T0000,1404A,108.3828,22.8038,南宁市,大自然花园,,26,26,19,3,5,47,47,57,51,6,6,4,4,0.4,0.4
2026-05-23T0000,1406A,108.2397,22.8462,南宁市,区农职院,,27,27,23,15,11,41,41,53,40,8,8,1,1,0.6,0.6
2026-05-23T0000,1407A,108.3285,22.7356,南宁市,英华嘉园,,28,28,26,10,10,33,33,53,42,17,9,4,4,0.5,0.6
2026-05-23T0000,3401A,108.4829,22.762,南宁市,红星社区,,25,25,18,11,9,48,48,63,55,6,5,5,5,0.7,0.6
2026-05-23T0000,4132A,108.2927,23.1477,南宁市,起凤路9号,,29,29,22,13,13,37,37,60,37,10,10,5,5,0.6,0.6
2026-05-23T0000,4221A,108.2177,22.7774,南宁市,乐贤路16号,,40,40,25,9,11,25,25,48,33,25,16,5,4,0.4,0.5
2026-05-23T0000,2332A,118.1682,26.6371,南平市,南平市监测站,,8,7,10,3,7,12,12,30,21,13,12,3,4,0.6,0.6
2026-05-23T0000,2334A,118.1757,26.6276,南平市,南平七中,,9,9,10,3,4,10,10,32,22,14,9,2,2,0.5,0.5
2026-05-23T0000,1168A,120.9056,31.9669,南通市,狼山街道,细颗粒物(PM2.5),56,NA,22,38,16,75,75,160,123,25,13,5,5,0.9,0.8
2026-05-23T0000,1170A,120.8635,32.0231,南通市,城中,细颗粒物(PM2.5),82,NA,33,51,17,76,76,152,120,20,13,6,5,0.7,0.6
2026-05-23T0000,1171A,120.9376,31.9301,南通市,星湖花园,细颗粒物(PM2.5),76,NA,27,48,18,67,67,151,114,23,12,6,4,0.5,0.5
2026-05-23T0000,1172A,120.8053,32.046,南通市,紫琅学院,细颗粒物(PM2.5),72,NA,22,46,16,66,66,150,118,24,12,6,5,0.8,0.7
2026-05-23T0000,3291A,121.0631,32.0644,南通市,通州监测站,细颗粒物(PM2.5),52,NA,29,36,17,96,96,139,122,6,5,4,4,0.6,0.5
2026-05-23T0000,3432A,120.9348,31.9874,南通市,环境教育馆,细颗粒物(PM2.5),60,48,33,40,19,74,74,151,120,20,17,5,5,0.5,0.5
2026-05-23T0000,4091A,120.8692,31.9885,南通市,洪江路,细颗粒物(PM2.5),60,41,31,40,17,67,67,161,123,23,11,5,4,0.7,0.7
2026-05-23T0000,2404A,112.5338,33.0086,南阳市,瓦房庄,细颗粒物(PM2.5),70,71,42,45,20,44,44,101,83,29,11,5,5,0.7,0.6
2026-05-23T0000,2405A,112.5002,32.9734,南阳市,汉画馆,颗粒物(PM10),75,84,48,39,18,8,8,88,60,49,15,5,5,0.8,0.6
2026-05-23T0000,2406A,112.5778,33.0144,南阳市,气象站,细颗粒物(PM2.5),64,68,38,42,20,18,18,86,65,36,12,7,6,0.7,0.5
2026-05-23T0000,2407A,112.548,32.9687,南阳市,理工学院,颗粒物(PM10),61,65,40,39,23,7,7,96,68,56,14,6,6,0.7,0.6
2026-05-23T0000,4008A,112.5233,32.9921,南阳市,卧龙区政府,"颗粒物(PM10),细颗粒物(PM2.5)",68,74,40,44,21,25,25,99,76,36,12,5,5,0.8,0.6
2026-05-23T0000,1234A,121.8352,29.9111,宁波市,区环保大楼,,29,28,47,16,28,92,92,109,98,11,23,6,6,0.5,0.5
2026-05-23T0000,1235A,121.5595,29.8208,宁波市,万里学院,,26,26,37,18,31,71,71,94,86,15,14,6,6,0.6,0.6
2026-05-23T0000,1236A,121.713,29.9564,宁波市,龙赛医院,,25,24,51,14,32,80,80,108,94,12,21,6,8,0.3,0.4
2026-05-23T0000,1240A,121.5855,29.8635,宁波市,太古小学,,25,23,41,13,29,77,77,93,86,6,9,3,3,0.6,0.6
2026-05-23T0000,1241A,121.5239,29.8673,宁波市,市环境监测中心,,32,32,38,22,36,75,75,92,88,12,12,9,8,0.5,0.6
2026-05-23T0000,2871A,121.6156,29.9015,宁波市,万里国际学校,,29,20,35,15,32,91,91,108,101,5,10,5,5,0.6,0.6
2026-05-23T0000,3710A,121.5593,29.8976,宁波市,白沙活动中心,,28,24,32,19,30,77,77,97,88,13,16,6,6,0.3,0.4
2026-05-23T0000,4095A,121.8962,29.7529,宁波市,中科路88号,,35,19,32,10,18,109,109,124,124,5,15,4,5,0.4,0.4
2026-05-23T0000,2341A,119.5387,26.6611,宁德市,宁德市监测站,,35,NA,13,24,15,18,18,66,40,41,23,3,4,0.7,0.6
2026-05-23T0000,3209A,119.5231,26.6562,宁德市,宁德一中,,33,NA,12,23,17,15,15,63,40,20,14,7,6,0.7,0.6
2026-05-23T0000,2618A,98.859,25.8541,怒江傈僳族自治州,州监测站,,42,37,34,29,24,53,53,98,84,12,10,5,4,0.6,0.5
2026-05-23T0000,2619A,98.8607,25.8168,怒江傈僳族自治州,泸水一中,,38,NA,32,26,28,47,47,87,71,16,15,5,5,0.8,0.7
2026-05-23T0000,1888A,101.6891,26.571,攀枝花市,弄弄坪,,42,42,40,17,19,61,61,115,90,20,16,3,4,0.4,0.7
2026-05-23T0000,1889A,101.577,26.5914,攀枝花市,河门口,,49,49,46,26,24,49,49,124,97,29,15,47,23,1.1,0.5
2026-05-23T0000,1891A,101.7365,26.4986,攀枝花市,仁和,,30,30,31,19,22,80,80,106,84,6,10,6,7,0.4,0.5
2026-05-23T0000,2835A,101.7222,26.567,攀枝花市,四十中小,,29,29,30,20,18,70,70,116,93,19,12,8,10,0.7,0.7
2026-05-23T0000,1604A,122.0303,41.1489,盘锦市,开发区,,25,11,13,8,10,79,79,99,80,9,10,8,9,0.5,0.4
2026-05-23T0000,1605A,122.0486,41.0883,盘锦市,兴隆台,,24,NA,14,12,13,74,74,91,76,12,13,6,6,0.6,0.5
2026-05-23T0000,1606A,121.8297,41.1026,盘锦市,新生街道,,30,15,11,8,10,93,93,91,84,17,17,6,6,0.3,0.3
2026-05-23T0000,1832A,113.3257,33.7423,平顶山市,新华旅馆,细颗粒物(PM2.5),84,78,64,52,39,44,44,112,85,35,21,3,5,0.6,0.5
2026-05-23T0000,1833A,113.2917,33.737,平顶山市,规划设计院,细颗粒物(PM2.5),76,76,56,48,38,30,30,108,80,22,11,8,9,0.9,0.7
2026-05-23T0000,1834A,113.182,33.7738,平顶山市,平顶山工学院,细颗粒物(PM2.5),80,59,48,50,34,42,42,113,99,35,17,5,5,0.7,0.5
2026-05-23T0000,3594A,112.8736,33.9068,平顶山市,石龙区,颗粒物(PM10),74,83,65,34,36,13,13,95,71,42,15,9,9,0.6,0.7
2026-05-23T0000,4116A,113.284,33.7139,平顶山市,姚电大道23号,颗粒物(PM10),85,98,72,47,37,58,58,116,98,25,14,6,7,0.7,0.6
2026-05-23T0000,2656A,106.6633,35.5338,平凉市,聚贤嘉苑,颗粒物(PM10),86,100,156,33,56,72,72,128,103,12,15,10,10,0.6,0.6
2026-05-23T0000,2657A,106.7021,35.5307,平凉市,博物馆,颗粒物(PM10),97,115,140,36,57,68,68,134,103,19,16,14,11,0.7,0.5
2026-05-23T0000,2348A,113.8384,27.6436,萍乡市,中医院,,17,17,26,8,17,10,10,37,16,21,16,7,6,0.8,1.1
2026-05-23T0000,2350A,113.8677,27.6438,萍乡市,市环保局,,16,16,22,7,20,14,14,36,20,16,13,8,8,0.6,1
2026-05-23T0000,2351A,113.8663,27.6202,萍乡市,安源区政府,,17,17,26,3,22,10,10,36,15,17,15,7,7,0.8,0.8
2026-05-23T0000,4107A,113.8686,27.6668,萍乡市,联洪村委会,,17,17,24,10,17,15,15,43,23,15,12,7,7,0.6,0.7
2026-05-23T0000,2319A,119.0142,25.4324,莆田市,荔城区仓后路,,35,32,35,24,26,24,24,76,50,17,16,/,/,/,/
2026-05-23T0000,2320A,119.0016,25.4553,莆田市,莆田市监测站,,48,42,34,33,26,9,9,74,40,15,10,3,3,0.5,0.4
2026-05-23T0000,2321A,119.112,25.4561,莆田市,涵江区六中,,49,NA,34,34,31,18,18,75,40,20,23,/,/,0.5,0.6
2026-05-23T0000,2322A,119.1014,25.3215,莆田市,秀屿区政府,,23,23,33,12,25,31,31,75,48,8,14,5,6,0.5,0.5
2026-05-23T0000,2392A,115.0312,35.7636,濮阳市,环保局,,23,23,32,12,17,55,55,92,NA,19,16,4,5,0.8,0.8
2026-05-23T0000,3021A,115,35.7667,濮阳市,濮水河管理处,,15,14,28,10,17,19,19,83,56,10,9,2,3,0.6,0.6
2026-05-23T0000,4118A,115.0552,35.7816,濮阳市,中原东路68号,,28,28,37,10,16,39,39,93,73,19,13,3,5,0.6,0.6
2026-05-23T0000,4216A,115.0923632,35.76857718,濮阳市,任丘路479号,,28,28,42,3,18,49,49,96,81,20,12,2,3,0.5,0.5
2026-05-23T0000,2601A,100.9801,22.7634,普洱市,市环保局,,40,40,46,20,26,70,70,95,86,4,6,5,5,0.9,0.9
2026-05-23T0000,2602A,100.9763,22.8237,普洱市,普洱第二中学,,38,38,45,24,24,71,71,96,84,4,6,7,7,0.8,0.7
2026-05-23T0000,3345A,131.0413,45.7795,七台河市,中波台,,31,29,53,16,18,99,99,104,93,5,13,3,4,0.5,0.5
2026-05-23T0000,3637A,131.0136,45.7688,七台河市,人民广场,,35,24,38,6,12,109,109,120,106,6,12,9,11,0.3,0.4
2026-05-23T0000,3684A,130.8639,45.8144,七台河市,新建矿广场,,41,41,42,12,17,103,103,116,93,8,18,5,6,0.3,0.2
2026-05-23T0000,1779A,123.9307,47.3641,齐齐哈尔市,安居小区,,30,23,57,3,12,94,94,118,89,2,9,4,4,0.4,0.5
2026-05-23T0000,1780A,123.9497,47.3389,齐齐哈尔市,中心广场,,34,34,55,3,13,100,100,125,98,2,6,8,7,0.4,0.5
2026-05-23T0000,1781A,123.9483,47.3229,齐齐哈尔市,农牧车辆厂,,31,29,51,3,15,98,98,128,99,4,9,6,6,0,0
2026-05-23T0000,1783A,123.9442,47.2994,齐齐哈尔市,市环境监测站,,30,21,50,3,12,93,93,123,94,5,8,3,4,0.5,0.5
2026-05-23T0000,3662A,123.6341,47.2079,齐齐哈尔市,富区青少年活动中心,,28,10,50,3,14,89,89,111,97,3,9,4,5,0.2,0.3
2026-05-23T0000,2591A,107.9765,26.5724,黔东南苗族侗族自治州,市环境监测站,,20,20,13,12,8,62,62,59,58,4,5,2,2,0.4,0.4
2026-05-23T0000,2881A,107.8909,26.531,黔东南苗族侗族自治州,凯里学院,,20,NA,7,13,9,64,64,60,60,3,2,2,2,0.4,0.5
2026-05-23T0000,2593A,107.5223,26.2371,黔南布依族苗族自治州,小围寨,,16,14,8,9,6,49,49,52,48,4,5,6,5,0.6,0.6
2026-05-23T0000,3538A,107.5175,26.2977,黔南布依族苗族自治州,沙坝,,18,17,12,12,6,38,38,49,44,3,3,4,4,0.7,0.6
2026-05-23T0000,2589A,104.9022,25.0943,黔西南布依族苗族自治州,场坝街,,26,26,17,9,12,76,76,90,85,4,4,4,5,0.4,0.4
2026-05-23T0000,2590A,104.8812,25.0994,黔西南布依族苗族自治州,坪东大道,,39,39,19,16,12,72,72,86,80,3,4,4,4,0.4,0.4
2026-05-23T0000,2502A,108.6238,21.9667,钦州市,市环保站,,29,29,23,17,9,44,44,57,51,8,8,3,2,0.9,0.8
2026-05-23T0000,2503A,108.655,21.9481,钦州市,沙埠小学,,25,25,28,12,12,58,58,62,55,6,8,5,3,0.8,0.9
2026-05-23T0000,2504A,108.5989,21.7435,钦州市,港区一小,,41,41,34,17,14,57,57,56,51,10,14,3,3,0.4,0.6
2026-05-23T0000,3404A,108.5959,21.9634,钦州市,北职校,,29,29,24,14,10,41,41,53,48,9,8,2,2,0.6,0.6
2026-05-23T0000,1046A,119.5247,39.9346,秦皇岛市,建设大厦,,25,14,36,3,17,78,78,103,82,12,11,4,5,0.2,0.3
2026-05-23T0000,3132A,119.5979,39.938,秦皇岛市,文明里,,25,17,34,7,18,79,79,107,85,13,13,8,9,0.3,0.4
2026-05-23T0000,4066A,119.7458,39.9952,秦皇岛市,南园路157号,,19,15,45,10,18,58,58,103,71,33,17,6,7,0.2,0.3
2026-05-23T0000,4067A,119.5131,39.8858,秦皇岛市,翠岛大街1号,,25,16,29,3,16,79,79,112,88,16,13,9,9,0.3,0.3
2026-05-23T0000,4198A,119.509013,39.825305,秦皇岛市,北戴河轮滑馆,,30,6,27,3,12,96,96,105,96,10,12,7,7,0.2,0.3
2026-05-23T0000,1310A,120.404,36.0625,青岛市,市南区东部子站,,24,7,11,6,8,76,76,99,85,16,10,6,6,0.3,0.3
2026-05-23T0000,1311A,120.362344,36.10282,青岛市,四方区子站,,31,NA,11,6,9,98,98,112,102,8,9,6,6,0.5,0.5
2026-05-23T0000,1312A,120.294373,36.054183,青岛市,市南区西部子站,,28,7,14,3,7,89,89,92,82,13,16,3,4,0.4,0.4
2026-05-23T0000,1313A,120.4581,36.0858,青岛市,崂山区子站,,30,NA,8,3,7,95,95,113,97,10,11,8,9,0.3,0.3
2026-05-23T0000,1315A,120.3945,36.3083,青岛市,城阳区子站,,32,6,20,3,14,100,100,113,102,8,15,6,6,0.6,0.7
2026-05-23T0000,3642A,120.3454,36.0735,青岛市,市北区南部,,34,11,16,3,7,108,108,116,107,6,5,3,3,0.6,0.6
2026-05-23T0000,3643A,120.3897,36.18,青岛市,李沧区北部,,31,NA,14,3,10,98,98,109,101,7,12,9,9,0.5,0.5
2026-05-23T0000,4110A,120.5222,36.4089,青岛市,盟旺路653号,,31,8,12,6,7,97,97,110,97,1,2,5,5,0.6,0.6
2026-05-23T0000,4290A,120.196923,35.954556,青岛市,珠江路669号,,37,7,14,3,8,116,116,118,116,2,11,3,4,0.5,0.5
2026-05-23T0000,4291A,120.0424,35.8656,青岛市,黄岛区人民政府广场,,34,7,14,3,8,106,106,115,112,6,8,8,8,0.5,0.5
2026-05-23T0000,1703A,113.0218,23.7086,清远市,凤城街办,,25,20,33,17,24,13,13,58,34,25,28,/,/,/,/
2026-05-23T0000,3025A,113.0479,23.6343,清远市,技师学院,,12,10,31,8,21,9,9,74,39,20,25,4,4,0.3,0.5
2026-05-23T0000,3318A,112.9898,23.7403,清远市,清新太和,,25,23,22,17,18,17,17,59,39,21,16,8,8,0.5,0.5
2026-05-23T0000,3455A,113.076,23.72,清远市,清城东城,,36,36,34,25,24,11,11,62,38,22,21,/,/,/,/
2026-05-23T0000,2661A,107.6325,35.7357,庆阳市,庆阳五中,颗粒物(PM10),75,84,74,22,30,80,80,109,96,12,9,4,3,0.5,0.4
2026-05-23T0000,2662A,107.6361,35.7067,庆阳市,市环保局,颗粒物(PM10),72,80,73,26,28,84,84,117,99,16,10,5,4,0.4,0.4
2026-05-23T0000,1916A,103.7897,25.5036,曲靖市,环境监测站,,37,37,31,18,17,74,74,127,107,15,9,6,4,0.6,0.5
2026-05-23T0000,1917A,103.8013,25.5357,曲靖市,烟厂办公区,,39,39,29,14,16,77,77,126,107,11,8,5,3,0.5,0.4
2026-05-23T0000,3376A,103.7926,25.4651,曲靖市,南苑二区,,38,38,27,18,17,76,76,118,104,11,7,3,4,0.4,0.3
2026-05-23T0000,3377A,103.7442,25.5259,曲靖市,曲靖师范学院,,39,39,28,20,17,77,77,127,109,10,7,6,4,0.4,0.4
2026-05-23T0000,1264A,118.8694,28.94,衢州市,环保大楼,,13,6,38,3,24,14,14,73,32,25,19,/,/,/,/
2026-05-23T0000,1266A,118.8622,28.9809,衢州市,衢州学院,NA,NA,6,29,3,24,NA,NA,79,NA,20,19,6,6,0.4,0.6
2026-05-23T0000,4097A,118.9646,28.9832,衢州市,衢州三中,,12,6,32,3,26,18,18,74,31,23,23,4,4,0.5,0.7
2026-05-23T0000,1611A,118.5818,24.9116,泉州市,涂山街,,45,32,29,31,23,30,30,60,50,17,21,3,4,0.5,0.5
2026-05-23T0000,1612A,118.597,24.8976,泉州市,津头埔,,43,31,29,30,24,24,24,61,41,20,20,2,2,0.3,0.3
2026-05-23T0000,1613A,118.6669,24.9422,泉州市,万安,,33,30,29,23,21,21,21,59,38,17,16,3,4,0.3,0.3
2026-05-23T0000,4105A,118.6355,24.9148,泉州市,霞新路6号,,36,34,28,25,22,19,19,57,36,25,21,/,/,0.3,0.4
2026-05-23T0000,2626A,88.8873,29.2723,日喀则市,日喀则监测站,,36,33,20,13,6,113,113,130,128,3,5,6,6,0.4,0.5
2026-05-23T0000,3726A,88.8775,29.2425,日喀则市,林业技术推广中心,,46,46,23,10,4,114,114,130,126,2,3,5,5,0.4,0.4
2026-05-23T0000,1659A,119.4711,35.421,日照市,监测站,,32,NA,18,3,16,100,100,114,101,11,20,7,7,0.3,0.5
2026-05-23T0000,1660A,119.523,35.4216,日照市,市政府广场,,32,6,19,3,15,101,101,114,101,8,12,3,5,0.6,0.7
2026-05-23T0000,1661A,119.5511,35.4113,日照市,港务局,,35,6,19,3,14,112,112,118,108,8,12,5,5,0.6,0.7
2026-05-23T0000,3507A,119.5326,35.4627,日照市,职业技术学院,,34,19,20,3,13,108,108,117,107,10,16,7,7,0.5,0.6
2026-05-23T0000,3604A,119.3267,35.1043,日照市,岚山环保分局,,33,7,34,3,18,103,103,111,103,12,21,8,10,0.5,0.6
2026-05-23T0000,1835A,111.1922,34.7752,三门峡市,市政府,,33,33,38,17,26,26,26,90,63,27,14,10,11,0.5,0.5
2026-05-23T0000,1836A,111.1588,34.794,三门峡市,开发区,,28,23,37,19,26,41,41,89,70,26,17,8,9,0.4,0.3
2026-05-23T0000,3039A,111.1911,34.7829,三门峡市,三门峡市第一小学,,24,24,43,14,24,31,31,95,74,28,16,9,11,0.6,0.5
2026-05-23T0000,3598A,111.1031,34.719,三门峡市,富达温泉假日酒店,,39,39,46,16,26,31,31,84,61,21,19,9,12,0.5,0.5
2026-05-23T0000,2324A,117.621,26.2626,三明市,三钢,,13,13,17,8,14,11,11,32,20,18,16,4,8,0.8,1
2026-05-23T0000,2325A,117.6352,26.2714,三明市,三明二中,,12,8,17,8,12,12,12,33,21,18,16,6,6,0.6,0.6
2026-05-23T0000,2326A,117.6028,26.2377,三明市,三元区政府,,13,13,18,8,12,8,8,34,18,12,11,5,6,0.6,0.7
2026-05-23T0000,1877A,109.4962,18.2682,三亚市,河西子站,NA,NA,NA,18,9,8,52,52,54,NA,NA,6,3,3,0.4,0.3
2026-05-23T0000,3540A,109.7348,18.3443,三亚市,君悦子站,NA,NA,29,26,8,7,5,5,46,36,NA,8,2,2,0.4,0.4
2026-05-23T0000,4135A,109.1714,18.3739,三亚市,城东小学站,,18,18,19,7,7,47,47,48,48,4,4,/,/,/,/
2026-05-23T0000,2624A,91.7592,29.234,山南市,山南监测站,,29,11,13,3,3,91,91,110,107,7,4,7,6,0.3,0.2
2026-05-23T0000,2625A,91.7701,29.2436,山南市,山南人民医院,,31,12,17,3,5,99,99,110,108,3,3,4,4,0.3,0.3
2026-05-23T0000,1674A,116.6795,23.3666,汕头市,金平子站,,25,23,23,17,14,31,31,56,43,9,8,4,4,0.5,0.5
2026-05-23T0000,1675A,116.7248,23.3632,汕头市,龙湖子站,,29,NA,22,20,18,33,33,49,39,2,6,6,6,/,/
2026-05-23T0000,1676A,116.7257,23.2774,汕头市,濠江子站,,30,NA,27,21,17,34,34,44,39,7,13,8,8,/,/
2026-05-23T0000,1677A,116.7518,23.4712,汕头市,澄海子站,,23,16,31,16,18,32,32,67,44,9,11,4,4,0.6,0.7
2026-05-23T0000,1678A,116.6088,23.2539,汕头市,潮阳子站,,33,27,22,23,16,36,36,44,40,3,3,6,6,0.5,0.5
2026-05-23T0000,3444A,116.4539,23.2684,汕头市,潮南峡山,,23,23,23,15,18,32,32,48,40,3,7,6,6,0.5,0.5
2026-05-23T0000,3624A,116.4069,23.2533,汕头市,潮南子站,,19,16,24,13,16,31,31,44,36,3,9,5,5,/,/
2026-05-23T0000,1693A,115.3653,22.7751,汕尾市,市环保局,,32,32,26,21,16,35,35,53,44,5,3,4,4,0.5,0.5
2026-05-23T0000,1695A,115.362,22.7926,汕尾市,新城中学,NA,NA,36,26,19,15,NA,NA,61,NA,7,5,6,6,0.4,0.4
2026-05-23T0000,2645A,109.9155,33.8714,商洛市,监测站,,24,24,20,12,15,25,25,93,60,20,9,5,7,0.5,0.6
2026-05-23T0000,3045A,109.9647,33.8486,商洛市,商州区中学,,31,31,22,11,13,13,13,96,57,28,14,5,6,0.4,0.6
2026-05-23T0000,2408A,115.6701,34.4283,商丘市,环境监测站,,44,44,47,24,22,51,51,103,68,14,11,3,4,0.7,0.6
2026-05-23T0000,2409A,115.6458,34.4047,商丘市,粮食局,颗粒物(PM10),78,89,49,28,26,66,66,104,82,47,18,6,6,0.2,0.4
2026-05-23T0000,3171A,115.6069,34.4465,商丘市,梁园区档案局,,37,37,43,24,27,52,52,97,72,11,11,1,2,0.7,0.6
2026-05-23T0000,4119A,115.6701,34.3767,商丘市,北海东路185号,颗粒物(PM10),53,53,47,34,27,43,43,99,71,12,7,3,4,0.6,0.5
2026-05-23T0000,4120A,115.6172,34.3704,商丘市,中山大街3号,"颗粒物(PM10),细颗粒物(PM2.5)",60,64,58,40,26,28,28,93,62,27,12,6,7,0.6,0.5
2026-05-23T0000,1141A,121.401,31.2382,上海市,普陀,,49,48,33,34,20,88,88,138,110,17,19,6,5,0.4,0.4
2026-05-23T0000,1142A,121.4774,31.2043,上海市,十五厂,细颗粒物(PM2.5),56,48,31,38,21,79,79,129,102,18,18,6,6,0.7,0.6
2026-05-23T0000,1143A,121.4673,31.3011,上海市,虹口,细颗粒物(PM2.5),62,54,29,41,22,78,78,128,106,17,17,5,5,0.5,0.5
2026-05-23T0000,1147A,121.4253,31.226,上海市,静安监测站,,50,45,28,35,21,86,86,136,110,18,19,8,8,0.7,0.7
2026-05-23T0000,1148A,121.7029,31.1905,上海市,浦东川沙,颗粒物(PM10),51,51,26,30,17,96,96,124,113,10,14,6,6,0.6,0.5
2026-05-23T0000,1149A,121.5339,31.229,上海市,浦东新区监测站,,47,47,25,32,17,78,78,125,108,20,18,6,6,0.4,0.4
2026-05-23T0000,1150A,121.5776,31.2038,上海市,浦东张江,细颗粒物(PM2.5),56,50,28,38,20,87,87,133,113,17,15,7,6,0.2,0.2
2026-05-23T0000,3265A,121.4242,31.3303,上海市,宝山庙行,颗粒物(PM10),65,71,37,42,23,81,81,136,110,15,16,8,8,0.3,0.3
2026-05-23T0000,3266A,121.8789,31.4662,上海市,崇明上实东滩,,35,25,14,20,13,110,110,136,126,8,7,6,6,0.3,0.2
2026-05-23T0000,3268A,121.316,31.2839,上海市,嘉定南翔,细颗粒物(PM2.5),56,46,29,38,22,78,78,136,103,16,16,5,5,0.5,0.5
2026-05-23T0000,3269A,121.3357,30.7455,上海市,金山新城,,49,40,21,34,17,89,89,134,114,8,8,4,4,0.6,0.6
2026-05-23T0000,3270A,121.4996,31.0741,上海市,闵行浦江,,42,39,29,29,20,88,88,128,105,10,18,6,6,0.3,0.3
2026-05-23T0000,3271A,121.2886,31.1663,上海市,青浦徐泾,,48,42,32,33,20,99,99,158,129,10,14,5,5,0.5,0.5
2026-05-23T0000,3272A,121.2193,31.0382,上海市,松江图书馆,细颗粒物(PM2.5),58,51,36,39,26,88,88,140,116,14,16,7,8,0.4,0.3
2026-05-23T0000,3273A,121.3904,31.206,上海市,长宁仙霞,,48,44,30,33,20,89,89,130,104,12,18,7,7,0.3,0.3
2026-05-23T0000,3274A,121.7964,31.0507,上海市,浦东惠南,,42,41,23,29,16,99,99,136,119,10,13,7,7,0.5,0.5
2026-05-23T0000,3544A,121.4891,30.925,上海市,奉贤南桥新城,,50,49,26,35,20,91,91,135,114,11,12,6,5,0.4,0.3
2026-05-23T0000,4183A,121.417401,31.16637,上海市,冠生园路458号,,49,42,29,34,21,88,88,127,102,14,18,4,5,0.5,0.5
2026-05-23T0000,4205A,121.541914,31.268301,上海市,宁武路151号,细颗粒物(PM2.5),62,58,33,41,20,78,78,114,99,22,23,6,7,0.3,0.2
2026-05-23T0000,2382A,117.9758,28.4439,上饶市,市监测站,,15,15,16,3,4,26,26,64,31,6,8,5,5,/,/
2026-05-23T0000,2383A,117.9521,28.4637,上饶市,凤凰光学,,7,7,17,3,5,22,22,61,33,13,14,6,7,0.7,0.8
2026-05-23T0000,3685A,117.897,28.4316,上饶市,双创科技城,,19,19,19,13,6,21,21,64,34,7,5,9,7,0.6,0.6
2026-05-23T0000,4211A,118.190438,28.444845,上饶市,裕丰大道,,16,16,19,3,7,21,21,51,29,8,9,5,5,0.2,0.3
2026-05-23T0000,1669A,113.5821,24.7733,韶关市,市八中,,30,30,24,20,15,59,59,65,65,20,19,28,13,0.5,0.5
2026-05-23T0000,1671A,113.5916,24.7973,韶关市,园林处,,29,27,20,20,16,47,47,51,51,20,18,15,8,/,/
2026-05-23T0000,1673A,113.5971,24.6864,韶关市,曲江监测站,,22,22,22,15,13,42,42,64,63,15,20,4,6,0.6,0.7
2026-05-23T0000,2809A,113.6668,24.7756,韶关市,大学路288号,,26,26,20,14,11,36,36,64,56,11,14,4,5,/,/
2026-05-23T0000,3622A,113.5556,24.8082,韶关市,碧湖山庄,,30,24,24,21,16,60,60,57,57,19,14,8,3,0.5,0.4
2026-05-23T0000,2464A,111.5277,27.2442,邵阳市,市化工厂,,38,38,25,15,19,43,43,62,56,11,4,3,5,0.3,0.2
2026-05-23T0000,2466A,111.4327,27.2276,邵阳市,市环保局,,33,24,22,23,18,14,14,56,42,19,6,2,2,0.6,0.5
2026-05-23T0000,4218A,111.446,27.2472,邵阳市,北塔二期4-26地块,,22,22,23,11,11,21,21,61,38,10,6,3,4,0.3,0.3
2026-05-23T0000,4219A,111.4739,27.2282,邵阳市,邵水西路287号,,28,19,19,19,16,21,21,55,44,14,4,4,4,0.6,0.5
2026-05-23T0000,1247A,120.6053,29.9927,绍兴市,城东开发委,颗粒物(PM10),55,56,69,29,42,35,35,121,78,30,23,8,8,0.8,0.7
2026-05-23T0000,2921A,120.5482,30.0003,绍兴市,树下王站,细颗粒物(PM2.5),120,NA,55,81,63,24,24,127,81,51,23,8,7,0.7,0.6
2026-05-23T0000,3408A,120.5685,29.936,绍兴市,绍兴中专,,43,43,67,26,46,17,17,120,62,32,18,6,6,0.7,0.7
2026-05-23T0000,3409A,120.4905,30.086,绍兴市,柯桥区政府,细颗粒物(PM2.5),112,78,68,73,61,NA,NA,124,86,43,27,8,7,0.8,0.6
2026-05-23T0000,3410A,120.8751,30.0249,绍兴市,重华小学,,33,33,61,22,41,53,53,95,72,15,20,6,6,0.5,0.5
2026-05-23T0000,3411A,120.837,30.0137,绍兴市,上虞中学,,30,30,60,20,38,42,42,99,70,20,11,14,8,0.7,0.7
2026-05-23T0000,3560A,120.4715,30.0414,绍兴市,柯桥妇保,颗粒物(PM10),95,112,110,47,59,36,36,133,92,22,24,6,6,0.8,0.7
2026-05-23T0000,3658A,120.6156,30.0762,绍兴市,袍江中学,颗粒物(PM10),68,74,60,43,38,14,14,121,71,61,28,7,7,0.9,0.8
2026-05-23T0000,1356A,114.0948,22.5506,深圳市,通心岭子站,,26,24,15,18,11,21,21,42,30,13,10,2,3,0.3,0.3
2026-05-23T0000,1357A,114.1153,22.5713,深圳市,洪湖,,28,28,20,15,9,23,23,43,30,9,10,5,5,0.3,0.3
2026-05-23T0000,1358A,113.9823,22.5398,深圳市,华侨城,,29,26,19,20,11,17,17,35,28,15,10,/,/,/,/
