timepoint,stationcode,longitude,latitude,area,positionname,primarypollutant,aqi,pm10,pm10_24h,pm2_5,pm2_5_24h,o3,o3_24h,o3_8h,o3_8h_24h,no2,no2_24h,so2,so2_24h,co,co_24h
2026-07-22T1000,2568A,102.2503,31.8896,阿坝藏族羌族自治州,马师校,,19,17,22,8,8,59,59,55,50,2,3,4,4,0.5,0.4
2026-07-22T1000,3994A,102.2174,31.9016,阿坝藏族羌族自治州,马尔康中学西区,,19,NA,12,6,9,60,60,56,51,3,3,3,3,0.2,0.1
2026-07-22T1000,2695A,80.2899,41.1684,阿克苏地区,电视台,颗粒物(PM10),93,110,80,30,32,55,55,92,83,19,9,6,7,0.8,0.6
2026-07-22T1000,2696A,80.2592,41.1541,阿克苏地区,艺术中心,细颗粒物(PM2.5),105,100,60,65,34,30,30,96,78,56,16,5,4,0.4,0.3
2026-07-22T1000,2205A,105.699,38.8409,阿拉善盟,蒙二幼,,44,44,30,8,8,127,127,132,130,8,5,12,10,0.4,0.3
2026-07-22T1000,2206A,105.7198,38.8508,阿拉善盟,环保局新楼,,40,31,26,3,7,127,127,131,129,7,3,11,10,0.5,0.4
2026-07-22T1000,2708A,88.1266,47.8515,阿勒泰地区,市站,,26,20,24,3,12,83,83,86,85,13,9,8,7,0.6,0.4
2026-07-22T1000,4166A,88.1198,47.7931,阿勒泰地区,阿勒泰路33号,,29,26,23,10,5,90,90,90,89,7,5,6,6,0.4,0.3
2026-07-22T1000,2630A,80.1171,32.4999,阿里地区,阿里监测站,,29,14,7,3,2,90,90,114,109,15,4,5,6,0.2,0.2
2026-07-22T1000,3192A,80.0906,32.5029,阿里地区,阿里藏医院,,30,6,6,3,3,95,95,108,104,4,2,6,6,0.2,0.2
2026-07-22T1000,2644A,109.0088,32.6974,安康市,汉滨区检察院,,36,22,35,7,15,114,114,116,116,7,8,2,3,0.3,0.3
2026-07-22T1000,4054A,109.0324,32.6913,安康市,市邮政管理局,,40,21,33,8,17,128,128,127,127,6,7,2,4,0.7,0.7
2026-07-22T1000,2291A,117.0806,30.5181,安庆市,环科院,,17,17,12,9,6,50,50,41,41,11,14,10,9,0.6,0.8
2026-07-22T1000,2292A,117.0331,30.5118,安庆市,马山宾馆,,17,16,11,11,6,54,54,38,38,5,10,3,2,0.6,0.6
2026-07-22T1000,2294A,116.9897,30.6146,安庆市,安庆大学,,20,20,13,12,7,47,47,32,32,13,14,4,4,0.4,0.5
2026-07-22T1000,3173A,117.0598,30.5351,安庆市,市人大,,19,19,12,10,6,51,51,42,42,6,6,8,5,0.5,0.6
2026-07-22T1000,3123A,105.9408,26.2431,安顺市,凤凰山,,26,21,25,13,18,82,82,67,67,7,7,6,8,0.6,0.6
2026-07-22T1000,3124A,105.9443,26.2567,安顺市,金钟山,,29,21,22,14,19,90,90,79,79,7,4,8,9,0.5,0.5
2026-07-22T1000,3125A,105.8983,26.248,安顺市,娄家坡,,29,22,24,20,17,88,88,75,75,5,4,6,8,0.4,0.4
2026-07-22T1000,1819A,114.3552,36.1017,安阳市,红庙街,,39,39,38,21,24,98,98,86,84,9,8,4,4,0.4,0.5
2026-07-22T1000,1820A,114.361,36.0681,安阳市,银杏小区,NA,NA,NA,40,20,25,101,101,82,81,10,14,1,1,0.5,0.5
2026-07-22T1000,3141A,114.3921,36.0879,安阳市,信访局,颗粒物(PM10),78,89,45,23,27,106,106,90,89,12,8,3,2,0.9,0.8
2026-07-22T1000,3669A,114.4706,36.0634,安阳市,左辅环卫站,,35,32,47,24,25,84,84,57,57,2,8,2,3,0.6,0.6
2026-07-22T1000,4117A,114.2918,36.0769,安阳市,钢三路198号,,46,46,29,29,25,85,85,65,65,6,6,3,2,0.6,0.6
2026-07-22T1000,1748A,123.0441,41.1201,鞍山市,深沟寺,,36,31,35,21,21,115,115,88,88,7,11,7,9,0.7,0.8
2026-07-22T1000,1749A,123.011,41.0931,鞍山市,太阳城,NA,NA,34,43,27,23,115,115,107,107,NA,15,8,10,0.8,0.9
2026-07-22T1000,1750A,123.0483,41.1445,鞍山市,太平,,39,37,41,27,23,119,119,94,94,7,11,7,8,0.6,0.8
2026-07-22T1000,1751A,122.964,41.0968,鞍山市,铁西三道街,,47,47,39,28,22,139,139,110,110,10,11,6,7,1.2,1
2026-07-22T1000,1753A,123.0219,41.0822,鞍山市,明达新区,,38,29,34,20,21,120,120,114,114,7,11,4,6,0.8,0.9
2026-07-22T1000,4201A,122.944647,41.082639,鞍山市,兴盛南路290号,,43,38,39,27,24,137,137,109,109,10,18,3,4,0.7,1
2026-07-22T1000,2195A,107.4206,40.7609,巴彦淖尔市,附二中,NA,NA,38,46,16,20,NA,NA,79,NA,NA,10,16,15,0.7,0.6
2026-07-22T1000,2196A,107.37,40.7372,巴彦淖尔市,市环保大楼,颗粒物(PM10),69,76,63,23,18,79,79,81,75,12,8,11,12,0.8,0.7
2026-07-22T1000,1956A,86.1476,41.7529,巴音郭楞蒙古自治州,孔雀公园,颗粒物(PM10),65,71,48,10,12,103,103,99,99,10,17,8,7,0.2,0.3
2026-07-22T1000,1957A,86.1971,41.7166,巴音郭楞蒙古自治州,棉纺厂,颗粒物(PM10),56,58,51,6,16,100,100,95,95,14,21,/,/,/,/
2026-07-22T1000,1958A,86.236,41.7172,巴音郭楞蒙古自治州,经济开发区,颗粒物(PM10),53,53,30,8,13,100,100,101,101,9,9,5,4,0.3,0.2
2026-07-22T1000,3181A,106.776805,31.852614,巴中市,市五中,NA,NA,42,43,22,26,100,100,63,63,18,12,10,10,NA,0.6
2026-07-22T1000,3183A,106.7419,31.8654,巴中市,圣泉水务公司,,38,38,41,20,24,99,99,76,76,12,13,10,10,0.7,0.6
2026-07-22T1000,3616A,106.7617,31.8343,巴中市,市中心医院,,49,49,50,30,28,32,32,20,20,21,17,11,11,1.0,1
2026-07-22T1000,2235A,122.7909,45.608,白城市,洮北区环保局,,28,20,24,19,18,76,76,61,59,4,6,6,5,0.4,0.4
2026-07-22T1000,2236A,122.8741,45.5725,白城市,市环保局,,29,29,23,19,17,59,59,43,43,4,7,5,4,0.3,0.3
2026-07-22T1000,2231A,126.4219,41.9172,白山市,喜丰,颗粒物(PM10),54,55,38,15,14,87,87,26,26,14,14,14,14,0.7,0.7
2026-07-22T1000,2232A,126.4082,41.9416,白山市,环保局,,28,28,27,13,15,84,84,28,28,7,8,4,10,0.7,0.8
2026-07-22T1000,2647A,104.1727,36.5448,白银市,第三小学,,29,25,24,16,11,91,91,86,84,14,13,24,15,0.5,0.5
2026-07-22T1000,2648A,104.1467,36.5482,白银市,动力公司,,30,17,24,7,12,94,94,62,62,10,13,20,7,0.4,0.4
2026-07-22T1000,2512A,106.6102,23.901,百色市,市监测站,,46,46,32,23,16,33,33,23,20,15,10,18,10,0.7,0.4
2026-07-22T1000,2513A,106.6524,23.8842,百色市,市中心血站,颗粒物(PM10),55,57,36,34,19,37,37,25,22,14,10,22,13,0.7,0.5
2026-07-22T1000,4133A,106.6273,23.8798,百色市,龙景西路,细颗粒物(PM2.5),56,53,35,38,16,22,22,25,18,18,9,19,13,0.6,0.4
2026-07-22T1000,2270A,117.396,32.9389,蚌埠市,工人疗养院,,18,18,22,7,10,29,29,48,47,21,19,6,6,0.6,0.3
2026-07-22T1000,2271A,117.3606,32.9428,蚌埠市,百货大楼,NA,NA,NA,12,8,10,NA,NA,53,53,14,12,8,9,0.8,0.7
2026-07-22T1000,2273A,117.4183,32.8909,蚌埠市,蚌埠学院,,11,6,15,3,10,35,35,43,40,5,6,5,5,0.6,0.4
2026-07-22T1000,2274A,117.3534,32.9672,蚌埠市,淮上区政府,,15,12,17,10,11,34,34,53,52,19,14,7,7,0.6,0.4
2026-07-22T1000,2275A,117.3143,32.8977,蚌埠市,高新区,,13,9,15,3,8,40,40,49,45,7,7,9,9,0.5,0.4
2026-07-22T1000,3715A,117.3091,32.9314,蚌埠市,蚌埠田家炳中学,,15,14,22,7,10,47,47,55,50,4,6,7,7,0.5,0.5
2026-07-22T1000,1585A,109.8761,40.6533,包头市,市环境监测站,,32,28,29,14,15,102,102,94,89,18,17,17,11,0.7,0.7
2026-07-22T1000,1587A,109.9992,40.5843,包头市,包头八中,,41,41,37,13,17,100,100,94,91,13,16,18,18,0.5,0.6
2026-07-22T1000,1589A,109.8641,40.6288,包头市,惠龙物流,,33,28,29,11,16,103,103,96,93,12,15,9,8,0.4,0.4
2026-07-22T1000,1590A,110.0376,40.5546,包头市,东河鸿龙湾,,35,31,30,12,13,110,110,92,92,11,15,17,16,0.3,0.3
2026-07-22T1000,3283A,109.9154,40.5684,包头市,滨河大厦,,33,24,28,13,17,105,105,90,89,14,16,12,10,0.5,0.5
2026-07-22T1000,3419A,109.9449,40.6259,包头市,包头市委党校,NA,NA,NA,26,NA,16,96,96,94,91,23,19,30,19,0.7,0.6
2026-07-22T1000,3683A,109.8332,40.6577,包头市,昆区政府,NA,NA,NA,31,NA,16,97,97,97,92,21,19,13,10,0.6,0.6
2026-07-22T1000,1931A,107.0802,34.3129,宝鸡市,竹园沟,,47,47,42,32,27,115,115,69,69,13,8,8,8,0.8,0.7
2026-07-22T1000,1933A,107.1429,34.3549,宝鸡市,监测站,,47,47,45,27,24,123,123,104,99,10,8,11,11,0.5,0.5
2026-07-22T1000,1934A,107.1172,34.3759,宝鸡市,技工学校,颗粒物(PM10),54,55,46,33,29,124,124,102,98,9,7,7,7,0.6,0.5
2026-07-22T1000,1936A,107.2025,34.3518,宝鸡市,文理学院,,43,39,45,30,27,119,119,107,103,13,10,10,10,0.6,0.6
2026-07-22T1000,1937A,107.2396,34.3626,宝鸡市,三迪小学,NA,NA,77,46,25,25,NA,NA,108,NA,9,10,6,6,0.5,0.5
2026-07-22T1000,4155A,107.1721,34.3558,宝鸡市,滨河北路,NA,NA,49,49,27,26,NA,NA,99,92,8,7,8,8,0.6,0.6
2026-07-22T1000,4308A,107.3898,34.3601,宝鸡市,陈仓区北开路21号,,36,35,47,22,28,115,115,86,86,9,10,5,7,0.4,0.5
2026-07-22T1000,1051A,115.4803,38.8568,保定市,游泳馆,,39,14,24,3,19,123,123,107,107,4,7,5,5,0.0,0.1
2026-07-22T1000,1052A,115.509,38.8895,保定市,华电二区,,41,11,23,10,15,129,129,112,112,4,6,3,2,0.5,0.5
2026-07-22T1000,1053A,115.4588,38.9037,保定市,接待中心,,35,35,34,9,19,111,111,104,104,4,6,2,2,0.3,0.4
2026-07-22T1000,1054A,115.4484,38.8344,保定市,地表水厂,,39,15,25,8,18,122,122,97,97,5,7,2,2,0.2,0.3
2026-07-22T1000,3581A,115.3136,38.9511,保定市,满城区生态环境分局,NA,NA,19,26,8,19,NA,NA,105,105,4,6,NA,2,0.1,0.1
2026-07-22T1000,3582A,115.4709,38.7628,保定市,清苑区第二中学,NA,NA,NA,33,18,19,114,114,99,99,10,10,NA,3,NA,0.4
2026-07-22T1000,3583A,115.6231,39.0223,保定市,徐水物探局,,35,NA,13,6,14,110,110,103,103,12,9,2,2,0.3,0.3
2026-07-22T1000,4004A,115.4199,38.8665,保定市,双鹰农机,,37,17,29,3,21,117,117,100,100,2,5,2,3,0.2,0.1
2026-07-22T1000,4034A,115.515,38.8589,保定市,植保所站,,40,22,29,7,16,125,125,112,112,5,7,3,3,0.0,0.1
2026-07-22T1000,2594A,99.1589,25.1137,保山市,市环境监测站,,29,7,15,6,8,92,92,75,75,10,7,6,6,0.3,0.3
2026-07-22T1000,2595A,99.1616,25.1381,保山市,市环保局,,31,8,16,3,7,98,98,76,76,6,5,5,6,0.2,0.3
2026-07-22T1000,1867A,109.1435,21.4085,北海市,海滩公园,NA,NA,54,33,16,11,NA,NA,62,59,4,5,NA,2,0.6,0.6
2026-07-22T1000,1868A,109.0983,21.466,北海市,新市环保局,,41,41,26,22,12,59,59,60,58,9,10,1,1,0.7,0.7
2026-07-22T1000,1869A,109.1775,21.5232,北海市,北海工业园,颗粒物(PM10),56,58,30,25,13,53,53,26,26,10,12,6,4,0.5,0.5
2026-07-22T1000,3400A,109.1844,21.4396,北海市,龙潭自来水厂,,50,50,24,17,13,46,46,37,33,6,6,4,3,0.7,0.7
2026-07-22T1000,1001A,116.3611,39.8786,北京市,万寿西宫,,29,29,23,20,16,88,88,68,66,15,16,3,3,0.4,0.4
2026-07-22T1000,1003A,116.4174,39.9289,北京市,东四,,35,30,23,24,15,92,92,75,69,15,14,2,2,0.4,0.3
2026-07-22T1000,1004A,116.4073,39.8858,北京市,天坛,,33,33,27,18,14,83,83,40,40,9,10,2,2,0.7,0.6
2026-07-22T1000,1005A,116.4622,39.9364,北京市,农展馆,,32,29,24,16,14,100,100,58,55,13,18,1,1,0.5,0.5
2026-07-22T1000,1006A,116.3399,39.9293,北京市,官园,,40,40,24,19,13,71,71,62,56,20,17,2,2,0.6,0.5
2026-07-22T1000,1007A,116.2879,39.9613,北京市,海淀万柳,,43,43,25,19,15,56,56,35,31,25,22,2,2,0.4,0.4
2026-07-22T1000,1008A,116.6635,40.1349,北京市,顺义新城,,32,10,29,7,20,102,102,68,68,1,7,2,3,0.4,0.4
2026-07-22T1000,1009A,116.6275,40.327,北京市,怀柔镇,,31,17,36,11,22,99,99,77,77,9,9,3,3,0.5,0.5
2026-07-22T1000,1010A,116.2295,40.217,北京市,昌平镇,,32,31,29,22,19,81,81,26,26,14,22,2,2,0.9,0.9
2026-07-22T1000,1011A,116.3968,39.982,北京市,奥体中心,,34,34,19,19,12,81,81,53,52,8,11,2,2,0.5,0.5
2026-07-22T1000,3418A,116.8336,40.4095,北京市,密云新城,,28,10,30,3,19,88,88,62,62,8,9,2,2,0.5,0.5
2026-07-22T1000,3671A,116.0879,39.9725,北京市,门头沟三家店,,25,15,16,8,11,79,79,69,66,8,10,3,3,0.4,0.4
2026-07-22T1000,3672A,116.1507,39.8246,北京市,丰台云岗,,39,39,21,19,13,44,44,49,49,23,11,3,3,0.4,0.3
2026-07-22T1000,3674A,115.9578,39.7602,北京市,房山燕山,,33,33,25,23,16,70,70,45,44,13,6,1,1,0.4,0.4
2026-07-22T1000,3675A,116.4669,39.7734,北京市,大兴旧宫,,30,23,26,15,16,94,94,51,51,10,16,1,1,0.5,0.5
2026-07-22T1000,3694A,115.9859,40.4562,北京市,延庆石河营,,15,15,23,9,15,42,42,44,41,10,10,3,3,0.4,0.4
2026-07-22T1000,3695A,116.6151,40.3052,北京市,怀柔新城,,26,17,34,11,25,83,83,72,70,8,6,1,1,0.7,0.7
2026-07-22T1000,3696A,116.2542,39.8764,北京市,丰台小屯,,44,44,21,26,12,52,52,42,37,18,11,3,3,0.6,0.5
2026-07-22T1000,3697A,116.8399,40.3843,北京市,密云镇,,28,9,31,3,26,88,88,64,64,10,11,3,3,0.5,0.5
2026-07-22T1000,4057A,115.9423,40.4431,北京市,延庆百泉,,17,17,20,9,14,52,52,41,41,6,8,1,1,0.4,0.4
2026-07-22T1000,4058A,116.6598,39.9164,北京市,通州新华,,30,17,22,12,14,95,95,75,75,9,14,3,4,0.6,0.7
2026-07-22T1000,4182A,116.1942,39.9158,北京市,石景山八角,,32,32,19,19,11,56,56,77,68,21,7,5,4,0.5,0.4
2026-07-22T1000,4194A,117.078628,40.151726,北京市,平谷新城,,33,9,25,3,16,104,104,97,97,6,6,1,1,0.5,0.5
2026-07-22T1000,1761A,123.8274146,41.31234549,本溪市,大峪,,37,15,42,10,25,116,116,47,47,3,12,5,6,0.4,0.9
2026-07-22T1000,1763A,123.7169,41.3094,本溪市,彩屯,,30,28,41,15,25,94,94,44,44,14,13,9,7,1.4,1.3
2026-07-22T1000,1764A,123.7672166,41.28649327,本溪市,东明,,37,28,47,12,28,116,116,66,66,5,14,3,6,0.5,1.2
2026-07-22T1000,1765A,123.799345,41.266614,本溪市,新立屯,,35,22,39,11,25,111,111,71,71,5,18,7,9,0.6,1.1
2026-07-22T1000,1766A,123.829144,41.336777,本溪市,威宁,NA,NA,33,43,16,29,113,113,36,36,NA,15,10,9,0.5,1
2026-07-22T1000,2587A,105.287,27.3133,毕节市,八中,,38,38,30,20,15,70,70,39,39,23,17,15,9,0.8,0.5
2026-07-22T1000,2588A,105.3079,27.2987,毕节市,师专,NA,NA,40,33,20,17,NA,NA,36,31,23,14,NA,8,0.7,0.6
2026-07-22T1000,4263A,105.3688,27.3598,毕节市,工业大道,,32,32,24,18,17,77,77,32,32,14,20,11,9,/,/
2026-07-22T1000,1629A,117.9961,37.3604,滨州市,第二水厂,细颗粒物(PM2.5),60,48,66,40,57,139,139,78,78,7,12,7,7,0.7,0.6
2026-07-22T1000,1630A,117.9789,37.3931,滨州市,北中新校,,48,48,60,26,52,153,153,92,92,9,12,7,5,0.8,0.7
2026-07-22T1000,3514A,117.9379,37.3959,滨州市,中海酒店,NA,NA,44,53,21,49,NA,NA,72,NA,9,12,12,9,NA,0.6
2026-07-22T1000,3515A,117.9381509,37.35547456,滨州市,开发区一中,细颗粒物(PM2.5),64,51,73,42,58,150,150,79,79,10,15,17,11,0.6,0.5
2026-07-22T1000,3516A,118.0914,37.6938,滨州市,金海六路,细颗粒物(PM2.5),68,54,70,44,63,142,142,72,72,15,16,7,6,0.4,0.7
2026-07-22T1000,4028A,117.9955,37.3752,滨州市,滨州市西街道办事处,,45,44,55,27,56,143,143,81,81,5,9,6,6,0.7,0.6
2026-07-22T1000,2311A,115.8071,33.8399,亳州市,污水处理厂,,34,21,21,10,15,108,108,55,55,6,7,4,3,0.6,0.4
2026-07-22T1000,2312A,115.7789,33.8519,亳州市,三国揽胜宫,,32,28,25,10,16,100,100,55,55,7,7,5,4,0.5,0.3
2026-07-22T1000,3332A,115.7631,33.803,亳州市,亳州学院,,33,14,16,11,16,104,104,64,64,6,8,2,2,0.5,0.4
2026-07-22T1000,2693A,82.0482,44.8553,博尔塔拉蒙古自治州,市党校,,33,33,40,15,13,78,78,88,79,4,4,3,4,0.3,0.3
2026-07-22T1000,2694A,82.0805,44.8966,博尔塔拉蒙古自治州,市环保局,,44,44,38,3,8,86,86,93,86,10,8,3,3,0.0,0
2026-07-22T1000,1071A,116.8733,38.2922,沧州市,沧县城建局,,43,34,37,30,36,123,123,86,86,5,8,6,4,0.5,0.4
2026-07-22T1000,1072A,116.8462,38.3189,沧州市,电视转播站,颗粒物(PM10),53,53,53,29,33,130,130,96,96,5,8,3,3,0.2,0.2
2026-07-22T1000,1073A,116.8588,38.3161,沧州市,市环保局,颗粒物(PM10),61,65,69,32,36,125,125,88,88,6,10,3,3,0.1,0.1
2026-07-22T1000,3324A,116.8011,38.294,沧州市,河北水利电力学院,,50,36,41,35,32,137,137,93,93,6,9,2,2,0.4,0.4
2026-07-22T1000,2622A,97.1813,31.1289,昌都市,昌都监测站,,24,24,14,3,3,56,56,64,57,13,7,3,2,0.5,0.4
2026-07-22T1000,3719A,97.1707,31.1428,昌都市,昌都会议中心,,21,16,12,3,5,67,67,71,64,12,5,3,2,0.3,0.3
2026-07-22T1000,2692A,87.2722,44.0298,昌吉回族自治州,新区政务中心,颗粒物(PM10),127,188,65,30,23,95,95,88,88,8,14,10,10,0.2,0.2
2026-07-22T1000,3613A,87.3069,44.0093,昌吉回族自治州,亚心广场,颗粒物(PM10),140,222,83,34,20,99,99,92,92,9,18,11,9,0.2,0.3
2026-07-22T1000,4164A,87.2057,43.9289,昌吉回族自治州,财政所,颗粒物(PM10),134,206,69,24,16,107,107,94,94,4,9,8,8,0.0,0.1
2026-07-22T1000,1120A,125.2874,43.9024,长春市,客车厂,颗粒物(PM10),63,68,38,29,23,116,116,98,98,9,9,6,4,0.7,0.6
2026-07-22T1000,1121A,125.2943,43.8508,长春市,邮电学院,,38,36,32,26,22,120,120,104,104,6,8,7,6,0.6,0.4
2026-07-22T1000,1122A,125.3648,43.8745,长春市,劳动公园,颗粒物(PM10),53,53,33,22,22,116,116,96,96,7,9,6,6,0.5,0.4
2026-07-22T1000,1123A,125.3233,43.8781,长春市,园林处,,49,49,33,22,21,122,122,107,107,8,8,3,3,0.6,0.5
2026-07-22T1000,1124A,125.4604,43.7904,长春市,净月潭,,38,32,31,26,28,108,108,67,67,5,6,6,6,0.5,0.4
2026-07-22T1000,1126A,125.38,43.8422,长春市,经开区环卫处,,39,39,34,24,21,108,108,85,85,7,8,3,3,0.6,0.5
2026-07-22T1000,1127A,125.234,43.7761,长春市,高新区管委会,,38,38,32,25,21,114,114,89,89,4,7,5,4,0.6,0.5
2026-07-22T1000,1128A,125.1695,43.83,长春市,岱山公园,,38,34,33,26,21,115,115,90,90,9,15,4,2,0.6,0.5
2026-07-22T1000,4281A,125.334645,43.916281,长春市,北亚泰大街1068号,,45,45,36,26,23,111,111,100,100,10,13,4,3,0.8,0.6
2026-07-22T1000,1335A,113.082,28.2421,长沙市,经开区环保局,NA,NA,NA,18,13,10,29,29,26,26,5,8,6,5,0.7,0.6
2026-07-22T1000,1336A,112.8873,28.2202,长沙市,高开区环保局,,29,29,22,16,12,33,33,28,26,6,4,8,4,1.2,0.7
2026-07-22T1000,1337A,113.0785,28.2012,长沙市,马坡岭,,30,30,17,13,8,36,36,29,29,6,7,8,6,0.5,0.4
2026-07-22T1000,1338A,112.9448,28.1894,长沙市,湖南师范大学,,30,30,21,14,11,38,38,27,26,5,4,12,7,0.5,0.4
2026-07-22T1000,1339A,113.0177,28.1322,长沙市,雨花区环保局,,18,17,19,12,10,40,40,26,24,6,8,7,6,0.7,0.7
2026-07-22T1000,1340A,112.9795,28.2593,长沙市,伍家岭,NA,NA,29,21,12,10,NA,NA,30,29,8,8,6,3,0.5,0.4
2026-07-22T1000,1341A,113.002,28.1944,长沙市,火车新站,,34,34,22,12,12,34,34,25,24,6,5,10,10,0.5,0.5
2026-07-22T1000,1342A,112.9846,28.1177,长沙市,天心区环保局,,24,24,20,11,11,44,44,30,30,8,9,6,3,0.3,0.3
2026-07-22T1000,1343A,112.8906,28.1307,长沙市,湖南中医药大学,,28,28,20,14,12,35,35,26,25,8,7,9,6,1.0,0.7
2026-07-22T1000,1727A,113.1146,36.1547,长治市,清华站,,24,24,25,9,12,66,66,91,76,17,7,9,8,0.8,0.7
2026-07-22T1000,1730A,113.0887,36.2126,长治市,审计局,,26,26,24,16,15,57,57,85,69,17,7,11,10,0.8,0.7
2026-07-22T1000,1731A,113.0845,36.1856,长治市,长治八中,NA,NA,24,26,11,14,58,58,87,73,20,9,NA,11,0.7,0.8
2026-07-22T1000,2845A,113.1561,36.1912,长治市,德盛苑,,27,27,24,9,14,81,81,90,77,17,9,16,10,1.4,0.8
2026-07-22T1000,3568A,113.0603,36.0464,长治市,向阳小学,,42,42,31,8,14,65,65,84,70,22,8,6,5,0.3,0.3
2026-07-22T1000,3569A,112.8788,36.315,长治市,屯留一中,,28,22,24,13,15,89,89,83,75,20,11,19,10,0.9,0.9
2026-07-22T1000,4189A,113.113092,36.199482,长治市,英华南巷50号,,40,40,30,13,14,66,66,93,78,18,8,13,12,0.8,0.6
2026-07-22T1000,4190A,113.23666,36.33435,长治市,学府街1号,,41,41,32,12,18,89,89,92,82,8,4,16,8,1.1,0.6
2026-07-22T1000,1854A,111.696,28.9725,常德市,市二中,,18,18,24,12,15,34,34,19,19,4,9,7,7,1.0,1
2026-07-22T1000,3138A,111.7152,29.0288,常德市,武陵区永安,,25,25,26,16,17,31,31,30,29,9,8,8,8,0.5,0.5
2026-07-22T1000,3139A,111.6891,28.9881,常德市,鼎城区玉霞,,20,16,21,14,16,35,35,27,27,4,6,9,9,0.8,0.8
2026-07-22T1000,3140A,111.6651,29.0526,常德市,武陵区长庚,,21,21,22,14,15,38,38,34,33,5,6,8,8,0.7,0.7
2026-07-22T1000,1196A,119.9524,31.7586,常州市,市监测站,,18,18,15,3,10,57,57,43,43,7,12,9,8,0.4,0.5
2026-07-22T1000,1200A,119.9351,31.703,常州市,武进监测站,,17,10,16,3,9,53,53,42,42,10,12,6,6,0.4,0.5
2026-07-22T1000,3002A,119.9701,31.813,常州市,行政中心,,25,25,24,8,13,56,56,47,46,11,13,7,7,0.4,0.4
2026-07-22T1000,3003A,120.0434,31.7726,常州市,经开区,,15,14,23,6,13,48,48,50,46,16,17,2,5,0.8,0.8
2026-07-22T1000,3010A,119.8919,31.7892,常州市,钟楼,,25,25,22,3,9,54,54,48,47,11,15,8,12,0.5,0.4
2026-07-22T1000,3429A,119.8595,31.706,常州市,武进经发区,,18,14,19,9,10,55,55,36,36,6,11,6,8,0.7,0.8
2026-07-22T1000,3430A,119.5812,31.7256,常州市,金坛城区,,20,18,14,8,9,61,61,38,38,7,8,7,15,0.5,0.6
2026-07-22T1000,4089A,119.9551,31.863,常州市,崇义南街5-H号,,20,19,24,8,13,62,62,50,48,11,17,6,6,0.7,0.8
2026-07-22T1000,2220A,120.4318,41.588,朝阳市,西梁,NA,NA,NA,37,NA,22,129,129,100,100,12,9,NA,10,1.1,1
2026-07-22T1000,2221A,120.452,41.565,朝阳市,河畔小区,,46,42,31,32,23,125,125,116,116,7,6,9,10,1.2,1
2026-07-22T1000,2222A,120.4176,41.5648,朝阳市,八里堡,,48,48,37,21,24,118,118,94,94,10,9,8,9,1.2,0.8
2026-07-22T1000,3026A,116.6179,23.6608,潮州市,市政府,颗粒物(PM10),56,58,51,24,23,63,63,31,31,11,10,6,4,0.9,0.7
2026-07-22T1000,4036A,116.646,23.676,潮州市,金山,颗粒物(PM10),67,73,45,22,21,59,59,35,35,4,8,4,3,0.5,0.5
2026-07-22T1000,2473A,113.0116,25.8228,郴州市,市职中,NA,NA,32,21,18,13,50,50,50,49,NA,3,NA,7,0.5,0.8
2026-07-22T1000,2475A,113.0381,25.8074,郴州市,市审计局,,34,34,21,17,13,57,57,43,43,2,3,5,6,/,/
2026-07-22T1000,2476A,113.0348,25.7757,郴州市,市环保局,,30,30,18,17,12,57,57,46,46,4,5,8,8,0.5,0.5
2026-07-22T1000,4252A,113.0138,25.8011,郴州市,好美居路49号,,19,19,16,3,8,56,56,49,49,4,4,6,5,/,/
2026-07-22T1000,1431A,103.9727,30.7242,成都市,金泉两河,,35,35,41,17,24,88,88,50,50,18,17,5,3,0.6,0.5
2026-07-22T1000,1432A,104.1423,30.6765,成都市,十里店,颗粒物(PM10),58,60,43,32,29,94,94,60,60,31,20,8,7,0.8,0.6
2026-07-22T1000,1433A,104.0594,30.5765,成都市,三瓦窑,颗粒物(PM10),63,67,51,25,29,90,90,44,44,32,35,8,7,0.8,0.7
2026-07-22T1000,1434A,104.1122,30.6306,成都市,沙河铺,,45,45,43,26,28,94,94,41,41,27,28,8,7,0.7,0.7
2026-07-22T1000,2880A,104.0219,30.6561,成都市,大石西路,,36,25,43,25,25,87,87,52,52,24,20,6,5,0.8,0.7
2026-07-22T1000,3136A,104.2724,30.559,成都市,龙泉驿区区政府,,44,44,32,26,25,127,127,91,91,17,12,8,6,0.8,0.7
2026-07-22T1000,3357A,104.0028,30.6891,成都市,金博路,,26,22,30,18,22,80,80,42,42,20,24,11,10,0.9,0.9
2026-07-22T1000,3359A,104.056,30.5228,成都市,华阳,颗粒物(PM10),53,53,46,26,27,104,104,67,67,20,18,4,3,0.7,0.7
2026-07-22T1000,3488A,104.387954,30.746684,成都市,青白江技师分院,,39,38,39,25,24,122,122,60,60,20,25,10,7,0.8,0.6
2026-07-22T1000,3489A,104.0788,30.4054,成都市,科学城,,35,27,39,16,20,112,112,55,55,15,17,9,9,0.7,0.6
2026-07-22T1000,4011A,103.8505,30.6946,成都市,光华大道三段,,30,19,37,16,20,95,95,70,70,13,12,6,5,0.6,0.6
2026-07-22T1000,4144A,104.3257,30.6406,成都市,八角井街185号,颗粒物(PM10),57,59,46,32,30,129,129,NA,NA,20,11,9,8,0.7,0.6
2026-07-22T1000,4224A,104.2433276,30.53529463,成都市,鲸龙路1057号,,40,34,47,21,26,126,126,78,78,21,27,13,11,0.7,0.6
2026-07-22T1000,1062A,117.9531,40.908,承德市,铁路,,23,11,38,8,23,71,71,34,34,28,16,4,7,0.4,0.5
2026-07-22T1000,1063A,117.9397,40.9763,承德市,中国银行,,36,31,41,25,24,98,98,34,34,10,8,4,8,0.4,0.5
2026-07-22T1000,4073A,117.9462,40.95,承德市,杏林街1号,,29,16,38,11,30,92,92,28,28,5,7,4,7,0.4,0.5
2026-07-22T1000,4274A,117.7994,40.9605,承德市,滨河大街98号,,28,20,35,9,20,88,88,26,26,4,6,5,7,0.2,0.5
2026-07-22T1000,2314A,117.4698,30.6617,池州市,池州学院,,21,21,14,8,7,54,54,29,29,8,12,4,4,0.6,0.7
2026-07-22T1000,3237A,117.4918,30.6617,池州市,展览馆,,19,19,15,9,6,52,52,24,24,6,8,2,7,0.3,0.4
2026-07-22T1000,3333A,117.5626,30.695,池州市,第八中学,,16,15,12,8,6,50,50,24,24,3,7,4,7,0.3,0.4
2026-07-22T1000,3334A,117.5037,30.6242,池州市,第十二中学,NA,NA,19,18,8,9,NA,NA,18,18,6,11,5,6,0.6,0.8
2026-07-22T1000,1744A,118.9229,42.2816,赤峰市,松山一中,,36,28,17,15,14,114,114,74,74,10,13,7,9,0.8,0.7
2026-07-22T1000,1745A,118.9588,42.2733,赤峰市,哈达街,,37,37,18,17,12,89,89,71,69,16,14,13,12,0.5,0.5
2026-07-22T1000,1746A,118.8792,42.2551,赤峰市,天义路,,29,17,13,12,11,90,90,75,75,14,11,8,8,0.1,0.3
2026-07-22T1000,3058A,119.2656,42.0356,赤峰市,银河街,NA,NA,46,23,29,16,NA,NA,43,39,21,13,46,18,0.6,0.4
2026-07-22T1000,3286A,118.9359,42.3146,赤峰市,桥北物流园区,,29,26,14,20,11,89,89,50,50,26,17,4,20,0.8,0.7
2026-07-22T1000,2521A,107.3473,22.4137,崇左市,市环保局江州分局,,50,38,34,35,17,40,40,19,19,11,10,6,6,0.8,0.5
2026-07-22T1000,4256A,107.375,22.3736,崇左市,石景林东路7号,,28,24,26,19,16,45,45,22,22,7,9,4,5,0.4,0.4
2026-07-22T1000,3207A,118.31131,32.3033,滁州市,市政府原办公楼,,19,NA,12,13,24,50,50,57,50,7,10,6,6,0.4,0.5
2026-07-22T1000,3331A,118.3268,32.2633,滁州市,图书馆,NA,NA,10,12,3,14,42,42,48,41,6,10,NA,7,0.4,0.5
2026-07-22T1000,4101A,118.3196,32.3335,滁州市,银山路666号,,15,13,13,9,21,46,46,50,45,8,11,4,4,0.5,0.6
2026-07-22T1000,4102A,118.3426,32.2979,滁州市,黄山路555号,,21,21,25,7,21,45,45,51,45,7,10,6,6,0.5,0.6
2026-07-22T1000,2606A,101.5379,25.0492,楚雄彝族自治州,市经济开发区,NA,NA,8,24,3,14,NA,NA,37,37,9,11,NA,7,0.7,0.8
2026-07-22T1000,4153A,101.5536,25.0343,楚雄彝族自治州,团结路562号,,35,7,23,3,14,111,111,52,52,7,10,3,3,0.6,0.7
2026-07-22T1000,2549A,107.5087,31.2186,达州市,市环境监测站,颗粒物(PM10),53,54,51,16,20,90,90,50,50,18,17,11,8,0.4,0.4
2026-07-22T1000,2550A,107.4988,31.2132,达州市,凤凰小区,,46,46,52,19,24,97,97,62,62,16,16,10,8,0.3,0.3
2026-07-22T1000,2551A,107.5081,31.1987,达州市,达县机关宾馆,,41,41,52,19,24,101,101,66,66,18,25,8,7,0.3,0.4
2026-07-22T1000,2552A,107.4644,31.2124,达州市,市政中心,NA,NA,51,60,16,23,108,108,65,65,25,21,NA,8,0.3,0.2
2026-07-22T1000,2614A,100.2168,25.5818,大理白族自治州,大理市环境监测站,,33,6,10,3,7,104,104,115,111,12,10,5,5,0.3,0.3
2026-07-22T1000,2615A,100.1542,25.7055,大理白族自治州,大理古城,,32,7,16,3,8,102,102,102,99,10,10,6,6,0.6,0.5
2026-07-22T1000,1109A,121.6119,38.974,大连市,甘井子,NA,NA,31,21,14,12,124,124,60,NA,16,18,NA,8,NA,0.6
2026-07-22T1000,1110A,121.565,38.9509,大连市,周水子,,32,17,18,10,13,101,101,64,64,21,19,9,7,0.8,0.8
2026-07-22T1000,1111A,121.5637,38.8849,大连市,星海三站,,28,13,17,12,12,87,87,60,60,14,14,7,7,0.8,0.8
2026-07-22T1000,1112A,121.6301,38.9117,大连市,青泥洼桥,,35,17,12,14,11,109,109,70,70,6,8,8,8,0.8,0.7
2026-07-22T1000,1113A,121.6248,38.8643,大连市,傅家庄,NA,NA,13,12,10,9,90,90,63,63,8,9,8,7,NA,0.8
2026-07-22T1000,1114A,121.5117,38.8636,大连市,七贤岭,,25,16,23,7,15,80,80,50,50,17,12,6,7,0.6,0.6
2026-07-22T1000,1116A,121.7507,39.1339,大连市,金州,,37,20,28,14,16,117,117,82,82,10,14,11,11,0.6,0.6
2026-07-22T1000,1117A,121.7811,39.0495,大连市,开发区,,38,18,19,14,11,120,120,66,66,9,15,6,8,0.7,0.6
2026-07-22T1000,1118A,121.9762,39.0631,大连市,双D港,,31,19,17,11,10,97,97,47,47,7,12,6,6,0.4,0.4
2026-07-22T1000,4082A,121.2548,38.8188,大连市,旅顺,,27,18,18,11,12,85,85,59,59,20,18,7,7,0.5,0.5
2026-07-22T1000,1789A,124.8085,46.0381,大庆市,大同区,,42,42,27,18,13,119,119,102,99,12,14,93,10,0.7,0.6
2026-07-22T1000,1790A,125.1166,46.5255,大庆市,龙凤区,,30,29,22,19,11,93,93,87,86,7,9,7,7,0.1,0.1
2026-07-22T1000,1791A,124.8894,46.4007,大庆市,红岗区,,32,NA,16,22,9,101,101,93,89,6,4,6,6,0.5,0.5
2026-07-22T1000,1792A,125.1391,46.578,大庆市,萨尔图区,,35,35,24,18,15,90,90,85,80,11,10,6,6,0.5,0.4
2026-07-22T1000,1793A,124.9026,46.6217,大庆市,让胡路区,,32,28,22,22,15,98,98,94,89,9,7,4,4,0.5,0.5
2026-07-22T1000,3481A,125.127,46.6277,大庆市,萨区政府监测点,NA,NA,27,24,26,16,NA,NA,99,NA,2,2,NA,6,0.3,0.3
2026-07-22T1000,1723A,113.2926,40.0759,大同市,云冈宾馆,NA,NA,33,34,12,11,102,102,56,56,NA,21,10,8,0.4,0.6
2026-07-22T1000,1724A,113.3437,40.0921,大同市,大同大学,,35,26,30,9,12,111,111,69,69,14,17,9,7,0.5,0.5
2026-07-22T1000,1725A,113.2637,40.129,大同市,安家小村,,40,40,40,18,16,101,101,48,48,18,21,12,8,0.4,0.3
2026-07-22T1000,3282A,113.3399,40.0586,大同市,大同市卫生学校,NA,NA,61,36,11,13,NA,NA,62,61,12,20,7,7,0.5,0.6
2026-07-22T1000,3565A,113.1371,40.1122,大同市,云冈站,,30,30,34,18,14,83,83,39,39,20,13,8,7,0.7,0.6
2026-07-22T1000,3566A,113.1186,40.2556,大同市,图书馆,,41,41,34,14,13,92,92,36,36,12,13,10,8,0.9,0.8
2026-07-22T1000,3567A,113.5931,40.0459,大同市,区一中,,36,26,24,12,10,114,114,70,70,12,12,8,10,0.4,0.4
2026-07-22T1000,4199A,113.2798248,40.09972476,大同市,魏都大道141号,NA,NA,42,40,26,17,96,96,24,24,NA,25,NA,8,0.6,0.6
2026-07-22T1000,2269A,124.1068,50.4091,大兴安岭地区,科技局,,24,14,21,10,14,76,76,66,63,3,3,8,7,0.4,0.4
2026-07-22T1000,3663A,124.117,50.4279,大兴安岭地区,红旗社区,NA,NA,NA,9,NA,12,77,77,55,54,5,4,6,5,0.3,0.3
2026-07-22T1000,1600A,124.33,40.0625,丹东市,江湾东路,,28,19,26,10,19,89,89,66,66,4,8,4,4,0.5,0.5
2026-07-22T1000,1601A,124.4242,40.1513,丹东市,临江后街,,29,20,34,11,20,91,91,60,60,3,7,4,4,0.6,0.6
2026-07-22T1000,1602A,124.3935,40.1461,丹东市,元宝山,,29,20,33,10,23,91,91,69,69,5,8,3,3,0.6,0.7
2026-07-22T1000,1603A,124.3634,40.1093,丹东市,民主桥,,28,28,39,10,22,86,86,64,64,1,7,4,4,0.5,0.7
2026-07-22T1000,3541A,109.5726195,19.51688767,儋州市,第一中学子站,NA,NA,34,37,17,18,NA,NA,40,40,9,4,4,3,NA,0.5
2026-07-22T1000,3542A,109.5567,19.5187,儋州市,东坡学校子站,,25,25,33,14,16,66,66,41,41,2,3,4,3,0.6,0.6
2026-07-22T1000,2616A,98.5611,24.4273,德宏傣族景颇族自治州,德宏州监测站,,19,19,11,10,11,24,24,14,14,8,7,9,8,0.6,0.6
2026-07-22T1000,3677A,98.5887,24.4366,德宏傣族景颇族自治州,芒市人民政府综合楼,,35,35,27,12,8,19,19,17,17,11,7,7,7,0.8,0.6
2026-07-22T1000,1901A,104.424,31.1209,德阳市,东山公园,细颗粒物(PM2.5),74,53,45,47,31,95,95,64,64,30,16,21,16,0.9,0.8
2026-07-22T1000,1902A,104.3827,31.1318,德阳市,西小区,细颗粒物(PM2.5),66,56,58,43,36,89,89,57,57,39,29,22,23,0.9,0.7
2026-07-22T1000,1904A,104.3553,31.1091,德阳市,耐火材料厂,细颗粒物(PM2.5),124,NA,64,86,49,101,101,46,46,41,28,25,17,0.9,0.8
2026-07-22T1000,4145A,104.4144,31.1495,德阳市,市林业局,颗粒物(PM10),56,58,50,34,29,85,85,40,40,37,32,21,19,0.9,0.7
2026-07-22T1000,1622A,116.3034,37.4675,德州市,儿童乐园,,42,34,44,26,39,134,134,106,106,6,9,11,11,0.8,0.8
2026-07-22T1000,1624A,116.2992,37.4449,德州市,监理站,NA,NA,NA,49,NA,36,NA,NA,96,93,9,12,NA,13,0.4,0.4
2026-07-22T1000,3066A,116.2722,37.438,德州市,九衢泉纯净水厂,,44,44,49,28,42,130,130,92,92,11,18,11,11,0.4,0.5
2026-07-22T1000,3371A,116.3693,37.44,德州市,开发区人民医院,,49,44,49,34,41,131,131,91,91,10,13,9,9,0.4,0.4
2026-07-22T1000,3511A,116.5687,37.3331,德州市,陵城艺术中心,,48,48,49,32,39,133,133,102,102,10,12,8,5,0.6,0.6
2026-07-22T1000,4292A,116.352738,37.420875,德州市,新河东路,NA,NA,31,43,21,36,150,150,92,92,NA,17,NA,12,0.7,0.7
2026-07-22T1000,2621A,99.7054,27.8319,迪庆藏族自治州,迪庆州站,,32,NA,18,22,10,73,73,52,52,9,11,8,8,0.1,0.1
2026-07-22T1000,3180A,99.7122,27.8129,迪庆藏族自治州,质量技术监督局,,25,19,17,8,9,77,77,60,60,12,11,8,8,0.4,0.3
2026-07-22T1000,4257A,104.6092,35.5962,定西市,将台街,,34,34,36,3,13,91,91,55,55,19,18,6,5,0.2,0.2
2026-07-22T1000,4309A,104.6159,35.5701,定西市,正龙路62号,,35,35,39,7,8,94,94,58,58,12,11,8,7,0.2,0.3
2026-07-22T1000,4071A,114.9883,38.5232,定州市,交通局,,47,47,62,26,24,112,112,64,64,12,15,6,3,1.0,0.8
2026-07-22T1000,4072A,115.0045,38.5136,定州市,第五中学,颗粒物(PM10),55,56,52,23,26,104,104,57,57,10,11,6,4,0.6,0.6
2026-07-22T1000,1390A,113.7943,23.0132,东莞市,东城石井,,42,42,38,20,20,69,69,29,29,17,12,4,4,0.6,0.6
2026-07-22T1000,1391A,113.7384,22.9659,东莞市,南城西平,,32,32,39,16,20,57,57,13,13,16,22,8,8,0.4,0.5
2026-07-22T1000,3319A,113.7283,23.041,东莞市,万江金泰,,39,39,36,18,19,57,57,28,28,21,17,9,8,0.6,0.6
2026-07-22T1000,4129A,113.8666,23.1062,东莞市,裕兴路,,48,48,50,19,22,76,76,30,30,18,22,7,7,0.4,0.6
2026-07-22T1000,4130A,114.0076,22.9739,东莞市,教育路1号,,42,42,50,17,23,73,73,21,21,14,26,6,7,0.8,0.8
2026-07-22T1000,4131A,113.7981,22.8124,东莞市,长怡路1号,NA,NA,41,48,17,22,NA,NA,20,18,11,21,5,5,0.6,0.7
2026-07-22T1000,1666A,118.6612,37.4313,东营市,市环保局,NA,NA,66,45,45,41,NA,NA,58,57,21,15,10,10,0.9,0.7
2026-07-22T1000,3036A,118.6903,37.4337,东营市,开发区管委会,颗粒物(PM10),63,67,53,29,36,113,113,73,73,23,17,10,9,1.1,0.8
2026-07-22T1000,3365A,118.5721,37.5654,东营市,垦利区民丰路,细颗粒物(PM2.5),68,70,52,44,45,143,143,67,67,22,20,6,6,0.5,0.3
2026-07-22T1000,3498A,118.5063,37.8606,东营市,河口城区,臭氧1小时(O3_1h),57,56,38,32,32,165,165,97,97,16,12,15,11,0.7,0.6
2026-07-22T1000,3646A,118.4979,37.4623,东营市,胜利站,颗粒物(PM10),71,79,52,36,42,143,143,65,65,19,17,5,4,1.0,0.9
2026-07-22T1000,3734A,118.5753,37.4405,东营市,理想之城,颗粒物(PM10),63,68,49,37,40,127,127,53,53,14,15,5,5,1.0,0.8
2026-07-22T1000,1591A,110.0024,39.8127,鄂尔多斯市,综合楼,,46,46,46,18,19,93,93,65,65,20,25,10,9,1.0,0.8
2026-07-22T1000,1592A,109.9485,39.8259,鄂尔多斯市,巴音孟克林场办事处,颗粒物(PM10),56,58,41,19,19,91,91,81,81,22,18,12,8,0.8,0.6
2026-07-22T1000,1593A,109.7734,39.5987,鄂尔多斯市,康泽苑,颗粒物(PM10),56,58,44,25,19,84,84,52,52,21,19,18,16,0.6,0.4
2026-07-22T1000,1594A,109.8121,39.5987,鄂尔多斯市,华泰汽车城,颗粒物(PM10),55,56,47,22,20,68,68,34,34,24,21,15,11,1.1,0.8
2026-07-22T1000,1595A,109.9734,39.7884,鄂尔多斯市,奥林花园,颗粒物(PM10),53,53,48,20,21,86,86,56,56,21,22,8,6,0.8,0.6
2026-07-22T1000,2436A,114.894,30.3989,鄂州市,市政府,,25,25,22,3,5,38,38,31,31,20,12,7,4,0.6,0.4
2026-07-22T1000,2437A,114.8986,30.3714,鄂州市,赵家坝,,15,14,17,3,6,48,48,30,30,13,9,4,6,0.5,0.6
2026-07-22T1000,3654A,114.8093,30.4091,鄂州市,精准医疗中心,,14,10,19,3,7,44,44,34,34,9,11,4,4,0.3,0.6
2026-07-22T1000,2454A,109.4978,30.2979,恩施土家族苗族自治州,湖北民院,,27,27,29,16,18,64,64,37,37,6,5,5,5,0.5,0.5
2026-07-22T1000,3549A,109.5061,30.3771,恩施土家族苗族自治州,龙凤新区,,33,NA,25,23,18,63,63,37,37,7,5,5,6,0.5,0.6
2026-07-22T1000,2499A,108.3411,21.6159,防城港市,沙万,,41,41,37,11,15,34,34,19,19,24,21,5,4,0.5,0.7
2026-07-22T1000,2500A,108.3515,21.7733,防城港市,防城档案局,,36,36,35,15,19,19,19,12,12,20,16,4,3,0.7,0.6
2026-07-22T1000,2501A,108.3506,21.6414,防城港市,大海花园,,18,18,29,11,16,52,52,21,21,11,15,7,8,0.3,0.5
2026-07-22T1000,1371A,113.1293,23.0065,佛山市,湾梁,,41,41,31,16,20,65,65,28,28,14,27,/,/,/,/
2026-07-22T1000,1372A,113.1082,23.0477,佛山市,华材职中,,39,39,32,21,22,61,61,33,33,6,18,8,7,0.4,0.4
2026-07-22T1000,1373A,113.1439,23.045,佛山市,南海气象局,颗粒物(PM10),56,58,37,20,22,61,61,26,26,13,27,/,/,/,/
2026-07-22T1000,1374A,113.2879,22.8094,佛山市,顺德苏岗,,46,46,31,17,19,60,60,34,34,9,20,/,/,0.6,0.6
2026-07-22T1000,1376A,112.8384,22.8678,佛山市,高明孔堂,,38,38,32,18,17,58,58,33,33,7,9,/,/,/,/
2026-07-22T1000,1377A,112.8835,23.1584,佛山市,三水监测站,,39,39,35,21,22,47,47,18,18,11,27,6,5,0.8,0.8
2026-07-22T1000,1378A,112.8668,23.185,佛山市,三水云东海,NA,NA,40,36,22,21,48,48,17,17,NA,20,/,/,/,/
2026-07-22T1000,3625A,113.2568,22.7629,佛山市,容桂街道办,,36,36,30,18,22,61,61,37,37,9,21,/,/,/,/
2026-07-22T1000,1282A,119.2681,26.0506,福州市,师大,,49,49,46,26,22,83,83,46,46,6,10,4,4,0.4,0.4
2026-07-22T1000,1283A,119.2983,26.1028,福州市,五四北路,颗粒物(PM10),52,52,44,25,22,90,90,46,46,8,11,4,5,0.5,0.5
2026-07-22T1000,1284A,119.2648,26.0769,福州市,杨桥西路,,50,50,46,23,23,89,89,48,48,8,10,4,4,/,/
2026-07-22T1000,3048A,119.5799,26.0937,福州市,九龙,,46,46,41,20,19,89,89,42,42,9,10,6,7,0.3,0.3
2026-07-22T1000,3526A,119.5188,25.9666,福州市,吴航,,44,44,41,25,21,85,85,44,44,9,9,6,6,0.5,0.5
2026-07-22T1000,4104A,119.3106,26.0648,福州市,路通桥巷6号,,49,49,45,27,24,84,84,42,42,7,8,/,/,/,/
2026-07-22T1000,1755A,123.7974,41.8494,抚顺市,望花区,,41,39,44,21,24,130,130,68,68,13,17,13,13,1.0,0.9
2026-07-22T1000,1756A,123.9161,41.8827,抚顺市,顺城区,NA,NA,NA,42,14,24,NA,NA,34,34,12,23,9,11,0.7,1
2026-07-22T1000,1757A,124.0437,41.8615,抚顺市,东洲区,,40,30,36,13,25,127,127,75,75,10,14,11,10,0.4,0.7
2026-07-22T1000,1758A,123.9246,41.8638,抚顺市,新抚区,,43,32,40,15,25,136,136,47,47,7,15,9,10,0.8,1.2
2026-07-22T1000,1759A,124.0972,41.8961,抚顺市,大伙房水库,,37,25,34,12,21,118,118,58,58,8,12,11,12,0.6,0.9
2026-07-22T1000,1760A,123.708,41.8386,抚顺市,沈抚新城,,40,40,40,14,23,128,128,73,73,14,17,9,11,1.2,1.1
2026-07-22T1000,2377A,116.3544,27.9833,抚州市,市站,NA,NA,43,28,17,12,NA,NA,16,NA,1,5,NA,3,0.7,0.8
2026-07-22T1000,2378A,116.3562,27.9631,抚州市,血防站,,35,35,33,21,11,52,52,21,21,3,9,6,6,0.5,0.6
2026-07-22T1000,2379A,116.3561,28.0007,抚州市,采茶剧团,,33,33,30,16,8,55,55,19,19,3,10,14,14,0.6,0.7
2026-07-22T1000,2380A,116.3854,27.9648,抚州市,医学分院,,41,41,26,3,7,59,59,23,23,4,7,4,6,0.7,0.7
2026-07-22T1000,2207A,121.6095,41.9978,阜新市,工业园区,,50,50,40,29,24,147,147,124,124,8,11,5,8,0.7,0.6
2026-07-22T1000,2208A,121.6567,42.0188,阜新市,长青街,颗粒物(PM10),52,52,38,27,28,144,144,129,129,7,10,8,10,0.7,0.5
2026-07-22T1000,2209A,121.6672,42.07,阜新市,农业园区,颗粒物(PM10),56,58,63,33,30,142,142,134,134,10,10,3,4,0.9,0.8
2026-07-22T1000,2211A,121.6343,42.0455,阜新市,玉龙新城,,41,25,41,16,22,131,131,120,120,8,9,2,4,0.8,0.6
2026-07-22T1000,2301A,115.8276,32.8929,阜阳市,市监测站,,24,24,21,3,10,68,68,45,45,9,11,6,6,0.5,0.5
2026-07-22T1000,2303A,115.8551,32.8606,阜阳市,开发区,,22,22,21,3,10,66,66,42,42,9,12,4,4,0.4,0.3
2026-07-22T1000,2875A,115.783962,32.889217,阜阳市,阜阳职业技术学院,,22,22,18,6,8,70,70,55,55,6,5,3,3,0.4,0.4
2026-07-22T1000,3468A,115.79,32.8614,阜阳市,市规划展馆,,30,30,20,3,8,60,60,37,37,10,11,1,1,0.6,0.5
2026-07-22T1000,3469A,115.835101,32.918568,阜阳市,枣园社区,NA,NA,18,21,3,10,NA,NA,39,38,9,9,NA,4,0.4,0.4
2026-07-22T1000,2669A,102.9097,34.9841,甘南藏族自治州,州政府,NA,NA,21,26,3,8,NA,NA,38,34,9,13,5,5,0.3,0.3
2026-07-22T1000,3380A,102.8915,34.9618,甘南藏族自治州,甘肃民族师范学院,,27,27,37,18,10,71,71,38,38,18,22,4,4,0.3,0.2
2026-07-22T1000,2570A,101.96,30.048,甘孜藏族自治州,水桥子,,14,9,15,3,7,43,43,14,14,12,22,3,2,0.2,0.2
2026-07-22T1000,3065A,101.9534,29.9976,甘孜藏族自治州,州环保局,,16,13,18,3,6,49,49,33,33,25,19,4,3,1.0,0.8
2026-07-22T1000,2363A,114.9368,25.8663,赣州市,地委,,38,38,35,20,15,68,68,58,58,6,8,3,4,0.4,0.3
2026-07-22T1000,2364A,114.946,25.8483,赣州市,气象台,,28,28,39,18,14,63,63,54,54,5,5,5,5,0.5,0.4
2026-07-22T1000,2365A,114.932,25.8332,赣州市,市图书馆,,28,28,31,14,14,66,66,58,58,6,5,4,4,1.1,0.9
2026-07-22T1000,2366A,114.8905,25.8472,赣州市,华坚鞋城,,36,36,37,16,15,61,61,47,47,5,6,1,2,0.4,0.3
2026-07-22T1000,3109A,115.0094,25.8614,赣州市,赣县区卫计委,,36,36,33,19,15,60,60,45,45,10,10,1,2,0.6,0.6
2026-07-22T1000,2684A,106.2753,36.0057,固原市,监测站,,33,25,23,23,12,102,102,103,102,6,9,6,6,0.3,0.3
2026-07-22T1000,2685A,106.2384,36.0189,固原市,新区,NA,NA,36,21,16,9,NA,NA,101,100,11,8,6,6,0.5,0.3
2026-07-22T1000,2544A,106.6307,30.4577,广安市,市委,颗粒物(PM10),53,54,47,35,26,127,127,67,67,12,11,13,13,0.6,0.5
2026-07-22T1000,2545A,106.6266,30.4662,广安市,友谊中学,,42,34,43,26,24,132,132,69,69,10,11,13,12,0.7,0.6
2026-07-22T1000,2547A,106.6386,30.4551,广安市,广电花园,,50,50,43,32,29,126,126,67,67,15,13,11,10,0.7,0.7
2026-07-22T1000,2902A,106.6347,30.4868,广安市,北辰小学,颗粒物(PM10),52,52,48,24,31,129,129,80,80,11,11,9,9,0.4,0.5
2026-07-22T1000,2524A,105.8211,32.4444,广元市,老城,NA,NA,NA,39,NA,22,NA,NA,50,49,22,22,NA,12,0.6,0.5
2026-07-22T1000,2526A,105.8629,32.429,广元市,监测站,,38,38,42,18,23,106,106,77,76,15,13,1,7,0.5,0.4
2026-07-22T1000,3617A,105.8047,32.4167,广元市,经开区,颗粒物(PM10),55,57,50,28,25,101,101,57,57,29,23,15,12,0.8,0.6
2026-07-22T1000,1345A,113.2346,23.1423,广州市,广雅中学,,39,39,33,19,20,48,48,24,24,12,24,4,4,0.4,0.5
2026-07-22T1000,1346A,113.2611,23.105,广州市,市五中,,26,26,29,11,17,65,65,26,26,11,27,3,4,/,/
2026-07-22T1000,1348A,113.3477,23.0916,广州市,广东商学院,,34,34,30,17,17,52,52,17,17,5,22,4,5,0.4,0.5
2026-07-22T1000,1349A,113.4332,23.105,广州市,市八十六中,,34,34,28,18,16,49,49,27,27,20,36,6,6,/,/
2026-07-22T1000,1350A,113.3506,22.9488,广州市,番禺中学,,50,50,33,19,17,66,66,27,27,5,25,6,6,0.3,0.4
2026-07-22T1000,1351A,113.2147,23.3918,广州市,花都师范,,48,48,43,24,20,47,47,12,12,18,36,3,3,0.3,0.5
2026-07-22T1000,1352A,113.2599,23.1329,广州市,市监测站,,40,40,35,20,17,56,56,27,27,11,24,2,2,/,/
2026-07-22T1000,1353A,113.5618,23.3119,广州市,九龙镇镇龙,颗粒物(PM10),52,52,33,27,18,56,56,16,16,21,25,8,7,0.6,0.5
2026-07-22T1000,1354A,113.2764,23.1544,广州市,麓湖,,37,37,32,20,17,54,54,28,28,13,23,5,6,0.5,0.6
2026-07-22T1000,2846A,113.3209,23.1323,广州市,体育西,,39,39,38,20,17,51,51,22,22,18,31,6,6,0.4,0.5
2026-07-22T1000,3298A,113.5718,23.5493,广州市,从化街口,,38,38,31,22,17,55,55,26,26,9,17,9,8,0.7,0.7
2026-07-22T1000,3299A,113.3463,23.369,广州市,白云竹料,,48,48,42,25,21,43,43,15,15,23,27,4,4,0.7,0.7
2026-07-22T1000,3300A,113.2981,23.2365,广州市,白云嘉禾,,46,46,43,22,19,43,43,14,14,21,37,9,8,/,/
2026-07-22T1000,3301A,113.4256,23.1716,广州市,黄埔科学城,,41,41,37,21,19,52,52,17,17,17,29,7,8,0.4,0.5
2026-07-22T1000,3302A,113.3942,23.0485,广州市,番禺大学城,,37,37,31,16,14,63,63,24,24,12,30,6,6,0.5,0.5
2026-07-22T1000,3303A,113.4923,22.8169,广州市,南沙黄阁,,44,44,32,21,17,50,50,28,28,16,22,6,6,/,/
2026-07-22T1000,3304A,113.534,22.7893,广州市,南沙街,,47,47,31,18,15,61,61,30,30,12,22,10,10,0.6,0.6
2026-07-22T1000,3443A,113.2905,23.5541,广州市,花都梯面,,48,48,37,26,18,51,51,26,26,16,17,5,4,/,/
2026-07-22T1000,3445A,113.786,23.7479,广州市,从化良口,,31,31,28,16,14,45,45,18,18,6,9,4,4,/,/
2026-07-22T1000,3446A,113.805,23.2614,广州市,增城荔城,,43,43,34,27,21,76,76,20,20,14,16,10,9,0.7,0.7
2026-07-22T1000,2506A,109.604387,23.066791,贵港市,江南子站,NA,NA,NA,NA,NA,NA,NA,NA,NA,NA,NA,NA,NA,NA,NA,NA
2026-07-22T1000,2508A,109.5669,23.1065,贵港市,荷城子站,,36,36,22,18,11,21,21,25,25,15,13,8,8,0.9,0.7
2026-07-22T1000,3405A,109.5886,23.1172,贵港市,新世纪学校,细颗粒物(PM2.5),101,NA,23,61,27,20,20,21,21,18,17,/,/,0.7,0.6
2026-07-22T1000,4260A,109.5933,23.095,贵港市,中山路155-3号,颗粒物(PM10),53,54,32,26,17,26,26,25,25,16,16,/,/,0.8,0.6
2026-07-22T1000,1439A,106.6863,26.6035,贵阳市,马鞍山,,27,27,24,18,16,75,75,23,23,10,8,3,3,/,/
2026-07-22T1000,1441A,106.6241,26.6266,贵阳市,鉴湖路,颗粒物(PM10),51,51,38,13,14,87,87,76,76,7,7,11,8,0.8,0.6
2026-07-22T1000,1442A,106.7468,26.6344,贵阳市,燕子冲,颗粒物(PM10),53,53,40,19,17,60,60,25,25,17,13,15,9,0.7,0.6
2026-07-22T1000,1443A,106.6556,26.4362,贵阳市,碧云窝,,46,46,43,16,16,73,73,36,36,12,8,18,7,/,/
2026-07-22T1000,1445A,106.6963,26.6063,贵阳市,红边门,,44,44,32,20,17,77,77,66,64,17,10,22,15,/,/
2026-07-22T1000,1446A,106.7162383,26.56964667,贵阳市,新华路,颗粒物(PM10),56,58,42,25,16,92,92,68,68,12,10,17,41,0.7,0.6
2026-07-22T1000,1447A,106.6742,26.542,贵阳市,太慈桥,,41,41,29,24,17,81,81,30,30,12,11,11,4,/,/
2026-07-22T1000,4230A,106.688212,26.56952,贵阳市,花果园大街66号,,37,37,33,21,16,71,71,59,57,14,10,9,3,/,/
2026-07-22T1000,4231A,106.687268,26.516892,贵阳市,漓江路57号,,39,39,35,24,19,66,66,42,42,10,11,12,5,0.6,0.5
2026-07-22T1000,1864A,110.3091,25.2705,桂林市,龙隐路小学,,25,25,13,8,7,44,44,37,37,6,6,6,5,0.7,0.7
2026-07-22T1000,1865A,110.2849361,25.22909545,桂林市,八中,,28,27,13,19,8,46,46,42,42,6,10,5,4,0.7,0.8
2026-07-22T1000,3531A,110.296,25.1254,桂林市,旅游学院,,22,22,22,14,6,44,44,40,40,2,3,6,4,0.3,0.3
2026-07-22T1000,4222A,110.1835,25.2444,桂林市,环湖路276号,,16,12,10,11,11,43,43,50,49,4,6,4,6,0.5,0.5
2026-07-22T1000,4301A,110.2803,25.2773,桂林市,信义路13号,,25,25,16,15,8,38,38,39,39,6,8,4,4,0.7,0.7
2026-07-22T1000,2674A,100.2262,34.4854,果洛藏族自治州,玛沁县大武镇,,25,25,32,9,10,75,75,51,51,5,3,14,11,0.5,0.4
2026-07-22T1000,1130A,126.5557,45.8109,哈尔滨市,松北商大,颗粒物(PM10),55,56,30,26,19,86,86,52,52,15,16,6,5,0.6,0.6
2026-07-22T1000,1132A,126.6162,45.719,哈尔滨市,南岗学府路,,44,44,39,22,14,111,111,60,60,9,16,7,8,0.4,0.4
2026-07-22T1000,1133A,126.6894,45.7733,哈尔滨市,太平宏伟公园,,40,40,35,26,11,106,106,61,61,14,22,7,7,0.4,0.4
2026-07-22T1000,1134A,126.6361,45.7672,哈尔滨市,道外承德广场,颗粒物(PM10),55,56,47,14,14,92,92,63,63,21,21,6,6,0.8,0.5
2026-07-22T1000,1136A,126.644,45.7261,哈尔滨市,动力和平路,,50,50,47,23,14,107,107,64,64,17,25,1,5,0.6,0.4
2026-07-22T1000,1137A,126.5933,45.7479,哈尔滨市,道里建国路,颗粒物(PM10),55,57,42,26,21,106,106,68,68,8,20,7,9,0.7,1.1
2026-07-22T1000,1138A,126.6127,45.6119,哈尔滨市,平房东轻厂,,34,26,26,12,12,108,108,52,52,5,14,11,7,0.7,0.6
2026-07-22T1000,1139A,126.5875,45.9827,哈尔滨市,呼兰师专,颗粒物(PM10),53,54,24,17,8,75,75,57,53,15,16,7,7,0.6,0.5
2026-07-22T1000,1140A,126.6299,45.6799,哈尔滨市,省农科院,颗粒物(PM10),51,51,67,30,21,104,104,48,48,15,30,5,5,0.6,0.6
2026-07-22T1000,4282A,126.6769,45.7379,哈尔滨市,华山路1号,,39,39,30,20,12,113,113,72,72,9,16,9,9,0.4,0.3
2026-07-22T1000,4283A,126.9717,45.5356,哈尔滨市,解放大街52号,,36,36,29,12,4,103,103,56,56,8,10,4,4,0.7,0.6
2026-07-22T1000,2688A,93.5124,42.8176,哈密市,地区监测站,,45,45,43,19,19,98,98,96,96,14,18,5,4,0.2,0.2
2026-07-22T1000,2689A,93.5014,42.8312,哈密市,哈密师范学校,颗粒物(PM10),56,58,56,7,31,82,82,64,64,25,27,1,1,0.2,0.3
2026-07-22T1000,2671A,100.9016,36.9464,海北藏族自治州,海晏县西海镇,,30,17,19,3,8,94,94,66,66,5,4,9,6,0.4,0.4
2026-07-22T1000,3867A,102.074,36.5056,海东市,平安区公安局北苑,,42,42,28,10,10,75,75,74,69,24,7,20,9,0.9,0.5
2026-07-22T1000,4163A,102.0984,36.5119,海东市,滨河路,,24,24,18,3,12,72,72,41,41,21,28,17,8,0.8,0.5
2026-07-22T1000,1410A,110.3189,20.0596,海口市,海南大学,,34,34,39,20,20,62,62,43,43,9,7,5,5,0.4,0.4
2026-07-22T1000,1411A,110.2827,20.0051,海口市,秀英海南医院,,32,29,30,22,21,57,57,27,27,14,15,5,6,0.3,0.3
2026-07-22T1000,1412A,110.3391,19.9979,海口市,海南师范大学,,46,46,36,22,20,60,60,32,32,6,7,3,3,0.4,0.4
2026-07-22T1000,1413A,110.3303,20.0359,海口市,龙华路环保局宿舍,,41,41,35,20,20,58,58,40,40,11,8,/,/,0.4,0.3
2026-07-22T1000,3539A,110.5111,19.9737,海口市,桂林洋子站,,32,32,39,16,21,56,56,30,30,4,6,/,/,/,/
2026-07-22T1000,4134A,110.1952,20.0451,海口市,长滨二路9号,颗粒物(PM10),53,54,39,30,22,68,68,34,34,6,9,/,/,/,/
2026-07-22T1000,2673A,100.6158,36.2985,海南藏族自治州,共和县恰卜恰镇,,35,24,24,6,10,110,110,78,78,2,6,7,7,0.5,0.4
2026-07-22T1000,2676A,97.373,37.376,海西蒙古族藏族自治州,德令哈市,NA,NA,17,22,7,11,NA,NA,108,104,2,2,11,11,0.3,0.3
2026-07-22T1000,1049A,114.492,36.5712,邯郸市,矿院,,46,NA,34,32,32,112,112,77,77,8,10,3,4,0.5,0.7
2026-07-22T1000,1050A,114.4839,36.6136,邯郸市,丛台公园,,36,36,34,21,23,110,110,72,72,7,8,7,8,0.5,0.7
2026-07-22T1000,3458A,114.7893,36.5592,邯郸市,香泉濮院小区,,39,NA,33,27,31,107,107,79,79,5,9,3,3,0.3,0.4
2026-07-22T1000,3580A,114.1998,36.4439,邯郸市,峰峰矿区临水派出所,,42,42,36,27,23,106,106,93,89,12,8,8,4,1.2,0.7
2026-07-22T1000,4068A,114.5209,36.7697,邯郸市,建安街268号,,42,42,35,19,20,96,96,64,64,17,13,2,3,0.5,0.5
2026-07-22T1000,4069A,114.5488,36.6177,邯郸市,丛台东路558号,"颗粒物(PM10),细颗粒物(PM2.5)",54,55,43,37,26,107,107,69,69,10,14,2,4,0.5,0.6
2026-07-22T1000,2635A,107.0155,33.0707,汉中市,市监测站,,36,29,36,17,17,115,115,108,108,7,7,5,4,0.3,0.3
2026-07-22T1000,2636A,107.0083,33.114,汉中市,鑫源开发区,,37,29,34,15,18,117,117,107,107,8,10,6,6,0.5,0.6
2026-07-22T1000,2637A,107.0072,33.0323,汉中市,南郑大河坎水厂,,41,41,36,18,20,106,106,80,80,10,10,2,3,0.3,0.3
2026-07-22T1000,1223A,120.2073,30.2111,杭州市,滨江,,20,20,16,9,8,45,45,26,26,15,16,4,4,0.4,0.4
2026-07-22T1000,1224A,120.0625,30.2737,杭州市,西溪,,15,13,10,9,7,45,45,20,20,7,7,4,5,0.7,0.6
2026-07-22T1000,1226A,120.3417,30.315,杭州市,下沙,,25,19,16,17,11,46,46,26,26,20,20,3,3,0.9,0.8
2026-07-22T1000,1227A,120.1252,30.2465,杭州市,卧龙桥,,18,18,13,10,6,35,35,14,14,13,9,6,5,0.7,0.6
2026-07-22T1000,1228A,120.1902,30.2691,杭州市,浙江农大,,15,15,13,10,9,43,43,26,26,16,20,7,7,0.5,0.4
2026-07-22T1000,1230A,120.1195,30.3121,杭州市,和睦小学,NA,NA,NA,4,9,9,NA,NA,30,30,9,10,8,8,0.6,0.6
2026-07-22T1000,1231A,120.3076,30.4146,杭州市,临平镇,,22,22,18,14,11,45,45,26,26,12,15,6,6,0.7,0.6
2026-07-22T1000,1232A,120.2753,30.1839,杭州市,城厢镇,,23,23,17,11,10,39,39,19,19,18,16,5,5,0.6,0.6
2026-07-22T1000,1233A,120.0883,30.1808,杭州市,云栖,NA,NA,18,13,12,7,35,35,11,11,16,11,5,5,NA,0.8
2026-07-22T1000,3557A,119.9463,30.0496,杭州市,镇二中,,23,16,13,16,8,34,34,29,26,18,15,5,5,0.6,0.5
2026-07-22T1000,3558A,119.7184,30.2367,杭州市,市府大楼,,14,NA,4,8,5,44,44,22,22,5,5,8,8,0.6,0.5
2026-07-22T1000,3656A,120.1554,30.2863,杭州市,消防大队,,15,14,12,8,9,46,46,28,28,5,7,8,8,0.7,0.7
2026-07-22T1000,1270A,117.1957,31.7845,合肥市,明珠广场,,15,14,8,6,6,46,46,46,44,7,8,7,7,0.6,0.6
2026-07-22T1000,1271A,117.307,31.8765,合肥市,三里街,,14,12,11,3,7,43,43,36,35,10,11,9,9,0.6,0.4
2026-07-22T1000,1272A,117.2587,31.8703,合肥市,琥珀山庄,,17,12,17,3,6,52,52,45,45,10,8,7,7,0.4,0.5
2026-07-22T1000,1275A,117.2593,31.9376,合肥市,庐阳区,,17,7,11,3,6,52,52,44,43,10,12,9,9,0.4,0.5
2026-07-22T1000,1276A,117.345251,31.861615,合肥市,瑶海区,,15,14,13,3,10,46,46,36,36,5,10,2,3,0.3,0.9
2026-07-22T1000,1277A,117.3033,31.7967,合肥市,包河区,,17,17,9,6,4,46,46,42,42,7,8,7,7,0.4,0.4
2026-07-22T1000,1278A,117.278,31.7392,合肥市,滨湖新区,,16,NA,6,9,5,51,51,45,43,5,6,6,6,0.6,0.7
2026-07-22T1000,1279A,117.1324,31.8395,合肥市,高新区,,16,14,12,6,5,50,50,49,47,6,7,7,7,0.6,0.6
2026-07-22T1000,3464A,117.3802,31.9148,合肥市,高教基地,,14,14,12,3,6,43,43,37,36,5,7,5,6,0.6,0.5
2026-07-22T1000,4098A,117.2518,31.8404,合肥市,中国科学技术大学,,17,17,8,9,6,50,50,48,47,10,7,8,9,0.6,0.7
2026-07-22T1000,3614A,79.9241,37.0878,和田地区,地区环保局,颗粒物(PM10),250,385,209,63,49,97,97,82,82,6,15,1,2,0.3,0.3
2026-07-22T1000,3615A,79.9132,37.1137,和田地区,市环保局,颗粒物(PM10),197,343,184,75,54,96,96,77,77,1,11,1,2,0.4,0.6
2026-07-22T1000,2517A,108.0496,24.6957,河池市,市环保站,,29,29,28,3,14,36,36,34,34,8,6,5,7,0.8,0.7
2026-07-22T1000,4302A,108.0901,24.6945,河池市,上任中路54号,,37,37,29,13,13,26,26,30,30,13,9,6,7,0.9,0.9
2026-07-22T1000,1697A,114.6962,23.7538,河源市,东埔,,38,35,34,26,21,58,58,33,33,6,8,6,6,0.3,0.3
2026-07-22T1000,1698A,114.6895,23.7232,河源市,老城,,46,46,36,24,27,60,60,28,28,7,10,10,13,0.4,0.4
2026-07-22T1000,3374A,115.5562,35.089,菏泽市,定陶老年大学,,36,36,36,24,25,112,112,80,80,9,10,4,3,0.6,0.6
2026-07-22T1000,4114A,115.4239,35.2593,菏泽市,黄河路600号,,39,39,38,24,26,110,110,89,85,8,10,5,4,0.3,0.4
2026-07-22T1000,4115A,115.5025,35.2727,菏泽市,菏泽市人社局,,36,35,37,17,26,115,115,84,84,7,9,4,3,0.4,0.4
2026-07-22T1000,4184A,115.479691,35.244011,菏泽市,永昌路1号,NA,NA,NA,39,14,18,NA,NA,NA,NA,7,9,4,6,0.9,0.6
2026-07-22T1000,4193A,115.471542,35.280012,菏泽市,长城路999号,,36,28,33,15,16,114,114,96,93,6,9,8,8,0.5,0.5
2026-07-22T1000,2514A,111.5264,24.4178,贺州市,环保小区,颗粒物(PM10),58,60,28,26,18,27,27,26,26,16,11,9,10,0.4,0.4
2026-07-22T1000,2515A,111.561,24.4074,贺州市,政协大楼,,35,33,22,24,17,42,42,32,32,12,13,13,12,0.6,0.6
2026-07-22T1000,3534A,111.4744,24.455,贺州市,西湾,NA,NA,33,29,22,14,39,39,26,26,NA,13,NA,12,0.4,0.4
2026-07-22T1000,2385A,114.17,35.9019,鹤壁市,市监测站,细颗粒物(PM2.5),62,46,49,41,39,92,92,74,68,9,8,3,3,0.7,0.7
2026-07-22T1000,2386A,114.2953,35.7512,鹤壁市,市交警支队,,38,NA,43,26,29,61,61,58,58,15,15,3,6,0.5,0.7
2026-07-22T1000,2387A,114.2877,35.7302,鹤壁市,迎宾馆,,30,30,46,16,27,81,81,82,80,8,9,2,4,0.5,0.6
2026-07-22T1000,3474A,114.2616,35.6824,鹤壁市,大新区,,33,33,44,12,28,88,88,77,77,6,10,2,2,0.6,0.7
2026-07-22T1000,3596A,114.1573,35.9607,鹤壁市,南山宾馆,,38,30,43,26,46,100,100,61,61,12,11,12,11,0.7,0.7
2026-07-22T1000,2244A,130.2537,47.3416,鹤岗市,哈啤分公司,NA,NA,NA,22,NA,7,NA,NA,100,NA,NA,10,NA,4,NA,0.2
2026-07-22T1000,2245A,130.2683,47.3087,鹤岗市,斯达机电,,19,7,21,3,11,58,58,36,36,13,15,6,6,0.2,0.2
2026-07-22T1000,2246A,130.3114,47.3388,鹤岗市,东山纸板厂,,20,16,45,8,11,64,64,37,37,12,18,6,6,0.4,0.4
2026-07-22T1000,2263A,127.4832,50.2524,黑河市,交通局,,21,21,20,9,8,44,44,24,24,7,7,6,6,0.2,0.2
2026-07-22T1000,2264A,127.5146,50.2339,黑河市,环保局,,28,28,21,9,9,37,37,24,24,9,11,8,8,0.3,0.3
2026-07-22T1000,1074A,115.6839,37.754,衡水市,电机北厂,颗粒物(PM10),60,64,58,37,34,114,114,92,92,8,8,2,3,0.4,0.4
2026-07-22T1000,1075A,115.6303,37.7318,衡水市,市监测站,细颗粒物(PM2.5),58,53,57,39,32,117,117,82,82,6,8,3,4,0.6,0.8
2026-07-22T1000,3188A,115.6684,37.7216,衡水市,市城管局,,49,49,52,33,31,114,114,85,85,7,8,2,5,0.5,0.4
2026-07-22T1000,3459A,115.599,37.5491,衡水市,地表水厂,,49,40,55,34,32,113,113,72,72,9,14,5,5,0.4,0.3
2026-07-22T1000,2457A,112.6209,26.9268,衡阳市,衡阳化工总厂,,26,26,22,12,9,48,48,31,31,7,6,4,5,0.5,0.6
2026-07-22T1000,2458A,112.621,26.8957,衡阳市,珠晖区环保局,,31,31,22,9,9,54,54,36,36,6,7,6,7,0.6,0.7
2026-07-22T1000,2459A,112.628,26.8654,衡阳市,市委党校,NA,NA,34,20,14,10,NA,NA,31,31,2,5,4,4,0.4,0.4
2026-07-22T1000,2460A,112.6007,26.8977,衡阳市,市监测站,,37,37,21,3,9,53,53,37,37,5,7,1,3,0.6,0.8
2026-07-22T1000,2461A,112.5658,26.9013,衡阳市,真空机电公司,,24,24,20,15,12,44,44,32,32,8,10,6,6,1.6,1.3
2026-07-22T1000,3399A,112.6703,26.8817,衡阳市,师范学院,,21,21,22,10,12,49,49,33,33,2,3,9,9,0.5,0.5
2026-07-22T1000,3038A,103.3757,23.3679,红河哈尼族彝族自治州,州图书馆,,26,26,34,18,22,66,66,54,51,4,4,4,16,0.3,0.4
2026-07-22T1000,4154A,103.401,23.3561,红河哈尼族彝族自治州,蒙自市朝阳路,NA,NA,NA,21,18,19,NA,NA,54,48,6,6,4,10,0.3,0.4
2026-07-22T1000,1090A,111.6506,40.7517,呼和浩特市,呼市一监,,34,34,27,3,13,84,84,62,62,15,13,12,8,0.7,0.4
2026-07-22T1000,1094A,111.7516,40.8369,呼和浩特市,如意水处理厂,NA,NA,25,27,20,14,NA,NA,58,NA,16,17,12,7,0.9,0.5
2026-07-22T1000,1095A,111.727798,40.806187,呼和浩特市,二十九中,,38,38,31,16,16,79,79,63,63,18,13,14,11,0.9,0.6
2026-07-22T1000,1097A,111.717,40.7617,呼和浩特市,化肥厂生活区,,30,26,30,11,19,93,93,65,65,12,17,18,13,1.0,0.8
2026-07-22T1000,3699A,111.6519,40.8389,呼和浩特市,海东办,,32,29,28,3,8,100,100,62,62,14,18,7,7,0.4,0.3
2026-07-22T1000,4275A,111.591512,40.827312,呼和浩特市,成吉思汗西街8号,NA,NA,NA,34,2,10,80,80,53,53,30,27,5,6,0.5,0.4
2026-07-22T1000,4276A,111.6597,40.8077,呼和浩特市,公园东路75号,,35,17,27,3,9,112,112,87,87,13,14,16,13,0.7,0.6
2026-07-22T1000,4277A,111.5427,40.7846,呼和浩特市,金海路35号,,36,36,36,7,13,77,77,59,59,23,20,5,5,0.7,0.6
2026-07-22T1000,3061A,119.7511,49.1576,呼伦贝尔市,国华电力东,,23,21,22,8,14,72,72,60,60,7,8,4,4,0.3,0.3
2026-07-22T1000,4279A,119.7569,49.2222,呼伦贝尔市,伊敏大街东7号,,22,10,18,3,13,68,68,63,63,12,12,5,6,0.5,0.6
2026-07-22T1000,1250A,120.075,30.867,湖州市,城西水厂,,14,12,18,9,13,44,44,29,29,16,17,6,6,0.4,0.4
2026-07-22T1000,2873A,120.083,30.8929,湖州市,仁皇山新区,,13,12,17,7,13,39,39,22,22,13,17,5,5,0.5,0.5
2026-07-22T1000,2907A,120.1846,30.8592,湖州市,吴兴区站,,14,14,17,9,14,42,42,22,22,16,14,7,5,0.5,0.6
2026-07-22T1000,3562A,120.4146,30.8538,湖州市,南浔区站,NA,NA,NA,15,18,16,NA,NA,21,19,12,12,NA,4,0.6,0.6
2026-07-22T1000,1607A,120.904878,40.721091,葫芦岛市,龙港区,,41,27,34,7,20,130,130,141,132,8,6,4,4,0.4,0.5
2026-07-22T1000,1608A,120.8382,40.7521,葫芦岛市,化工街,,42,27,29,14,19,132,132,112,107,11,10,8,7,0.3,0.4
2026-07-22T1000,1609A,120.8339,40.7078,葫芦岛市,新区,NA,NA,26,35,12,21,NA,NA,123,117,7,5,3,3,0.7,0.7
2026-07-22T1000,1610A,120.8697,40.7679,葫芦岛市,东城区,,47,29,35,16,28,148,148,130,120,7,7,2,2,0.6,0.5
2026-07-22T1000,2483A,109.9297,27.5383,怀化市,河西地税局,,20,20,22,10,13,16,16,10,10,3,7,4,5,/,/
2026-07-22T1000,2484A,109.9783,27.5342,怀化市,市四医院,,32,32,27,19,21,17,17,9,9,11,12,3,4,0.5,0.4
2026-07-22T1000,2485A,109.9971,27.5579,怀化市,监测楼,,31,31,28,18,19,24,24,23,21,10,11,8,6,0.4,0.4
2026-07-22T1000,1210A,119.0566,33.5991,淮安市,钵池山,,32,31,28,22,17,48,48,38,38,10,11,2,2,1.0,0.9
2026-07-22T1000,1211A,119.0083,33.578,淮安市,北京南路,,36,NA,25,25,21,53,53,40,39,7,9,4,4,0.9,0.9
2026-07-22T1000,1212A,118.9938,33.6083,淮安市,市监测站,,32,NA,15,22,18,52,52,46,45,13,12,6,6,0.9,0.9
2026-07-22T1000,1213A,119.135,33.5038,淮安市,楚州区监测站,,26,NA,16,18,16,53,53,38,38,5,5,4,4,0.9,0.8
2026-07-22T1000,3426A,118.8757,33.2897,淮安市,新华书店,,20,20,24,13,20,64,64,45,43,6,8,7,8,1.0,0.9
2026-07-22T1000,4092A,119.119691,33.550006,淮安市,枚皋中路89号,,28,NA,20,19,13,60,60,48,48,8,9,7,8,1.0,0.5
2026-07-22T1000,4206A,119.028838,33.631911,淮安市,承德北路606号,,42,NA,25,29,20,48,48,36,36,8,10,5,6,0.7,0.6
2026-07-22T1000,2282A,116.8005,33.9749,淮北市,监测站,,34,29,26,17,15,108,108,78,78,8,9,7,7,0.7,0.7
2026-07-22T1000,2283A,116.8094,33.9008,淮北市,烈山区政府,,33,33,30,18,14,102,102,73,73,10,10,6,6,0.6,0.5
2026-07-22T1000,4017A,116.7926,33.9534,淮北市,市博物馆,,35,NA,28,21,22,110,110,81,81,8,8,5,5,0.4,0.3
2026-07-22T1000,4100A,116.8322,33.9884,淮北市,杜集区第一实验学校,,34,34,35,16,12,105,105,70,70,7,8,5,4,0.7,0.6
2026-07-22T1000,2277A,116.8304,32.7726,淮南市,潘集区政府,NA,NA,9,18,3,12,52,52,60,53,10,14,5,6,NA,0.4
2026-07-22T1000,2279A,116.8569,32.5949,淮南市,谢家集区政府,,20,NA,11,6,11,63,63,56,50,4,10,7,8,0.2,0.2
2026-07-22T1000,2280A,116.8279,32.6333,淮南市,八公山区政府,,18,8,19,3,9,56,56,56,50,6,7,5,6,0.2,0.2
2026-07-22T1000,2894A,117.0561,32.6536,淮南市,经济技术开发区消防队,,20,8,10,3,10,64,64,61,58,6,7,7,8,0.5,0.5
2026-07-22T1000,3329A,117.011,32.5891,淮南市,山南新区,,20,9,6,3,11,61,61,61,55,6,8,12,12,0.2,0.2
2026-07-22T1000,4209A,117.003137,32.644456,淮南市,国庆中路369号,,19,6,15,3,10,60,60,61,54,9,9,11,11,0.2,0.2
2026-07-22T1000,2446A,114.9021,30.474,黄冈市,职工中心,,15,8,13,6,7,46,46,32,32,10,11,10,10,0.2,0.6
2026-07-22T1000,2929A,114.8858,30.4519,黄冈市,红卫路,,15,11,12,3,9,46,46,31,31,6,8,6,6,0.6,0.4
2026-07-22T1000,3398A,114.9134,30.4446,黄冈市,市林业局,,17,12,14,6,6,53,53,37,37,11,13,5,4,0.8,0.4
2026-07-22T1000,2672A,102.02,35.5101,黄南藏族自治州,同仁县隆务镇,,31,29,18,12,11,99,99,109,103,8,2,9,8,0.3,0.2
2026-07-22T1000,2295A,118.2905,29.6965,黄山市,延安路89号,,20,20,13,10,5,40,40,28,27,4,3,2,2,0.5,0.4
2026-07-22T1000,2297A,118.1369,30.2755,黄山市,黄山区政府5号楼,,25,25,15,15,7,42,42,16,16,2,2,2,2,0.7,0.6
2026-07-22T1000,4210A,118.335445,29.720283,黄山市,滨江东路7-2号,,22,22,22,3,3,34,34,30,28,2,3,/,/,/,/
2026-07-22T1000,2423A,115.0547,30.2332,黄石市,沈家营,,41,41,36,13,6,31,31,16,16,18,16,7,9,0.8,0.9
2026-07-22T1000,2426A,114.899,30.211,黄石市,铁山,,27,27,25,11,9,35,35,21,21,12,11,4,4,0.6,0.7
2026-07-22T1000,2427A,115.0259,30.2108,黄石市,团城山,,41,41,34,11,8,26,26,14,14,16,12,4,5,1.0,1
2026-07-22T1000,3149A,115.0174,30.1591,黄石市,笔架山北路,,35,35,41,7,7,37,37,19,19,3,7,5,4,0.5,0.6
2026-07-22T1000,4185A,115.078022,30.21118,黄石市,磁湖东路29号,,47,47,35,13,9,23,23,10,10,22,20,6,5,1.2,1.1
2026-07-22T1000,1392A,114.4181,23.0528,惠州市,河南岸金山湖子站,,42,42,38,22,19,50,50,17,17,11,14,8,8,0.6,0.6
2026-07-22T1000,1393A,114.4055,23.0824,惠州市,下埔横江三路子站,,46,46,46,22,21,63,63,29,29,11,16,7,7,0.5,0.5
2026-07-22T1000,1395A,114.4645,22.7832,惠州市,惠阳区承修路船湖子站,,44,44,40,19,18,62,62,44,44,5,9,4,4,0.7,0.7
2026-07-22T1000,1396A,114.5316,22.7423,惠州市,大亚湾管委会子站,,43,43,39,21,21,64,64,34,34,10,15,8,8,0.5,0.5
2026-07-22T1000,3314A,114.4334,22.8134,惠州市,惠阳秋长,,48,48,47,15,25,61,61,17,17,8,24,/,/,/,/
2026-07-22T1000,3452A,114.6521,22.7755,惠州市,大亚湾霞涌,,34,34,31,17,15,63,63,36,36,2,9,/,/,/,/
2026-07-22T1000,4300A,114.4089,23.1147,惠州市,文华一路1号,,43,43,39,23,19,68,68,28,28,9,14,/,/,/,/
2026-07-22T1000,2240A,130.9618,45.2926,鸡西市,环保局,,29,19,28,13,13,90,90,39,39,12,13,12,11,0.4,0.4
2026-07-22T1000,2243A,130.9294,45.2959,鸡西市,第一中学,,35,18,23,18,15,109,109,71,71,7,12,6,6,0.4,0.3
2026-07-22T1000,3707A,131.0069,45.2988,鸡西市,欧美日汽修厂,NA,NA,34,23,12,9,76,76,53,53,NA,15,NA,9,0.7,0.6
2026-07-22T1000,2367A,114.9753,27.0803,吉安市,红声器材厂,,30,30,36,16,15,72,72,52,52,6,6,8,7,0.2,0.2
2026-07-22T1000,2369A,114.9903,27.1313,吉安市,市环境监测站,NA,NA,NA,34,NA,13,68,68,50,50,4,4,9,9,/,/
2026-07-22T1000,2370A,115.009527,27.096792,吉安市,青原区法院,,31,31,34,13,14,70,70,55,55,5,5,8,8,0.2,0.2
2026-07-22T1000,1772A,126.54,43.8622,吉林市,哈达湾,,39,22,27,20,21,123,123,78,78,7,9,7,6,0.6,0.6
2026-07-22T1000,1773A,126.5843,43.8358,吉林市,东局子,NA,NA,23,22,NA,18,119,119,63,63,NA,12,5,4,0.3,0.3
2026-07-22T1000,1774A,126.5051,43.8243,吉林市,电力学院,,41,18,35,17,21,131,131,73,73,4,9,6,5,0.5,0.4
2026-07-22T1000,1775A,126.6133,43.8971,吉林市,江北,,36,29,30,18,21,113,113,65,65,8,9,6,6,0.7,0.7
2026-07-22T1000,1776A,126.5549,43.8304,吉林市,江南公园,,42,29,30,20,18,132,132,75,75,4,6,4,3,0.3,0.3
2026-07-22T1000,2868A,126.4737,43.953,吉林市,九站,,40,25,30,15,20,127,127,81,81,5,13,2,2,0.6,0.6
2026-07-22T1000,1299A,116.9866,36.6118,济南市,科干所,,43,34,30,19,18,135,135,121,121,7,9,4,4,0.8,0.7
2026-07-22T1000,1300A,116.9379,36.6652,济南市,农科所,,42,42,31,24,18,128,128,102,102,6,8,4,4,0.4,0.3
2026-07-22T1000,1301A,117.1265,36.6736,济南市,开发区,,41,37,32,20,17,131,131,100,100,5,11,6,5,0.7,0.7
2026-07-22T1000,1303A,117.0616,36.6865,济南市,省种子仓库,,40,39,38,16,16,128,128,118,118,8,11,5,5,0.3,0.2
2026-07-22T1000,1304A,116.9495185,36.644937,济南市,机床二厂,,44,42,34,22,19,138,138,115,115,4,4,6,6,0.5,0.4
2026-07-22T1000,1305A,117.0496,36.6629,济南市,市监测站,,40,37,31,17,14,127,127,119,119,9,10,4,4,0.6,0.5
2026-07-22T1000,1306A,116.7674,36.5458,济南市,长清党校,,40,34,36,12,20,126,126,103,103,6,9,4,5,0.4,0.4
2026-07-22T1000,1961A,117.5323,36.6865,济南市,东山小学,NA,NA,56,42,30,22,132,132,95,95,NA,14,5,4,0.4,0.3
2026-07-22T1000,3059A,117.7181,36.205,济南市,泰兴公司,颗粒物(PM10),56,58,53,34,32,129,129,73,73,13,24,12,9,0.6,0.5
2026-07-22T1000,3064A,117.6861,36.2172,济南市,莱芜战役纪念馆,颗粒物(PM10),56,58,49,36,31,132,132,80,80,12,16,7,6,0.5,0.5
2026-07-22T1000,3494A,117.1673,36.9782,济南市,济阳区政府,颗粒物(PM10),51,51,50,20,20,130,130,77,77,18,22,6,5,0.4,0.4
2026-07-22T1000,3495A,117.1168,36.6299,济南市,锦屏中学,,38,34,32,20,18,119,119,98,98,3,5,2,2,0.4,0.4
2026-07-22T1000,4108A,117.7107,36.2385,济南市,山财大街5号,细颗粒物(PM2.5),66,51,45,43,34,135,135,84,84,14,21,12,10,0.8,0.7
2026-07-22T1000,4109A,116.9744,36.6889,济南市,无影山路12号,NA,NA,34,30,23,18,NA,NA,102,102,8,9,5,4,0.6,0.5
2026-07-22T1000,1653A,116.6229,35.4288,济宁市,火炬城,,38,34,41,16,21,119,119,81,81,8,10,5,4,0.7,0.6
2026-07-22T1000,3500A,116.5808,35.3703,济宁市,北湖一中,NA,NA,33,40,31,25,NA,NA,86,83,8,8,5,4,0.7,0.6
2026-07-22T1000,3501A,116.8251,35.5592,济宁市,服务中心,,45,45,44,30,27,136,136,89,89,7,10,3,2,0.5,0.4
2026-07-22T1000,3678A,116.5907,35.4054,济宁市,市第七中学,NA,NA,38,39,22,23,NA,NA,82,78,11,11,NA,5,0.6,0.6
2026-07-22T1000,4111A,116.6075,35.4566,济宁市,任和路,,42,34,36,22,22,133,133,94,94,7,8,5,4,0.6,0.6
2026-07-22T1000,4112A,116.5648,35.3921,济宁市,文体南路1号,,37,33,34,13,21,118,118,85,85,7,7,3,3,0.4,0.3
2026-07-22T1000,4122A,112.6071,35.1015,济源市,市委党校,,48,48,52,21,23,89,89,58,58,13,13,9,4,0.8,0.9
2026-07-22T1000,4123A,112.596,35.0702,济源市,沁园中路1号,,45,45,40,24,23,111,111,72,72,15,12,10,4,2.5,1.2
2026-07-22T1000,2255A,130.2749,46.8028,佳木斯市,佳纺,,28,NA,25,6,10,89,89,56,56,7,21,3,4,0.2,0.2
2026-07-22T1000,2257A,130.3258,46.7975,佳木斯市,环保局,,26,23,23,7,8,82,82,57,57,14,22,5,5,0.4,0.4
2026-07-22T1000,4285A,130.363,46.806,佳木斯市,顺和街,NA,NA,NA,20,NA,8,88,88,66,66,11,17,2,3,0.3,0.2
2026-07-22T1000,4286A,130.3952,46.8268,佳木斯市,长安路196号,,31,13,28,3,7,98,98,68,68,8,20,9,13,0.2,0.2
2026-07-22T1000,1252A,120.7439,30.778,嘉兴市,清河小学,,32,32,21,22,13,48,48,32,30,21,15,5,6,1.0,0.6
2026-07-22T1000,1253A,120.7261,30.7477,嘉兴市,嘉兴学院,NA,NA,NA,34,20,17,56,56,32,32,21,17,2,3,0.7,0.7
2026-07-22T1000,2872A,120.7845,30.7524,嘉兴市,南湖区残联,,30,26,18,21,14,58,58,35,35,15,9,5,5,0.9,0.7
2026-07-22T1000,3407A,120.6915,30.7741,嘉兴市,秀洲住建,,29,22,16,20,12,59,59,26,26,12,11,4,3,0.5,0.4
2026-07-22T1000,1945A,98.291,39.7705,嘉峪关市,气象局,NA,NA,NA,22,NA,10,104,104,87,87,NA,9,29,12,0.5,0.5
2026-07-22T1000,2884A,98.2672,39.7978,嘉峪关市,酒钢宾馆,,44,44,32,15,10,99,99,68,68,14,10,52,17,0.7,0.4
2026-07-22T1000,3248A,98.2644,39.7723,嘉峪关市,雄关区,,34,31,27,7,9,108,108,81,81,8,10,30,9,0.2,0.2
2026-07-22T1000,1383A,113.1063,22.6058,江门市,北街,,44,44,32,13,16,51,51,32,32,4,13,/,/,/,/
2026-07-22T1000,1384A,113.073,22.5835,江门市,西区,NA,NA,NA,29,16,18,64,64,39,39,6,14,/,/,/,/
2026-07-22T1000,1385A,113.0218,22.531,江门市,圭峰西,颗粒物(PM10),52,52,34,16,17,65,65,35,35,8,12,/,/,/,/
2026-07-22T1000,1386A,113.0826,22.5947,江门市,东湖,,30,30,31,15,15,62,62,35,35,6,13,6,6,0.4,0.5
2026-07-22T1000,3311A,113.1077,22.5647,江门市,江海富民,颗粒物(PM10),55,56,53,12,19,63,63,37,37,4,15,/,/,0.5,0.6
2026-07-22T1000,3449A,113.0496,22.4669,江门市,新会银湖,,45,45,26,17,17,64,64,25,25,10,20,4,4,0.5,0.5
2026-07-22T1000,3335A,113.3137,35.2643,焦作市,马村街道办,NA,NA,NA,46,NA,31,NA,NA,52,44,NA,12,6,5,0.6,0.5
2026-07-22T1000,3336A,113.2464,35.2374,焦作市,焦作技师学院,,49,49,52,29,27,111,111,61,61,8,9,11,6,1.1,0.7
2026-07-22T1000,3477A,113.1656,35.2536,焦作市,中站许衡医院,,38,26,45,26,27,105,105,63,63,13,12,10,7,0.6,0.5
2026-07-22T1000,3981A,113.2456,35.18,焦作市,原李万街道办,,38,33,39,18,23,119,119,79,79,7,9,8,5,0.6,0.6
2026-07-22T1000,4264A,113.234,35.219,焦作市,新安路1731号,,36,32,45,25,27,100,100,64,64,13,13,10,7,0.7,0.5
2026-07-22T1000,4295A,113.2722,35.2121,焦作市,人民路3066号,,43,37,45,30,29,90,90,60,60,8,9,3,6,0.8,0.8
2026-07-22T1000,1708A,116.3701,23.5345,揭阳市,新兴,颗粒物(PM10),71,79,51,24,19,62,62,32,32,14,12,8,6,0.5,0.5
2026-07-22T1000,1709A,116.3261,23.5442,揭阳市,西马,NA,NA,59,57,22,23,63,63,24,24,7,12,NA,5,NA,0.6
2026-07-22T1000,1710A,116.361,23.5627,揭阳市,东兴,颗粒物(PM10),63,67,49,30,21,60,60,28,28,14,14,5,5,/,/
2026-07-22T1000,1711A,116.4151,23.5295,揭阳市,渔湖,,48,48,52,16,20,60,60,25,25,6,12,4,5,/,/
2026-07-22T1000,3320A,116.4028,23.5699,揭阳市,曲溪,,48,48,43,21,20,73,73,24,24,9,11,10,11,0.5,0.5
2026-07-22T1000,1944A,102.1691,38.5166,金昌市,天庆家园,颗粒物(PM10),95,112,90,40,29,104,104,56,56,17,14,8,10,0.3,0.2
2026-07-22T1000,4022A,102.1648,38.5369,金昌市,金川区人防中心,颗粒物(PM10),103,127,88,44,31,100,100,72,70,19,12,11,7,0.4,0.3
2026-07-22T1000,4239A,102.193042,38.531887,金昌市,长春路96号,,34,9,14,3,8,107,107,68,68,7,10,16,8,0.4,0.3
2026-07-22T1000,1262A,119.6478,29.0773,金华市,十五中,,41,41,43,21,13,55,55,18,18,16,13,2,2,0.6,0.5
2026-07-22T1000,1263A,119.6859,29.1032,金华市,监测站,,31,31,24,15,9,61,61,17,17,12,13,3,3,0.7,0.5
2026-07-22T1000,3659A,119.656,29.1132,金华市,气象局,,34,34,24,18,11,76,76,27,27,10,12,3,3,0.8,0.5
2026-07-22T1000,1767A,121.1114,41.0879,锦州市,南山,,39,14,37,12,23,124,124,99,97,8,9,1,1,0.7,0.7
2026-07-22T1000,1768A,121.060361,40.842794,锦州市,开发区,,47,47,46,12,20,140,140,148,140,11,12,8,8,0.5,0.6
2026-07-22T1000,1769A,121.1836,41.1118,锦州市,百股街道,NA,NA,16,42,14,29,NA,NA,201,180,3,5,3,5,0.5,0.7
2026-07-22T1000,1770A,121.1176,41.1224,锦州市,天安街道,,45,NA,41,18,29,142,142,116,113,13,12,5,4,0.5,0.5
2026-07-22T1000,1771A,121.1303,41.1385,锦州市,北湖公园,颗粒物(PM10),65,70,49,16,29,132,132,116,110,19,10,5,4,0.7,0.6
2026-07-22T1000,2160A,112.8496,35.5051,晋城市,自来水公司,,41,39,37,14,12,130,130,87,87,7,9,3,4,0.5,0.6
2026-07-22T1000,2162A,112.8509,35.4886,晋城市,市环保局,,46,32,46,32,23,121,121,85,85,7,8,4,4,0.5,0.5
2026-07-22T1000,3620A,112.8258,35.4804,晋城市,泽州一中,,46,36,39,32,20,119,119,84,84,7,9,4,4,0.7,0.7
2026-07-22T1000,4078A,112.8246,35.5152,晋城市,前书院路,,46,46,40,11,17,126,126,70,70,4,6,5,4,0.7,0.8
2026-07-22T1000,4079A,112.8864,35.4773,晋城市,祥云街666号,,48,48,38,26,21,119,119,72,72,5,8,5,5,0.6,0.6
2026-07-22T1000,2174A,112.6992,37.6984,晋中市,榆次区政府,颗粒物(PM10),51,51,44,31,26,109,109,76,76,16,12,10,9,0.9,0.6
2026-07-22T1000,2865A,112.7195,37.683,晋中市,榆次三中,,39,39,44,27,28,120,120,77,77,11,12,14,13,1.1,0.7
2026-07-22T1000,4080A,112.7375,37.7215,晋中市,广安街188号,颗粒物(PM10),51,51,53,26,25,111,111,71,71,14,13,12,12,0.5,0.4
2026-07-22T1000,4200A,112.7478,37.6954,晋中市,迎宾街26号,,37,36,43,25,29,118,118,75,75,9,13,10,10,0.8,0.6
2026-07-22T1000,2439A,112.2012,31.048,荆门市,竹园小学,,31,14,37,6,25,99,99,70,70,7,8,4,4,0.8,0.9
2026-07-22T1000,2440A,112.1968,30.9892,荆门市,掇刀,,29,6,31,3,25,92,92,71,71,7,7,3,6,0.6,0.7
2026-07-22T1000,3012A,112.1849,31.0361,荆门市,西山林语,,26,NA,33,6,24,81,81,56,56,6,7,12,10,0.9,0.9
2026-07-22T1000,3547A,112.1631,31.0134,荆门市,龙泉中学南校,,26,6,32,3,21,81,81,60,60,6,8,6,6,0.7,0.8
2026-07-22T1000,4124A,112.2213,31.0654,荆门市,新台西路6号,,30,6,34,3,27,95,95,62,62,12,9,8,7,0.7,0.8
2026-07-22T1000,1844A,112.2493,30.3198,荆州市,市图书馆,,15,14,27,10,20,48,48,51,48,8,8,4,4,0.3,0.4
2026-07-22T1000,1845A,112.2009,30.3543,荆州市,市委党校,NA,NA,12,26,11,21,NA,NA,49,46,6,7,5,5,0.5,0.5
2026-07-22T1000,3194A,112.2749,30.3124,荆州市,管委会,,15,15,22,9,22,43,43,48,46,13,8,4,5,0.5,0.4
2026-07-22T1000,4268A,112.1722,30.3366,荆州市,学苑路85号,,15,9,23,7,21,46,46,42,41,1,9,7,4,0.4,0.5
2026-07-22T1000,2343A,117.2114,29.2931,景德镇市,老干部活动中心,,27,27,14,8,7,50,50,25,25,11,8,5,4,0.8,0.7
2026-07-22T1000,2344A,117.1893,29.2789,景德镇市,兽医站,,35,35,24,7,6,44,44,27,27,10,7,4,4,0.7,0.6
2026-07-22T1000,2346A,117.246,29.2958,景德镇市,陶研所,,16,15,13,3,5,49,49,28,28,4,9,3,4,0.3,0.5
2026-07-22T1000,4289A,117.154766,29.256967,景德镇市,青少年活动中心,,24,24,19,10,7,34,34,18,18,14,12,30,10,/,/
2026-07-22T1000,1803A,115.9873,29.6816,九江市,十里,,21,21,17,9,8,64,64,38,38,10,12,4,4,0.5,0.5
2026-07-22T1000,1804A,115.9583,29.7047,九江市,茅山头,,19,17,12,11,6,59,59,45,45,8,14,4,4,0.4,0.5
2026-07-22T1000,1805A,115.9877,29.7295,九江市,西园,,17,17,14,8,13,49,49,43,40,26,20,4,4,0.4,0.4
2026-07-22T1000,1808A,115.9112,29.6038,九江市,综合工业园,,25,25,10,13,7,72,72,49,49,5,14,2,2,0.2,0.3
2026-07-22T1000,3190A,116.0254,29.6995,九江市,外国语学校,NA,NA,13,12,12,10,NA,NA,42,42,4,7,12,13,0.4,0.4
2026-07-22T1000,4253A,116.010205,29.659402,九江市,莲花大道8号,,18,16,11,9,5,55,55,29,29,6,6,4,5,0.5,0.5
2026-07-22T1000,4240A,98.495752,39.733935,酒泉市,玉门东路5号,,46,46,29,15,13,92,92,76,75,11,9,11,9,0.3,0.2
2026-07-22T1000,4241A,98.5099,39.7506,酒泉市,北大街108号,,44,44,35,12,13,92,92,72,72,12,8,14,13,0.4,0.3
2026-07-22T1000,2698A,76.0071,39.466,喀什地区,巡警大队,颗粒物(PM10),58,61,160,25,57,105,105,117,117,12,13,5,5,0.2,0.2
2026-07-22T1000,2699A,75.9756,39.4693,喀什地区,吾办,,50,50,142,16,44,107,107,115,115,4,7,3,5,0.2,0.4
2026-07-22T1000,4027A,75.9485,39.4688,喀什地区,老干局,,47,47,143,6,38,104,104,115,115,6,7,4,4,0.3,0.3
2026-07-22T1000,1824A,114.3389,34.778,开封市,肿瘤医院,,24,21,37,15,24,75,75,60,58,10,15,5,5,0.3,0.4
2026-07-22T1000,1826A,114.2884,34.7966,开封市,世纪星幼儿园,,28,17,36,9,26,87,87,81,73,8,14,3,3,0.6,0.7
2026-07-22T1000,3147A,114.3434,34.8101,开封市,龙亭公园,,24,16,37,3,19,76,76,66,62,4,8,4,4,0.5,0.6
2026-07-22T1000,3210A,114.3645,34.7955,开封市,汴京公园,,34,34,39,12,23,88,88,74,70,11,15,6,5,0.2,0.2
2026-07-22T1000,3473A,114.2485,34.8306,开封市,技师学院,,27,27,40,7,18,82,82,82,73,2,4,6,5,0.6,0.7
2026-07-22T1000,3592A,114.4518,34.7503,开封市,祥符区生态环境局,,28,NA,55,19,26,80,80,61,60,5,12,12,11,0.6,0.7
2026-07-22T1000,1951A,84.886,45.6029,克拉玛依市,长征新村,,45,45,48,8,18,116,116,117,115,6,5,3,4,0.2,0.3
2026-07-22T1000,1952A,84.8894,45.5827,克拉玛依市,南林小区,,37,33,45,3,6,116,116,115,115,1,5,6,7,0.2,0.1
2026-07-22T1000,1954A,84.896,44.3328,克拉玛依市,独山子区,颗粒物(PM10),102,123,65,20,18,NA,NA,106,106,NA,5,NA,7,0.3,0.4
2026-07-22T1000,1955A,85.6888,46.0909,克拉玛依市,乌尔禾区商贸楼,NA,NA,32,44,16,19,NA,NA,114,112,4,5,8,9,0.2,0.2
2026-07-22T1000,3612A,85.1045,45.6895,克拉玛依市,白碱滩区新站,,40,31,53,6,14,126,126,124,124,2,3,10,11,0.1,0.2
2026-07-22T1000,2697A,76.1457,39.7143,克孜勒苏柯尔克孜自治州,市人民政府,颗粒物(PM10),53,54,140,30,50,105,105,119,118,10,4,33,6,0.1,0
2026-07-22T1000,3665A,76.1654,39.7157,克孜勒苏柯尔克孜自治州,克州文化中心,,50,50,148,27,56,120,120,124,124,2,4,7,9,0.1,0.1
2026-07-22T1000,1450A,102.8203,24.889,昆明市,呈贡新区,,33,32,37,23,23,80,80,50,50,6,21,7,6,1.0,1.1
2026-07-22T1000,1452A,102.7253,25.0904,昆明市,龙泉镇,细颗粒物(PM2.5),54,51,42,37,25,64,64,21,21,23,31,12,6,0.6,0.4
2026-07-22T1000,1453A,102.7267,25.0378,昆明市,东风东路,细颗粒物(PM2.5),58,54,46,39,29,57,57,24,24,22,30,14,6,0.8,0.7
2026-07-22T1000,1454A,102.6744,25.0671,昆明市,金鼎山,颗粒物(PM10),60,64,66,31,26,64,64,28,28,20,35,14,6,0.8,0.8
2026-07-22T1000,1455A,102.6643,25.0401,昆明市,碧鸡广场,颗粒物(PM10),57,59,47,38,25,53,53,44,42,20,23,19,8,1.1,0.7
2026-07-22T1000,3179A,102.7491,25.012,昆明市,官渡区博物馆,NA,NA,43,48,24,26,NA,NA,2,2,18,36,7,4,0.7,0.7
2026-07-22T1000,3375A,102.8016,24.8336,昆明市,青年创业园,,26,26,37,18,20,81,81,24,24,6,22,8,9,0.4,0.5
2026-07-22T1000,3550A,102.8,24.9787,昆明市,昆明学院,,48,48,56,21,25,67,67,20,20,12,28,11,7,0.7,0.8
2026-07-22T1000,3551A,102.5969,24.6738,昆明市,晋宁区生态环境分局,,25,NA,30,16,23,80,80,58,58,9,10,10,10,0.5,0.6
2026-07-22T1000,3552A,102.6673,24.9861,昆明市,云天化总部,,48,48,40,28,23,67,67,34,34,15,27,14,7,0.7,0.5
2026-07-22T1000,1456A,91.132,29.6515,拉萨市,八廓街,,36,14,9,12,6,114,114,132,126,14,7,7,7,0.3,0.2
2026-07-22T1000,1457A,91.1221,29.6748,拉萨市,市环保局,,37,NA,8,20,7,117,117,123,120,11,9,7,6,0.3,0.2
2026-07-22T1000,1458A,91.0874,29.6476,拉萨市,区监测站,,35,14,9,6,6,109,109,127,119,18,10,7,7,0.2,0.1
2026-07-22T1000,1459A,91.1774,29.6541,拉萨市,西藏大学,NA,NA,6,7,6,6,NA,NA,134,132,10,8,5,5,0.3,0.2
2026-07-22T1000,1460A,90.9798,29.6586,拉萨市,区辐射站,,31,17,12,7,5,99,99,125,117,28,14,7,7,0.3,0.2
2026-07-22T1000,1461A,91.0831,29.6292,拉萨市,拉萨火车站,NA,NA,7,8,3,5,81,81,127,116,31,10,NA,4,NA,0.2
2026-07-22T1000,2520A,109.2203,23.7252,来宾市,来宾技工学校,颗粒物(PM10),52,52,29,21,15,43,43,25,25,14,12,5,4,0.7,0.6
2026-07-22T1000,3535A,109.1781,23.7293,来宾市,兴宾区政府,,37,37,24,18,15,54,54,32,32,6,8,9,7,0.8,0.7
2026-07-22T1000,4002A,109.2312,23.7428,来宾市,中南小学,,36,36,27,22,17,46,46,24,24,9,10,6,6,0.6,0.6
2026-07-22T1000,1479A,103.8309,36.0467,兰州市,铁路设计院,,40,40,39,10,11,92,92,71,66,38,24,26,10,1.1,0.7
2026-07-22T1000,3241A,103.7439,36.0841,兰州市,百合公园,NA,NA,39,43,6,14,NA,NA,22,22,31,34,NA,8,0.4,0.4
2026-07-22T1000,3242A,103.9613,35.9985,兰州市,和平,颗粒物(PM10),60,64,32,21,13,88,88,81,78,23,12,21,9,0.8,0.3
2026-07-22T1000,4236A,103.629272,36.093822,兰州市,庄浪东路808号,,37,37,36,14,13,62,62,70,65,33,19,36,15,0.7,0.4
2026-07-22T1000,4237A,103.7251,36.104344,兰州市,安宁西路88号,,44,44,41,16,17,107,107,61,61,21,18,39,15,0.5,0.4
2026-07-22T1000,4238A,103.846982,36.067567,兰州市,北滨河东路1号,,39,39,37,16,14,80,80,34,34,36,32,27,14,0.7,0.5
2026-07-22T1000,1067A,116.6712,39.5109,廊坊市,药材公司,,35,20,32,11,22,112,112,76,76,7,7,1,1,0.3,0.3
2026-07-22T1000,1068A,116.7215,39.5592,廊坊市,开发区,NA,NA,15,33,11,22,121,121,76,76,4,6,NA,3,0.3,0.4
2026-07-22T1000,1070A,116.7246,39.5273,廊坊市,北华航天学院,,39,13,34,8,25,123,123,88,88,6,8,3,3,0.3,0.4
2026-07-22T1000,2919A,116.7022,39.5454,廊坊市,河北工业大学,,39,21,36,15,24,122,122,92,92,6,5,1,2,0.3,0.4
2026-07-22T1000,2536A,103.7629,29.5844,乐山市,牛耳桥,NA,NA,54,46,18,18,NA,NA,32,30,NA,22,NA,7,NA,0.9
2026-07-22T1000,2537A,103.7501,29.6002,乐山市,市第三水厂,,48,48,47,20,21,99,99,48,48,20,22,7,5,1.1,0.9
2026-07-22T1000,2538A,103.7571,29.5664,乐山市,市监测站,颗粒物(PM10),59,62,50,25,19,96,96,60,60,18,15,7,7,1.1,0.9
2026-07-22T1000,3361A,103.7313,29.563,乐山市,理工大学,颗粒物(PM10),54,55,50,21,19,92,92,44,44,21,17,10,9,1.3,1.1
2026-07-22T1000,2599A,100.2497,26.8802,丽江市,丽江古城,,28,14,14,3,8,89,89,95,93,10,7,1,3,0.6,0.6
2026-07-22T1000,2600A,100.2203,26.8906,丽江市,市中心,,28,NA,11,14,9,87,87,98,94,10,7,7,7,0.4,0.4
2026-07-22T1000,1267A,119.9141,28.4513,丽水市,监测站大楼,,28,28,14,13,7,40,40,16,16,14,11,6,5,0.6,0.5
2026-07-22T1000,1268A,119.93,28.4589,丽水市,莲都小学,NA,NA,24,15,18,6,NA,NA,25,NA,NA,7,/,/,/,/
2026-07-22T1000,1269A,119.8794,28.4232,丽水市,余庄前,,31,31,14,18,6,49,49,12,12,15,10,6,6,0.6,0.5
2026-07-22T1000,1173A,119.1759,34.5885,连云港市,市环境监测站,,39,NA,18,27,16,92,92,68,68,12,9,5,5,0.8,0.5
2026-07-22T1000,3000A,119.3577,34.6971,连云港市,德源药业,,31,31,34,14,13,80,80,36,36,21,23,5,5,0.6,0.7
2026-07-22T1000,3007A,119.178,34.8442,连云港市,新城一中,,31,31,25,10,12,83,83,40,40,10,24,8,9,0.6,0.8
2026-07-22T1000,3008A,119.3607,34.7519,连云港市,胡沟管理处,,26,17,28,7,10,83,83,57,57,15,33,11,13,0.4,0.6
2026-07-22T1000,3009A,119.1478,34.5913,连云港市,矿山设计院,NA,NA,29,19,17,14,80,80,63,63,NA,10,2,2,NA,0.6
2026-07-22T1000,3434A,119.2414,34.6539,连云港市,工贸学校,,31,31,19,13,13,86,86,70,69,9,7,6,7,0.5,0.7
2026-07-22T1000,3664A,119.4171,34.734,连云港市,连云街道,,28,28,21,12,10,77,77,54,54,13,13,4,5,0.6,0.6
2026-07-22T1000,2573A,102.2629,27.8981,凉山彝族自治州,西昌市政府,,33,26,29,23,15,65,65,70,67,18,7,10,8,0.5,0.4
2026-07-22T1000,2574A,102.2686,27.885,凉山彝族自治州,凉山州政府,NA,NA,NA,30,NA,15,68,68,72,66,NA,8,9,8,NA,0.5
2026-07-22T1000,4229A,102.2342,27.8859,凉山彝族自治州,凯乐南路30号,,33,33,32,23,16,56,56,43,38,23,15,9,6,0.4,0.3
2026-07-22T1000,2212A,123.1978,41.2036,辽阳市,宏伟区,,31,13,41,12,22,98,98,90,90,5,10,6,7,0.4,0.8
2026-07-22T1000,2213A,123.1684,41.2497,辽阳市,新华园,,39,28,49,14,23,122,122,100,100,7,16,6,11,0.7,1
2026-07-22T1000,2214A,123.2355,41.2663,辽阳市,滨河路,NA,NA,NA,42,NA,24,107,107,87,87,9,13,7,10,NA,1.2
2026-07-22T1000,4083A,123.153,41.2874,辽阳市,铁西路150号,,37,27,43,13,21,118,118,102,102,6,11,7,10,0.3,0.8
2026-07-22T1000,2227A,125.1359,42.8845,辽源市,环保局,,45,34,29,16,16,141,141,86,86,3,8,6,5,0.9,0.6
2026-07-22T1000,4085A,125.0998,42.9134,辽源市,安宁大街333号,NA,NA,40,33,15,20,NA,NA,84,80,2,8,6,7,0.6,0.6
2026-07-22T1000,1625A,115.9789,36.4372,聊城市,区政府,,41,41,41,21,24,117,117,94,94,2,6,4,4,0.7,0.6
2026-07-22T1000,3200A,115.9772,36.4986,聊城市,监控中心,,40,24,32,24,26,126,126,106,106,3,4,9,8,0.5,0.5
2026-07-22T1000,3513A,116.0443,36.436,聊城市,九州社区,NA,NA,NA,51,NA,31,133,133,100,100,2,7,11,7,0.5,0.6
2026-07-22T1000,4018A,116.0564,36.4609,聊城市,星美广场,,50,50,52,28,30,126,126,95,95,3,5,4,4,0.5,0.4
2026-07-22T1000,4113A,116.0091,36.4495,聊城市,利民路,,43,30,40,22,29,136,136,103,103,5,9,12,10,0.4,0.4
2026-07-22T1000,2632A,94.3683,29.6373,林芝市,林芝监测站,,14,10,10,7,4,44,44,40,38,6,5,3,3,0.3,0.3
2026-07-22T1000,2633A,94.3616,29.6634,林芝市,林芝人民医院,,13,12,10,3,7,41,41,35,33,7,5,3,3,0.4,0.3
2026-07-22T1000,2603A,100.0779,23.8981,临沧市,市环保局,,22,22,18,8,9,40,40,21,21,9,10,4,7,0.5,0.5
2026-07-22T1000,2604A,100.0894,23.882,临沧市,市气象局,,22,22,20,7,12,41,41,26,26,8,6,6,8,0.9,0.6
2026-07-22T1000,1733A,111.5552,36.0791,临汾市,临钢医院,,32,23,32,3,9,101,101,82,80,14,13,7,7,0.6,0.5
2026-07-22T1000,1734A,111.4984,36.0734,临汾市,技工学校,NA,NA,NA,40,NA,17,NA,NA,85,82,13,9,NA,7,0.6,0.6
2026-07-22T1000,1736A,111.5017,36.0857,临汾市,市委,,42,42,51,3,10,100,100,84,84,11,9,8,7,0.5,0.5
2026-07-22T1000,3018A,111.5048,36.1015,临汾市,唐尧大酒店,,34,34,55,16,11,103,103,79,79,13,12,6,5,0.6,0.6
2026-07-22T1000,4244A,111.4879,36.053,临汾市,启星学校,,31,23,30,10,14,97,97,84,84,12,10,8,6,0.8,0.8
2026-07-22T1000,4271A,103.2464,35.6123,临夏回族自治州,滨河东路1号,颗粒物(PM10),57,59,42,20,15,61,61,49,49,27,15,7,7,0.7,0.4
2026-07-22T1000,4310A,103.207136,35.599807,临夏回族自治州,新华街21号,NA,NA,NA,30,60,14,71,71,58,53,18,10,10,10,0.4,0.2
2026-07-22T1000,1618A,118.3429,35.0532,临沂市,沂河小区,,36,36,37,24,25,76,76,48,48,12,13,12,11,0.3,0.3
2026-07-22T1000,1619A,118.2962,35.0568,临沂市,鲁南制药厂,,36,36,32,20,21,82,82,57,56,14,14,12,13,0.7,0.7
2026-07-22T1000,1620A,118.2793,34.9976,临沂市,新光毛纺厂,细颗粒物(PM2.5),52,NA,28,36,25,83,83,50,50,13,12,7,9,0.4,0.4
2026-07-22T1000,1621A,118.3955,35.0889,临沂市,河东保险公司,,36,36,31,18,20,78,78,42,42,10,16,10,10,0.4,0.4
2026-07-22T1000,3370A,118.3563,35.0215,临沂市,十里堡居委,NA,NA,27,25,17,20,NA,NA,48,44,21,21,NA,13,0.7,0.6
2026-07-22T1000,3496A,118.359,35.1067,临沂市,南坊新区,,39,39,36,27,22,80,80,50,50,14,15,9,8,0.3,0.4
2026-07-22T1000,3860A,118.3915,35.0297,临沂市,皇山花园小区,,38,31,32,26,23,76,76,44,44,15,17,10,9,0.6,0.6
2026-07-22T1000,1870A,109.4854,24.3898,柳州市,柳东小学,,32,32,20,18,13,56,56,39,39,9,9,5,4,0.7,0.7
2026-07-22T1000,1871A,109.4109,24.3304,柳州市,环保监测站,,33,33,23,17,13,50,50,34,34,9,10,8,7,0.9,0.9
2026-07-22T1000,1872A,109.3886,24.3408,柳州市,河西水厂,,41,41,25,19,15,45,45,35,35,17,13,9,8,0.7,0.7
2026-07-22T1000,1873A,109.4263,24.2951,柳州市,市四中,,45,45,26,22,18,48,48,29,29,8,10,5,5,0.9,0.9
2026-07-22T1000,1874A,109.396,24.3658,柳州市,市九中,,45,45,29,17,13,55,55,37,37,8,10,6,6,0.6,0.6
2026-07-22T1000,1875A,109.4912,24.3164,柳州市,古亭山,,41,41,23,15,12,52,52,35,35,6,9,4,3,0.7,0.7
2026-07-22T1000,3402A,109.5422,24.3994,柳州市,市二中,,40,40,20,17,12,51,51,38,38,10,9,8,7,0.4,0.4
2026-07-22T1000,2307A,116.5078,31.7369,六安市,监测大楼,NA,NA,NA,6,NA,9,42,42,38,36,6,5,5,4,0.4,0.5
2026-07-22T1000,2308A,116.4738,31.7642,六安市,皖西学院,,17,10,7,3,8,54,54,46,44,5,4,6,6,0.7,0.6
2026-07-22T1000,2309A,116.4997,31.7904,六安市,朝阳厂,,15,NA,6,3,7,46,46,36,35,8,6,2,2,0.3,0.3
2026-07-22T1000,2310A,116.5566,31.7885,六安市,开发区,,16,14,8,6,8,50,50,36,35,7,6,6,5,0.4,0.3
2026-07-22T1000,2577A,104.8293,26.592,六盘水市,黄土坡,,47,47,26,17,17,89,89,67,67,21,10,8,4,0.7,0.5
2026-07-22T1000,2579A,104.8481,26.5898,六盘水市,民中,,42,42,27,24,16,82,82,60,58,24,16,5,3,0.6,0.5
2026-07-22T1000,2580A,104.9541,26.5506,六盘水市,双水,,31,31,29,18,13,96,96,59,58,9,10,5,5,0.1,0.2
2026-07-22T1000,4151A,104.8899,26.5685,六盘水市,钟山大道中段564号,,47,47,40,18,19,87,87,48,48,14,13,4,5,0.7,0.6
2026-07-22T1000,2336A,117.022,25.1031,龙岩市,龙岩市监测站,,42,42,38,18,22,61,61,35,35,2,7,5,7,0.1,0.2
2026-07-22T1000,2337A,117.0257,25.0662,龙岩市,闽西职业技术学院,NA,NA,40,41,NA,23,62,62,30,30,1,6,6,8,0.3,0.3
2026-07-22T1000,2338A,117.0195,25.0306,龙岩市,龙岩学院,,47,47,35,17,17,62,62,37,37,2,4,3,3,/,/
2026-07-22T1000,2885A,104.9344,33.3827,陇南市,滨江中学,NA,NA,20,25,6,11,NA,NA,70,69,5,8,NA,8,0.5,0.5
2026-07-22T1000,3247A,104.9551,33.3709,陇南市,市总工会,,29,28,30,16,10,92,92,78,75,8,6,7,7,0.4,0.4
2026-07-22T1000,2488A,111.9984,27.7346,娄底市,市监测站,,17,17,17,3,6,37,37,32,32,5,6,5,7,0.2,0.5
2026-07-22T1000,2491A,111.9888,27.7035,娄底市,市政府,,12,12,11,7,4,38,38,34,34,3,4,1,2,0.6,0.5
2026-07-22T1000,4127A,111.9812,27.7591,娄底市,涟钢职大,,13,NA,8,3,4,40,40,35,35,5,5,2,1,0.3,0.4
2026-07-22T1000,4128A,112.0303,27.7457,娄底市,娄底体校,,16,16,15,7,5,36,36,30,30,4,4,4,3,0.3,0.4
2026-07-22T1000,1894A,105.4427,28.9063,泸州市,小市上码头,,43,43,37,25,21,108,108,56,56,31,18,9,8,0.6,0.5
2026-07-22T1000,1895A,105.4241,28.8573,泸州市,兰田宪桥,NA,NA,NA,43,NA,19,NA,NA,25,23,19,18,8,7,0.5,0.5
2026-07-22T1000,1896A,105.4378,28.8833,泸州市,市环监站,,31,29,24,10,9,98,98,43,43,31,23,7,6,0.5,0.1
2026-07-22T1000,4325A,105.3665,28.77434,泸州市,纳溪区委政协,,43,43,38,24,24,111,111,51,51,20,19,8,6,0.4,0.4
2026-07-22T1000,2183A,111.1447,37.5212,吕梁市,环保局,,34,34,57,3,17,104,104,62,62,10,19,7,6,0.4,0.4
2026-07-22T1000,2185A,111.1285,37.5338,吕梁市,自来水公司,,32,32,48,3,17,84,84,38,38,13,18,5,4,0.5,0.5
2026-07-22T1000,2867A,111.1225,37.5093,吕梁市,马茂庄小学,NA,NA,NA,73,NA,18,90,90,46,46,16,26,7,7,0.5,0.5
2026-07-22T1000,1812A,112.3934,34.6517,洛阳市,市委党校,,35,30,36,18,22,112,112,71,71,8,10,10,9,0.5,0.5
2026-07-22T1000,1815A,112.494,34.6883,洛阳市,河南林校,,48,48,43,20,20,99,99,70,66,19,14,16,12,0.5,0.4
2026-07-22T1000,1816A,112.3843,34.623,洛阳市,开发区管委会,,36,24,31,11,22,115,115,75,75,11,12,15,13,0.5,0.6
2026-07-22T1000,1817A,112.4263,34.6249,洛阳市,市委新办公区,,34,27,28,19,21,108,108,77,77,10,9,15,12,0.4,0.3
2026-07-22T1000,3340A,112.6005,34.6323,洛阳市,伊滨,,45,45,36,12,21,114,114,77,77,8,11,9,7,0.4,0.4
2026-07-22T1000,3341A,112.495,34.6338,洛阳市,中移产业园,,35,31,36,18,22,109,109,75,75,5,5,15,8,1.0,0.9
2026-07-22T1000,3593A,112.5736,34.8993,洛阳市,吉利监测站,,35,35,36,22,19,103,103,76,73,5,6,8,7,0.4,0.3
2026-07-22T1000,3635A,112.3678,34.6623,洛阳市,河科大西苑校区,NA,NA,NA,36,NA,23,109,109,68,66,5,10,15,15,0.2,0.7
2026-07-22T1000,3636A,112.4387,34.678,洛阳市,英才小学,,35,35,40,20,22,100,100,64,64,10,11,14,12,0.7,0.8
2026-07-22T1000,4214A,112.460027,34.694929,洛阳市,春都路1号院,,40,32,31,28,24,96,96,52,52,9,9,6,2,0.5,0.4
2026-07-22T1000,2399A,114.051,33.5721,漯河市,三五一五工厂,,34,34,33,14,20,57,57,36,34,17,18,4,5,0.4,0.4
2026-07-22T1000,2400A,114.0055,33.5698,漯河市,漯河大学,,23,23,31,12,20,60,60,42,38,16,17,5,5,0.5,0.5
2026-07-22T1000,2401A,114.0134,33.5826,漯河市,市水利局,,24,24,24,10,18,60,60,40,38,14,15,6,6,0.6,0.6
2026-07-22T1000,2402A,114.0261,33.5697,漯河市,市广电局,,22,22,25,8,19,62,62,39,39,11,14,4,4,0.5,0.5
2026-07-22T1000,3478A,113.9691,33.568,漯河市,市图书馆,,30,30,30,8,18,61,61,39,37,14,16,10,6,0.7,0.7
2026-07-22T1000,4250A,114.089259,33.588274,漯河市,韶山路11号,NA,NA,NA,31,NA,19,NA,NA,31,28,16,16,8,7,0.4,0.4
2026-07-22T1000,1798A,118.5084,31.6838,马鞍山市,湖东路四小,,26,26,29,3,18,44,44,37,36,9,14,6,11,1.5,1.5
2026-07-22T1000,1799A,118.5019,31.6449,马鞍山市,开发区,,20,20,25,9,15,37,37,30,29,7,14,6,7,0.8,0.8
2026-07-22T1000,3633A,118.4914,31.681,马鞍山市,雨山,,15,NA,27,9,14,47,47,39,39,10,17,3,7,0.8,1.2
2026-07-22T1000,4191A,118.527362,31.722269,马鞍山市,慈湖高新区,,15,15,28,7,17,48,48,33,33,10,16,8,8,0.6,0.7
2026-07-22T1000,1686A,111.0285,21.469,茂名市,电白南海,,31,31,41,13,18,32,32,59,50,14,7,3,3,0.6,0.5
2026-07-22T1000,1687A,110.9294,21.6533,茂名市,茂石化七小,,22,22,33,13,18,42,42,45,45,10,11,7,9,0.2,0.2
2026-07-22T1000,1688A,110.9108,21.6688,茂名市,健康路,,24,24,26,14,17,46,46,48,48,9,10,5,6,0.6,0.6
2026-07-22T1000,1689A,110.8592,21.6826,茂名市,高岭,,36,36,38,15,18,46,46,48,48,11,10,7,9,/,/
2026-07-22T1000,3450A,111.0101,21.5165,茂名市,电白水东,,20,19,30,14,20,54,54,56,53,7,7,3,4,/,/
2026-07-22T1000,2540A,103.8414,30.0871,眉山市,气象局,,35,31,36,24,18,79,79,31,31,46,41,11,9,0.8,0.7
2026-07-22T1000,3148A,103.829,30.0563,眉山市,区人社局,颗粒物(PM10),68,75,48,36,13,56,56,47,39,68,35,37,11,1.0,0.6
2026-07-22T1000,4148A,103.8836,30.0695,眉山市,眉职院,,41,41,44,13,17,91,91,28,28,27,31,10,9,0.7,0.6
2026-07-22T1000,1690A,116.1248,24.3307,梅州市,梅江月梅,,43,43,39,18,22,59,59,23,23,7,8,/,/,/,/
2026-07-22T1000,1691A,116.0798,24.2719,梅州市,梅县新城,,43,43,36,18,20,58,58,21,21,8,11,10,10,0.5,0.5
2026-07-22T1000,3315A,116.1234,24.2994,梅州市,梅龙,,36,36,36,19,23,52,52,23,23,7,8,6,7,0.7,0.6
2026-07-22T1000,1878A,104.7775,31.4741,绵阳市,富乐山,,45,45,43,23,25,102,102,64,64,17,16,13,13,0.8,0.8
2026-07-22T1000,1880A,104.6698,31.4668,绵阳市,高新区自来水公司,,46,46,51,23,24,90,90,82,81,16,19,12,13,0.8,0.8
2026-07-22T1000,3491A,104.6899,31.5324,绵阳市,西科大附属小学,颗粒物(PM10),51,51,50,21,24,88,88,71,70,16,19,7,8,0.4,0.4
2026-07-22T1000,3492A,104.5647,31.5343,绵阳市,安州区旅游局,颗粒物(PM10),59,62,47,23,25,99,99,62,62,21,11,6,5,0.6,0.6
2026-07-22T1000,4146A,104.7092,31.4972,绵阳市,科技城新区公安局,,46,46,51,19,23,94,94,77,77,15,16,14,15,0.6,0.6
2026-07-22T1000,4226A,104.765114,31.453094,绵阳市,绵阳市气象局,,36,36,50,23,26,78,78,67,62,31,21,8,9,0.7,0.7
2026-07-22T1000,1784A,129.61,44.561,牡丹江市,环保大楼,,20,7,16,6,8,61,61,28,28,8,11,7,7,0.4,0.4
2026-07-22T1000,1787A,129.6364,44.6075,牡丹江市,机车工厂,,21,10,25,9,12,67,67,26,26,13,12,6,6,0.4,0.4
2026-07-22T1000,1788A,129.6386,44.5462,牡丹江市,第一中学,,22,15,20,3,6,68,68,28,28,8,10,12,11,0.5,0.5
2026-07-22T1000,4287A,129.5992,44.5964,牡丹江市,东晓云街98号,,30,30,24,3,7,69,69,33,33,9,10,6,7,0.4,0.4
2026-07-22T1000,2531A,105.0703,29.61,内江市,市监测站,,50,44,40,35,25,133,133,55,55,20,20,11,10,0.7,0.6
2026-07-22T1000,2533A,105.0657,29.5807,内江市,内江二中,细颗粒物(PM2.5),60,50,42,40,30,131,131,51,51,17,21,10,7,0.5,0.4
2026-07-22T1000,2534A,105.0407,29.5828,内江市,内江日报社,细颗粒物(PM2.5),56,NA,34,38,28,125,125,46,46,14,25,10,8,0.5,0.4
2026-07-22T1000,4147A,105.0433,29.6105,内江市,玉峰路西段888号,,46,46,37,32,26,127,127,53,53,18,18,11,10,0.6,0.5
2026-07-22T1000,2628A,92.0653,31.4846,那曲市,那曲监测站,颗粒物(PM10),57,59,24,24,13,87,87,95,87,15,10,7,5,0.4,0.3
2026-07-22T1000,4243A,92.0515,31.4787,那曲市,那曲市委宣传部,,31,23,12,8,7,99,99,98,93,13,8,5,4,0.3,0.2
2026-07-22T1000,1291A,115.8887,28.7006,南昌市,省林业公司,,23,NA,12,16,12,64,64,44,44,11,10,6,5,0.6,0.6
2026-07-22T1000,1292A,115.813,28.7443,南昌市,林科所,,18,12,11,12,10,56,56,25,25,10,18,15,15,0.7,0.7
2026-07-22T1000,1294A,115.8518,28.687,南昌市,建工学校,,28,NA,12,19,12,57,57,32,32,6,12,6,6,0.5,0.5
2026-07-22T1000,1295A,115.8926,28.6425,南昌市,象湖,,22,16,10,15,13,61,61,32,32,8,13,11,9,0.4,0.4
2026-07-22T1000,3046A,115.9084,28.6062,南昌市,机电学校,,33,33,21,16,11,67,67,33,33,10,12,10,7,0.6,0.7
2026-07-22T1000,3690A,115.9718,28.7032,南昌市,外国语学校,,33,33,21,14,11,59,59,36,36,7,9,14,11,0.6,0.6
2026-07-22T1000,4106A,115.7923,28.6873,南昌市,工业二路,,36,36,20,12,11,53,53,28,28,5,10,7,6,0.5,0.5
2026-07-22T1000,4192A,115.931587,28.686774,南昌市,南京东路235号,,29,29,22,16,12,64,64,48,48,10,12,7,5,0.7,0.8
2026-07-22T1000,1906A,106.0791,30.8022,南充市,南充市委,颗粒物(PM10),56,58,51,27,25,126,126,79,77,11,12,9,8,0.4,0.4
2026-07-22T1000,1907A,106.1038,30.8215,南充市,南充炼油厂,NA,NA,54,51,29,26,129,129,90,86,NA,11,9,8,NA,0.5
2026-07-22T1000,4227A,106.108336,30.788436,南充市,梨树横街98号,颗粒物(PM10),55,57,53,26,25,127,127,96,94,12,12,10,10,0.3,0.3
2026-07-22T1000,4304A,106.1172,30.843,南充市,清泉寺北路188号,,50,50,48,26,28,131,131,89,86,14,11,10,9,0.4,0.3
2026-07-22T1000,4305A,106.067,30.7616,南充市,同庆路1号,颗粒物(PM10),54,55,52,29,26,118,118,80,80,12,12,6,8,0.5,0.4
2026-07-22T1000,1151A,118.8033,32.1085,南京市,迈皋桥,NA,NA,NA,25,NA,17,NA,NA,53,46,2,5,NA,7,0.3,0.8
2026-07-22T1000,1152A,118.7487,32.057,南京市,草场门,,21,19,28,3,16,67,67,63,57,6,18,5,7,0.5,0.8
2026-07-22T1000,1154A,118.770105,32.004342,南京市,中华门,,16,14,25,3,14,51,51,48,43,9,13,6,6,0.1,0.3
2026-07-22T1000,1155A,118.8059,32.0329,南京市,瑞金路,,15,9,28,3,17,47,47,49,42,11,18,4,4,0.6,0.8
2026-07-22T1000,1156A,118.7946,32.0774,南京市,玄武湖,,23,23,35,3,15,52,52,53,47,8,14,7,10,0.2,0.7
2026-07-22T1000,1157A,118.6415,32.0964,南京市,浦口,,15,15,17,3,13,47,47,24,24,10,11,4,3,0.4,0.4
2026-07-22T1000,1158A,118.730129,32.000956,南京市,奥体中心,NA,NA,NA,27,NA,11,NA,NA,60,50,9,17,5,5,0.6,0.9
2026-07-22T1000,1159A,118.9072,32.1047,南京市,仙林大学城,,17,14,28,3,11,53,53,57,52,9,15,9,8,0.3,0.4
2026-07-22T1000,3422A,118.8443,31.919,南京市,江宁彩虹桥,,22,22,24,3,10,55,55,54,49,14,17,3,4,0.5,0.6
2026-07-22T1000,3427A,118.8497,32.3599,南京市,六合雄州,,13,13,29,3,14,32,32,31,31,19,19,3,4,0.7,0.6
2026-07-22T1000,4086A,118.7641,32.0841,南京市,新模范马路66号,,22,22,33,3,15,58,58,68,54,2,8,4,5,0.5,0.9
2026-07-22T1000,4249A,118.8707617,31.34017673,南京市,汶溪路181号,,17,17,13,6,3,42,42,30,30,3,3,4,4,0.5,0.5
2026-07-22T1000,4312A,119.019,31.6512,南京市,中山西路1号,NA,NA,17,10,3,2,54,54,42,40,8,7,4,4,NA,0.6
2026-07-22T1000,1401A,108.3098,22.788,南宁市,二十一中,,39,39,26,22,16,52,52,39,39,8,8,2,2,0.8,0.8
2026-07-22T1000,1402A,108.3135,22.8529,南宁市,北湖,,33,30,27,23,19,48,48,34,34,11,11,2,2,0.6,0.6
2026-07-22T1000,1403A,108.3205,22.8222,南宁市,市监测站,NA,NA,36,26,18,14,NA,NA,40,40,8,7,3,3,0.2,0.2
2026-07-22T1000,1404A,108.3828,22.8038,南宁市,大自然花园,,35,31,25,24,17,50,50,36,36,7,9,4,4,0.6,0.6
2026-07-22T1000,1406A,108.2397,22.8462,南宁市,区农职院,,30,25,28,21,18,56,56,40,40,5,7,3,3,0.7,0.8
2026-07-22T1000,1407A,108.3285,22.7356,南宁市,英华嘉园,,45,45,30,24,16,46,46,32,32,9,11,4,4,0.8,0.8
2026-07-22T1000,3401A,108.4829,22.762,南宁市,红星社区,,30,28,25,21,17,51,51,31,31,4,7,5,5,0.5,0.6
2026-07-22T1000,4132A,108.2927,23.1477,南宁市,起凤路9号,,29,29,28,18,19,52,52,34,34,6,8,3,2,0.6,0.6
2026-07-22T1000,4221A,108.2177,22.7774,南宁市,乐贤路16号,,30,30,32,15,17,56,56,29,29,7,15,4,4,0.5,0.5
2026-07-22T1000,2332A,118.1682,26.6371,南平市,南平市监测站,,34,34,30,21,17,71,71,19,19,5,11,5,4,0.6,0.7
2026-07-22T1000,2334A,118.1757,26.6276,南平市,南平七中,,40,40,33,20,16,64,64,14,14,5,9,4,3,0.4,0.5
2026-07-22T1000,1168A,120.9056,31.9669,南通市,狼山街道,,21,21,20,14,16,56,56,41,40,22,18,5,5,0.5,0.7
2026-07-22T1000,1170A,120.8635,32.0231,南通市,城中,,22,22,26,12,16,60,60,50,49,20,14,2,3,0.8,0.8
2026-07-22T1000,1171A,120.9376,31.9301,南通市,星湖花园,,29,29,23,18,18,61,61,45,42,21,21,4,5,0.5,0.7
2026-07-22T1000,1172A,120.8053,32.046,南通市,紫琅学院,,19,19,17,8,14,47,47,51,49,28,13,5,5,0.7,0.8
2026-07-22T1000,3291A,121.0631,32.0644,南通市,通州监测站,,24,24,26,15,19,59,59,41,40,19,12,9,7,1.0,0.8
2026-07-22T1000,3432A,120.9348,31.9874,南通市,环境教育馆,,22,22,28,10,17,51,51,36,36,24,20,6,6,0.6,0.8
2026-07-22T1000,4091A,120.8692,31.9885,南通市,洪江路,,20,NA,21,14,17,40,40,36,36,26,19,4,5,0.7,0.9
2026-07-22T1000,2404A,112.5338,33.0086,南阳市,瓦房庄,,43,43,38,20,19,107,107,72,72,13,11,6,6,0.7,0.7
2026-07-22T1000,2405A,112.5002,32.9734,南阳市,汉画馆,,45,45,40,27,20,112,112,68,68,12,14,7,6,0.6,0.5
2026-07-22T1000,2406A,112.5778,33.0144,南阳市,气象站,,40,40,36,25,20,118,118,79,79,14,14,7,6,0.5,0.5
2026-07-22T1000,2407A,112.548,32.9687,南阳市,理工学院,,43,43,38,25,22,106,106,64,64,17,16,8,8,0.6,0.5
2026-07-22T1000,4008A,112.5233,32.9921,南阳市,卧龙区政府,,47,47,38,28,21,113,113,74,74,10,10,6,6,0.7,0.6
2026-07-22T1000,1234A,121.8352,29.9111,宁波市,区环保大楼,,25,25,33,16,15,68,68,31,31,10,20,6,6,0.8,0.8
2026-07-22T1000,1235A,121.5595,29.8208,宁波市,万里学院,,28,28,25,16,12,73,73,30,30,12,16,5,4,0.6,0.6
2026-07-22T1000,1236A,121.713,29.9564,宁波市,龙赛医院,,31,31,30,14,14,79,79,33,33,10,16,10,7,0.4,0.4
2026-07-22T1000,1240A,121.5855,29.8635,宁波市,太古小学,,30,30,22,12,8,75,75,36,36,8,10,6,5,0.6,0.5
2026-07-22T1000,1241A,121.5239,29.8673,宁波市,市环境监测中心,,30,30,45,15,11,70,70,28,28,11,12,10,9,0.5,0.5
2026-07-22T1000,2871A,121.6156,29.9015,宁波市,万里国际学校,,25,17,21,11,10,78,78,35,35,9,14,8,7,0.4,0.4
2026-07-22T1000,3710A,121.5593,29.8976,宁波市,白沙活动中心,,25,NA,16,17,11,72,72,36,36,14,14,9,8,0.4,0.3
2026-07-22T1000,4095A,121.8962,29.7529,宁波市,中科路88号,,28,18,33,8,14,87,87,42,42,2,7,6,6,0.6,0.6
2026-07-22T1000,2341A,119.5387,26.6611,宁德市,宁德市监测站,颗粒物(PM10),72,80,46,23,22,76,76,57,57,15,17,4,6,1.6,1.5
2026-07-22T1000,3209A,119.5231,26.6562,宁德市,宁德一中,颗粒物(PM10),53,53,37,32,25,83,83,38,38,10,10,11,11,1.1,0.8
2026-07-22T1000,2618A,98.859,25.8541,怒江傈僳族自治州,州监测站,NA,NA,12,16,3,14,NA,NA,54,54,6,7,5,6,0.4,0.6
2026-07-22T1000,2619A,98.8607,25.8168,怒江傈僳族自治州,泸水一中,,22,NA,17,3,13,70,70,50,50,8,14,4,4,0.6,0.6
2026-07-22T1000,1888A,101.6891,26.571,攀枝花市,弄弄坪,NA,NA,NA,50,NA,20,NA,NA,107,103,12,10,7,19,0.3,0.8
2026-07-22T1000,1889A,101.577,26.5914,攀枝花市,河门口,细颗粒物(PM2.5),56,57,45,38,26,96,96,99,91,12,13,9,23,0.7,1.1
2026-07-22T1000,1891A,101.7365,26.4986,攀枝花市,仁和,,23,18,34,11,23,73,73,72,66,14,9,17,13,1.4,0.7
2026-07-22T1000,2835A,101.7222,26.567,攀枝花市,四十中小,,30,25,49,7,20,93,93,100,96,11,15,15,19,0.9,0.8
2026-07-22T1000,1604A,122.0303,41.1489,盘锦市,开发区,,40,31,22,9,13,128,128,117,113,8,8,5,4,0.4,0.5
2026-07-22T1000,1605A,122.0486,41.0883,盘锦市,兴隆台,,38,38,23,17,16,102,102,112,105,9,11,6,6,0.6,0.6
2026-07-22T1000,1606A,121.8297,41.1026,盘锦市,新生街道,NA,NA,23,18,13,14,114,114,116,110,8,9,5,5,NA,0.6
2026-07-22T1000,1832A,113.3257,33.7423,平顶山市,新华旅馆,,36,36,34,23,24,90,90,48,48,20,19,4,4,0.6,0.7
2026-07-22T1000,1833A,113.2917,33.737,平顶山市,规划设计院,,44,44,37,22,23,99,99,51,51,16,17,6,6,0.6,0.6
2026-07-22T1000,1834A,113.182,33.7738,平顶山市,平顶山工学院,NA,NA,NA,31,29,25,NA,NA,50,46,16,16,8,8,0.4,0.4
2026-07-22T1000,3594A,112.8736,33.9068,平顶山市,石龙区,NA,NA,45,50,30,27,120,120,74,74,16,18,17,11,NA,0.5
2026-07-22T1000,4116A,113.284,33.7139,平顶山市,姚电大道23号,,40,40,37,28,23,100,100,44,44,18,20,8,8,0.8,0.7
2026-07-22T1000,2656A,106.6633,35.5338,平凉市,聚贤嘉苑,NA,NA,68,38,36,17,NA,NA,44,42,20,23,10,10,0.9,0.8
2026-07-22T1000,2657A,106.7021,35.5307,平凉市,博物馆,"颗粒物(PM10),细颗粒物(PM2.5)",58,60,51,39,20,96,96,55,55,15,20,11,11,0.8,0.7
2026-07-22T1000,2348A,113.8384,27.6436,萍乡市,中医院,,35,35,18,3,6,36,36,31,29,10,8,11,8,1.2,0.7
2026-07-22T1000,2350A,113.8677,27.6438,萍乡市,市环保局,,16,NA,15,11,10,43,43,35,34,8,7,12,11,1.2,0.4
2026-07-22T1000,2351A,113.8663,27.6202,萍乡市,安源区政府,NA,NA,38,18,26,10,28,28,19,19,NA,12,NA,9,1.9,0.7
2026-07-22T1000,4107A,113.8686,27.6668,萍乡市,联洪村委会,,20,20,16,3,7,34,34,36,33,7,4,10,8,0.6,0.5
2026-07-22T1000,2319A,119.0142,25.4324,莆田市,荔城区仓后路,颗粒物(PM10),55,57,46,31,24,72,72,36,36,9,11,/,/,/,/
2026-07-22T1000,2320A,119.0016,25.4553,莆田市,莆田市监测站,颗粒物(PM10),61,65,43,27,24,78,78,38,38,9,9,4,4,0.4,0.3
2026-07-22T1000,2321A,119.112,25.4561,莆田市,涵江区六中,颗粒物(PM10),58,60,48,32,24,80,80,33,33,8,14,/,/,0.7,0.7
2026-07-22T1000,2322A,119.1014,25.3215,莆田市,秀屿区政府,颗粒物(PM10),102,124,51,34,26,77,77,48,48,7,9,6,7,0.7,0.6
2026-07-22T1000,2392A,115.0312,35.7636,濮阳市,环保局,,36,36,41,14,23,110,110,102,99,7,9,4,4,0.8,0.8
2026-07-22T1000,3021A,115,35.7667,濮阳市,濮水河管理处,,32,22,39,12,22,102,102,101,95,7,8,2,3,0.6,0.7
2026-07-22T1000,4118A,115.0552,35.7816,濮阳市,中原东路68号,颗粒物(PM10),54,55,64,18,20,102,102,98,94,8,9,4,6,0.8,0.8
2026-07-22T1000,4216A,115.0923632,35.76857718,濮阳市,任丘路479号,颗粒物(PM10),60,64,68,23,26,103,103,89,88,5,6,6,4,0.3,0.5
2026-07-22T1000,2601A,100.9801,22.7634,普洱市,市环保局,,31,31,31,9,14,41,41,30,30,4,3,6,6,0.6,0.6
2026-07-22T1000,2602A,100.9763,22.8237,普洱市,普洱第二中学,,32,32,33,12,13,37,37,30,28,9,5,8,8,0.7,0.7
2026-07-22T1000,3345A,131.0413,45.7795,七台河市,中波台,,23,21,11,13,11,72,72,25,25,15,16,6,5,0.5,0.5
2026-07-22T1000,3637A,131.0136,45.7688,七台河市,人民广场,,34,34,19,11,8,70,70,32,32,16,13,7,7,0.5,0.5
2026-07-22T1000,3684A,130.8639,45.8144,七台河市,新建矿广场,NA,NA,75,26,20,10,87,87,29,29,NA,19,7,5,NA,0.4
2026-07-22T1000,1779A,123.9307,47.3641,齐齐哈尔市,安居小区,,29,27,18,15,8,92,92,94,89,10,7,4,4,0.7,0.6
2026-07-22T1000,1780A,123.9497,47.3389,齐齐哈尔市,中心广场,,29,25,23,6,9,91,91,93,89,11,9,4,5,0.6,0.5
2026-07-22T1000,1781A,123.9483,47.3229,齐齐哈尔市,农牧车辆厂,NA,NA,NA,28,10,11,NA,NA,91,NA,NA,7,NA,6,0.2,0.2
2026-07-22T1000,1783A,123.9442,47.2994,齐齐哈尔市,市环境监测站,,29,29,20,14,8,88,88,88,83,7,6,3,3,0.7,0.6
2026-07-22T1000,3662A,123.6341,47.2079,齐齐哈尔市,富区青少年活动中心,,30,25,23,3,9,95,95,94,94,7,7,4,4,0.4,0.4
2026-07-22T1000,2591A,107.9765,26.5724,黔东南苗族侗族自治州,市环境监测站,,19,19,19,12,14,49,49,43,43,7,10,3,2,0.4,0.4
2026-07-22T1000,2881A,107.8909,26.531,黔东南苗族侗族自治州,凯里学院,,20,19,17,14,16,50,50,35,34,7,7,2,2,0.5,0.5
2026-07-22T1000,2593A,107.5223,26.2371,黔南布依族苗族自治州,小围寨,,19,19,21,11,14,44,44,32,30,6,6,4,5,0.3,0.4
2026-07-22T1000,3538A,107.5175,26.2977,黔南布依族苗族自治州,沙坝,,27,27,25,9,14,38,38,31,29,7,6,4,4,0.5,0.5
2026-07-22T1000,2589A,104.9022,25.0943,黔西南布依族苗族自治州,场坝街,NA,NA,NA,17,NA,16,NA,NA,137,NA,NA,9,NA,6,NA,0.3
2026-07-22T1000,2590A,104.8812,25.0994,黔西南布依族苗族自治州,坪东大道,,36,36,28,22,19,65,65,38,38,14,10,24,9,0.5,0.4
2026-07-22T1000,2502A,108.6238,21.9667,钦州市,市环保站,,23,19,21,16,12,39,39,30,29,13,10,5,6,0.8,0.8
2026-07-22T1000,2503A,108.655,21.9481,钦州市,沙埠小学,,26,26,42,13,13,57,57,30,30,7,11,6,7,0.6,0.6
2026-07-22T1000,2504A,108.5989,21.7435,钦州市,港区一小,,27,27,34,3,11,66,66,33,33,7,16,4,4,0.8,0.9
2026-07-22T1000,3404A,108.5959,21.9634,钦州市,北职校,,32,32,26,14,16,49,49,29,29,10,12,4,5,0.6,0.6
2026-07-22T1000,1046A,119.5247,39.9346,秦皇岛市,建设大厦,,42,42,54,19,24,102,102,108,103,11,15,5,8,0.8,0.7
2026-07-22T1000,3132A,119.5979,39.938,秦皇岛市,文明里,NA,NA,62,58,NA,27,97,97,120,109,10,8,NA,9,NA,0.5
2026-07-22T1000,4066A,119.7458,39.9952,秦皇岛市,南园路157号,细颗粒物(PM2.5),58,57,45,39,25,98,98,90,88,10,11,5,7,0.4,0.5
2026-07-22T1000,4067A,119.5131,39.8858,秦皇岛市,翠岛大街1号,颗粒物(PM10),58,60,38,3,24,100,100,98,97,10,11,4,6,0.7,0.6
2026-07-22T1000,4198A,119.509013,39.825305,秦皇岛市,北戴河轮滑馆,,36,36,51,22,22,115,115,101,101,11,14,5,8,0.7,0.6
2026-07-22T1000,1310A,120.404,36.0625,青岛市,市南区东部子站,,25,6,8,3,4,80,80,73,73,8,10,6,6,0.3,0.3
2026-07-22T1000,1311A,120.362344,36.10282,青岛市,四方区子站,,28,9,10,3,4,88,88,89,87,6,7,7,7,0.7,0.7
2026-07-22T1000,1312A,120.294373,36.054183,青岛市,市南区西部子站,,24,6,8,3,4,75,75,79,76,19,23,5,5,0.6,0.6
2026-07-22T1000,1313A,120.4581,36.0858,青岛市,崂山区子站,,30,NA,8,3,4,93,93,75,75,4,10,7,7,0.2,0.2
2026-07-22T1000,1315A,120.3945,36.3083,青岛市,城阳区子站,,26,17,24,6,11,81,81,66,65,16,16,4,4,0.4,0.4
2026-07-22T1000,3642A,120.3454,36.0735,青岛市,市北区南部,,29,6,11,3,3,92,92,87,86,11,14,6,6,0.8,0.8
2026-07-22T1000,3643A,120.3897,36.18,青岛市,李沧区北部,,27,7,12,3,7,86,86,78,78,11,14,3,4,0.6,0.6
2026-07-22T1000,4110A,120.5222,36.4089,青岛市,盟旺路653号,,29,11,15,3,6,90,90,67,67,6,9,7,7,0.7,0.7
2026-07-22T1000,4290A,120.196923,35.954556,青岛市,珠江路669号,,27,6,10,3,6,85,85,91,88,9,11,4,4,0.4,0.4
2026-07-22T1000,4291A,120.0424,35.8656,青岛市,黄岛区人民政府广场,NA,NA,NA,7,3,6,87,87,69,68,NA,13,5,5,NA,0.6
2026-07-22T1000,1703A,113.0218,23.7086,清远市,凤城街办,,37,37,31,20,16,52,52,23,23,15,22,/,/,/,/
2026-07-22T1000,3025A,113.0479,23.6343,清远市,技师学院,,34,34,32,18,18,53,53,25,25,18,27,5,5,0.5,0.5
2026-07-22T1000,3318A,112.9898,23.7403,清远市,清新太和,,48,48,33,21,18,54,54,34,34,15,17,5,7,0.5,0.5
2026-07-22T1000,3455A,113.076,23.72,清远市,清城东城,,38,38,31,23,16,48,48,22,22,17,17,/,/,/,/
2026-07-22T1000,2661A,107.6325,35.7357,庆阳市,庆阳五中,,44,44,38,24,18,96,96,112,106,7,7,7,6,0.6,0.5
2026-07-22T1000,2662A,107.6361,35.7067,庆阳市,市环保局,NA,NA,44,39,27,20,NA,NA,109,108,9,8,NA,8,0.8,0.7
2026-07-22T1000,1916A,103.7897,25.5036,曲靖市,环境监测站,NA,NA,43,44,NA,NA,85,85,67,64,15,18,4,4,0.8,0.8
2026-07-22T1000,1917A,103.8013,25.5357,曲靖市,烟厂办公区,,42,42,42,20,21,83,83,63,60,10,14,4,4,0.8,0.7
2026-07-22T1000,3376A,103.7926,25.4651,曲靖市,南苑二区,NA,NA,NA,40,NA,24,NA,NA,154,NA,NA,12,NA,4,NA,0.5
2026-07-22T1000,3377A,103.7442,25.5259,曲靖市,曲靖师范学院,,33,30,41,23,24,84,84,49,49,11,17,6,6,0.6,0.6
2026-07-22T1000,1264A,118.8694,28.94,衢州市,环保大楼,颗粒物(PM10),52,52,27,30,14,60,60,20,20,13,16,/,/,/,/
2026-07-22T1000,1266A,118.8622,28.9809,衢州市,衢州学院,NA,NA,32,21,24,12,NA,NA,12,12,13,16,4,4,0.5,0.5
2026-07-22T1000,4097A,118.9646,28.9832,衢州市,衢州三中,,45,45,27,25,15,34,34,10,10,16,17,3,3,0.7,0.7
2026-07-22T1000,1611A,118.5818,24.9116,泉州市,涂山街,颗粒物(PM10),65,70,50,20,22,65,65,39,39,18,13,9,3,0.7,0.7
2026-07-22T1000,1612A,118.597,24.8976,泉州市,津头埔,颗粒物(PM10),58,61,49,23,22,66,66,37,37,16,12,6,2,0.4,0.4
2026-07-22T1000,1613A,118.6669,24.9422,泉州市,万安,颗粒物(PM10),60,64,48,29,23,61,61,39,39,17,11,8,4,0.6,0.5
2026-07-22T1000,4105A,118.6355,24.9148,泉州市,霞新路6号,,49,49,42,23,22,69,69,40,40,13,12,/,/,0.5,0.5
2026-07-22T1000,2626A,88.8873,29.2723,日喀则市,日喀则监测站,,34,18,10,3,4,107,107,129,123,17,5,7,6,0.4,0.2
2026-07-22T1000,3726A,88.8775,29.2425,日喀则市,林业技术推广中心,,35,16,12,3,1,110,110,113,108,6,3,4,5,0.2,0.2
2026-07-22T1000,1659A,119.4711,35.421,日照市,监测站,NA,NA,6,15,3,8,NA,NA,51,51,11,29,9,9,0.4,0.5
2026-07-22T1000,1660A,119.523,35.4216,日照市,市政府广场,,27,6,12,3,5,85,85,75,75,1,10,8,9,0.3,0.5
2026-07-22T1000,1661A,119.5511,35.4113,日照市,港务局,,30,6,14,3,5,96,96,89,89,7,11,8,8,0.6,0.9
2026-07-22T1000,3507A,119.5326,35.4627,日照市,职业技术学院,,29,6,11,3,6,92,92,74,72,6,11,7,8,0.4,0.5
2026-07-22T1000,3604A,119.3267,35.1043,日照市,岚山环保分局,,28,9,29,3,9,87,87,77,77,13,15,9,13,0.5,0.9
2026-07-22T1000,1835A,111.1922,34.7752,三门峡市,市政府,NA,NA,27,40,10,21,102,102,78,78,9,12,NA,9,0.4,0.6
2026-07-22T1000,1836A,111.1588,34.794,三门峡市,开发区,,33,24,34,12,23,105,105,94,94,12,13,10,8,0.4,0.5
2026-07-22T1000,3039A,111.1911,34.7829,三门峡市,三门峡市第一小学,,33,31,43,8,22,103,103,83,83,7,11,10,8,0.5,0.6
2026-07-22T1000,3598A,111.1031,34.719,三门峡市,富达温泉假日酒店,,38,38,48,12,18,83,83,60,60,19,20,9,7,0.5,0.6
2026-07-22T1000,2324A,117.621,26.2626,三明市,三钢,,45,45,37,22,21,70,70,22,22,8,14,8,10,0.6,1.1
2026-07-22T1000,2325A,117.6352,26.2714,三明市,三明二中,NA,NA,54,40,22,24,NA,NA,NA,NA,7,13,10,8,0.6,0.9
2026-07-22T1000,2326A,117.6028,26.2377,三明市,三元区政府,,42,42,39,20,24,66,66,24,24,8,9,10,6,0.6,0.6
2026-07-22T1000,1877A,109.4962,18.2682,三亚市,河西子站,,42,42,45,21,23,82,82,41,41,8,10,4,4,0.3,0.3
2026-07-22T1000,3540A,109.7348,18.3443,三亚市,君悦子站,颗粒物(PM10),55,56,47,18,27,78,78,40,40,4,10,3,3,0.4,0.3
2026-07-22T1000,4135A,109.1714,18.3739,三亚市,城东小学站,,47,47,42,30,21,81,81,38,38,3,7,/,/,/,/
2026-07-22T1000,2624A,91.7592,29.234,山南市,山南监测站,,25,25,6,7,2,77,77,96,86,11,4,6,5,0.3,0.2
2026-07-22T1000,2625A,91.7701,29.2436,山南市,山南人民医院,,24,14,8,9,3,76,76,94,83,6,3,5,6,0.4,0.3
2026-07-22T1000,1674A,116.6795,23.3666,汕头市,金平子站,,39,39,37,18,17,66,66,42,42,8,10,3,3,0.5,0.6
2026-07-22T1000,1675A,116.7248,23.3632,汕头市,龙湖子站,,32,32,31,21,20,60,60,38,38,2,5,5,4,/,/
2026-07-22T1000,1676A,116.7257,23.2774,汕头市,濠江子站,颗粒物(PM10),56,58,45,17,20,60,60,33,33,6,10,6,6,/,/
2026-07-22T1000,1677A,116.7518,23.4712,汕头市,澄海子站,,36,36,46,21,19,62,62,36,36,9,10,3,4,0.6,0.6
2026-07-22T1000,1678A,116.6088,23.2539,汕头市,潮阳子站,NA,NA,NA,35,NA,17,NA,NA,38,38,NA,6,NA,7,NA,0.4
2026-07-22T1000,3444A,116.4539,23.2684,汕头市,潮南峡山,,30,30,42,21,22,64,64,41,41,5,5,7,7,0.6,0.6
2026-07-22T1000,3624A,116.4069,23.2533,汕头市,潮南子站,,50,50,41,23,19,64,64,43,43,2,4,6,6,/,/
2026-07-22T1000,1693A,115.3653,22.7751,汕尾市,市环保局,,42,42,34,18,17,62,62,38,38,4,5,5,5,0.5,0.5
2026-07-22T1000,1695A,115.362,22.7926,汕尾市,新城中学,,42,42,34,19,17,62,62,40,40,5,7,6,6,0.6,0.6
2026-07-22T1000,2645A,109.9155,33.8714,商洛市,监测站,,27,16,27,11,16,84,84,78,73,8,7,7,6,0.4,0.4
2026-07-22T1000,3045A,109.9647,33.8486,商洛市,商州区中学,,29,29,30,15,14,83,83,77,71,11,9,6,6,0.3,0.4
2026-07-22T1000,2408A,115.6701,34.4283,商丘市,环境监测站,,33,27,36,14,18,103,103,71,71,6,7,5,5,0.5,0.5
2026-07-22T1000,2409A,115.6458,34.4047,商丘市,粮食局,,33,28,32,14,17,104,104,88,88,5,7,4,3,0.4,0.3
2026-07-22T1000,3171A,115.6069,34.4465,商丘市,梁园区档案局,,35,NA,30,13,16,109,109,83,83,6,7,2,1,0.4,0.3
2026-07-22T1000,4119A,115.6701,34.3767,商丘市,北海东路185号,,33,28,35,11,18,103,103,65,65,6,9,5,4,0.5,0.4
2026-07-22T1000,4120A,115.6172,34.3704,商丘市,中山大街3号,,32,32,43,17,16,97,97,66,65,8,11,5,4,0.6,0.5
2026-07-22T1000,1141A,121.401,31.2382,上海市,普陀,,32,32,17,19,13,79,79,54,54,18,16,6,5,0.3,0.3
2026-07-22T1000,1142A,121.4774,31.2043,上海市,十五厂,,23,22,20,16,16,66,66,41,41,23,21,5,4,0.6,0.5
2026-07-22T1000,1143A,121.4673,31.3011,上海市,虹口,,25,23,17,17,15,66,66,50,50,16,10,4,4,0.9,0.8
2026-07-22T1000,1147A,121.4253,31.226,上海市,静安监测站,,26,26,16,15,14,82,82,54,54,17,15,7,7,1.0,0.8
2026-07-22T1000,1148A,121.7029,31.1905,上海市,浦东川沙,,42,42,22,29,16,80,80,50,50,18,17,8,8,0.8,0.7
2026-07-22T1000,1149A,121.5339,31.229,上海市,浦东新区监测站,,25,22,20,17,15,60,60,41,41,18,16,7,7,0.7,0.6
2026-07-22T1000,1150A,121.5776,31.2038,上海市,浦东张江,,26,21,19,17,15,83,83,49,49,13,14,7,6,0.5,0.4
2026-07-22T1000,3265A,121.4242,31.3303,上海市,宝山庙行,,25,21,17,17,14,72,72,52,52,13,12,12,12,0.3,0.3
2026-07-22T1000,3266A,121.8789,31.4662,上海市,崇明上实东滩,,32,23,23,22,20,62,62,41,41,17,18,6,5,0.4,0.4
2026-07-22T1000,3268A,121.316,31.2839,上海市,嘉定南翔,,25,22,17,17,13,64,64,43,43,21,18,4,4,0.3,0.3
2026-07-22T1000,3269A,121.3357,30.7455,上海市,金山新城,NA,NA,19,20,13,15,NA,NA,49,49,NA,8,NA,4,NA,0.9
2026-07-22T1000,3270A,121.4996,31.0741,上海市,闵行浦江,,21,18,20,13,14,66,66,34,34,14,16,6,6,0.6,0.5
2026-07-22T1000,3271A,121.2886,31.1663,上海市,青浦徐泾,,30,25,17,21,14,65,65,38,38,13,10,6,5,0.5,0.5
2026-07-22T1000,3272A,121.2193,31.0382,上海市,松江图书馆,,26,22,29,18,17,65,65,44,44,14,11,6,6,0.6,0.6
2026-07-22T1000,3273A,121.3904,31.206,上海市,长宁仙霞,,23,NA,14,16,13,50,50,34,34,18,14,7,7,0.4,0.3
2026-07-22T1000,3274A,121.7964,31.0507,上海市,浦东惠南,,31,31,23,21,16,70,70,46,46,22,18,8,8,0.9,0.8
2026-07-22T1000,3544A,121.4891,30.925,上海市,奉贤南桥新城,,32,22,20,22,12,85,85,44,44,14,16,3,3,0.5,0.5
2026-07-22T1000,4183A,121.417401,31.16637,上海市,冠生园路458号,,20,16,17,13,14,62,62,36,36,16,14,6,6,0.6,0.5
2026-07-22T1000,4205A,121.541914,31.268301,上海市,宁武路151号,,28,24,22,19,18,59,59,39,39,23,25,6,6,0.6,0.6
2026-07-22T1000,2382A,117.9758,28.4439,上饶市,市监测站,,37,37,29,21,12,53,53,30,30,9,6,9,10,/,/
2026-07-22T1000,2383A,117.9521,28.4637,上饶市,凤凰光学,,31,31,23,19,12,51,51,30,30,9,7,3,5,0.4,0.2
2026-07-22T1000,3685A,117.897,28.4316,上饶市,双创科技城,,33,33,31,18,12,52,52,32,32,12,12,5,6,0.7,0.5
2026-07-22T1000,4211A,118.190438,28.444845,上饶市,裕丰大道,,36,27,17,25,13,52,52,24,24,4,5,11,11,0.5,0.4
2026-07-22T1000,1669A,113.5821,24.7733,韶关市,市八中,,29,29,35,15,18,42,42,45,44,13,12,12,22,0.7,0.7
2026-07-22T1000,1671A,113.5916,24.7973,韶关市,园林处,,26,26,30,18,19,40,40,42,40,13,12,11,14,/,/
2026-07-22T1000,1673A,113.5971,24.6864,韶关市,曲江监测站,,40,40,33,15,17,33,33,38,35,16,13,7,8,0.7,0.6
2026-07-22T1000,2809A,113.6668,24.7756,韶关市,大学路288号,,47,47,38,26,17,27,27,36,30,19,8,12,12,/,/
2026-07-22T1000,3622A,113.5556,24.8082,韶关市,碧湖山庄,,27,27,32,14,17,47,47,48,46,11,10,4,6,0.6,0.6
2026-07-22T1000,2464A,111.5277,27.2442,邵阳市,市化工厂,,22,NA,13,15,11,51,51,42,41,4,5,11,9,0.3,0.4
2026-07-22T1000,2466A,111.4327,27.2276,邵阳市,市环保局,NA,NA,13,14,13,11,NA,NA,34,27,9,7,NA,3,0.5,0.4
2026-07-22T1000,4218A,111.446,27.2472,邵阳市,北塔二期4-26地块,,16,15,13,11,8,38,38,32,30,7,8,8,6,0.6,0.5
2026-07-22T1000,4219A,111.4739,27.2282,邵阳市,邵水西路287号,,16,12,13,10,12,49,49,44,42,4,4,1,2,0.4,0.4
2026-07-22T1000,1247A,120.6053,29.9927,绍兴市,城东开发委,,20,20,18,14,10,62,62,28,28,10,8,9,9,0.7,0.6
2026-07-22T1000,2921A,120.5482,30.0003,绍兴市,树下王站,NA,NA,15,15,13,12,NA,NA,21,19,12,11,NA,3,0.5,0.5
2026-07-22T1000,3408A,120.5685,29.936,绍兴市,绍兴中专,,22,22,18,12,8,59,59,23,23,8,9,5,5,0.8,0.7
2026-07-22T1000,3409A,120.4905,30.086,绍兴市,柯桥区政府,,25,22,18,17,14,66,66,28,28,13,15,6,5,0.7,0.7
2026-07-22T1000,3410A,120.8751,30.0249,绍兴市,重华小学,,22,22,21,14,13,47,47,25,25,13,11,10,10,0.9,0.9
2026-07-22T1000,3411A,120.837,30.0137,绍兴市,上虞中学,,23,23,22,13,12,39,39,20,20,21,16,10,9,0.8,0.7
2026-07-22T1000,3560A,120.4715,30.0414,绍兴市,柯桥妇保,,33,24,21,23,13,58,58,19,19,12,11,6,6,0.4,0.3
2026-07-22T1000,3658A,120.6156,30.0762,绍兴市,袍江中学,,30,30,19,18,13,64,64,32,32,12,11,6,5,0.6,0.4
2026-07-22T1000,1356A,114.0948,22.5506,深圳市,通心岭子站,,35,35,33,15,16,50,50,24,24,11,18,4,3,0.6,0.7
2026-07-22T1000,1357A,114.1153,22.5713,深圳市,洪湖,,37,37,33,17,18,49,49,16,16,9,23,6,8,0.4,0.5
2026-07-22T1000,1358A,113.9823,22.5398,深圳市,华侨城,,39,39,39,14,16,54,54,27,27,17,24,/,/,/,/
2026-07-22T1000,1359A,113.9181,22.517,深圳市,南海子站,NA,NA,NA,45,16,22,60,60,32,32,7,16,6,6,0.7,0.8
2026-07-22T1000,1360A,114.2345,22.565,深圳市,盐田,,36,36,18,19,16,38,38,10,10,19,26,7,7,0.5,0.5
2026-07-22T1000,1363A,114.4911,22.5381,深圳市,南澳,,38,38,36,14,15,47,47,35,35,6,6,/,/,/,/
2026-07-22T1000,1364A,114.41,22.6346,深圳市,葵涌,,42,42,37,21,17,65,65,18,18,6,14,7,6,0.8,0.8
2026-07-22T1000,1365A,114.2967,22.5978,深圳市,梅沙,,40,40,31,17,12,53,53,33,33,11,10,/,/,/,/
2026-07-22T1000,1366A,114.0563,22.7353,深圳市,观澜,,35,35,47,15,24,59,59,16,16,18,35,6,6,0.4,0.5
2026-07-22T1000,3305A,114.0614,22.556,深圳市,莲花,,35,35,32,21,16,35,35,15,15,12,16,/,/,/,/
2026-07-22T1000,3306A,114.0144,22.6163,深圳市,民治,,44,44,37,19,19,49,49,34,34,12,22,/,/,/,/
2026-07-22T1000,3307A,114.1756,22.6421,深圳市,横岗,,35,35,36,20,20,64,64,24,24,9,27,/,/,/,/
2026-07-22T1000,3447A,114.344,22.7115,深圳市,坪山,,29,29,33,17,17,63,63,31,31,7,15,4,5,0.7,0.8
2026-07-22T1000,3623A,113.8952,22.586,深圳市,西乡,,39,39,41,17,18,60,60,36,36,11,22,3,4,0.4,0.6
2026-07-22T1000,4220A,114.214113,22.713717,深圳市,黄阁路,,31,31,34,16,17,58,58,30,30,7,17,6,6,0.7,0.7
2026-07-22T1000,1099A,123.5058,41.7084,沈阳市,浑南东路,,38,30,31,14,21,120,120,62,62,10,16,5,9,0.7,1.1
2026-07-22T1000,1100A,123.4238,41.6992,沈阳市,新秀街,NA,NA,NA,NA,NA,NA,NA,NA,NA,NA,NA,NA,NA,NA,NA,NA
2026-07-22T1000,1102A,123.5903,41.8412,沈阳市,东陵路,,40,32,37,14,17,128,128,65,65,6,11,5,6,0.6,0.8
2026-07-22T1000,1103A,123.4267,41.8466,沈阳市,陵东街,,43,32,43,20,17,137,137,100,100,13,12,8,4,0.7,0.7
2026-07-22T1000,1104A,123.4116,41.7654,沈阳市,文化路,,41,40,40,18,17,131,131,96,96,8,11,7,5,0.6,0.7
2026-07-22T1000,1105A,123.4673,41.787,沈阳市,小河沿,,40,34,31,17,16,125,125,74,74,10,12,3,3,1.0,1.1
