timepoint,stationcode,longitude,latitude,area,positionname,primarypollutant,aqi,pm10,pm10_24h,pm2_5,pm2_5_24h,o3,o3_24h,o3_8h,o3_8h_24h,no2,no2_24h,so2,so2_24h,co,co_24h
2026-06-11T1200,2568A,102.2503,31.8896,阿坝藏族羌族自治州,马师校,,24,14,22,7,8,74,74,42,42,4,7,2,2,0.1,0.1
2026-06-11T1200,3994A,102.2174,31.9016,阿坝藏族羌族自治州,马尔康中学西区,,22,7,14,6,7,69,69,52,52,6,8,2,1,0.0,0.1
2026-06-11T1200,2695A,80.2899,41.1684,阿克苏地区,电视台,,46,42,79,32,42,110,110,107,107,6,13,2,3,0.5,0.6
2026-06-11T1200,2696A,80.2592,41.1541,阿克苏地区,艺术中心,颗粒物(PM10),77,87,87,20,35,100,100,108,108,28,21,4,4,0.6,0.7
2026-06-11T1200,2205A,105.699,38.8409,阿拉善盟,蒙二幼,,42,25,21,3,4,133,133,124,124,6,3,8,9,0.3,0.3
2026-06-11T1200,2206A,105.7198,38.8508,阿拉善盟,环保局新楼,,40,23,18,3,4,128,128,124,122,4,4,11,11,0.4,0.4
2026-06-11T1200,2708A,88.1266,47.8515,阿勒泰地区,市站,,33,27,20,3,3,103,103,82,82,8,7,7,7,0.3,0.3
2026-06-11T1200,4166A,88.1198,47.7931,阿勒泰地区,阿勒泰路33号,,30,28,21,3,4,94,94,81,78,4,4,6,6,0.3,0.2
2026-06-11T1200,2630A,80.1171,32.4999,阿里地区,阿里监测站,NA,NA,NA,11,NA,4,147,147,151,149,NA,4,6,5,0.3,0.3
2026-06-11T1200,3192A,80.0906,32.5029,阿里地区,阿里藏医院,,48,7,8,3,3,151,151,160,156,2,2,5,5,0.4,0.4
2026-06-11T1200,2644A,109.0088,32.6974,安康市,汉滨区检察院,,38,38,31,17,15,85,85,33,33,12,11,7,5,0.5,0.4
2026-06-11T1200,4054A,109.0324,32.6913,安康市,市邮政管理局,,38,38,32,16,16,93,93,41,41,10,13,3,3,0.5,0.4
2026-06-11T1200,2291A,117.0806,30.5181,安庆市,环科院,臭氧1小时(O3_1h),62,38,36,26,21,169,169,92,92,9,34,14,10,0.7,0.6
2026-06-11T1200,2292A,117.0331,30.5118,安庆市,马山宾馆,臭氧1小时(O3_1h),73,39,33,26,21,178,178,88,88,10,39,16,11,0.8,0.6
2026-06-11T1200,2294A,116.9897,30.6146,安庆市,安庆大学,,50,31,32,19,19,160,160,77,77,13,17,9,5,0.5,0.4
2026-06-11T1200,3173A,117.0598,30.5351,安庆市,市人大,臭氧1小时(O3_1h),73,32,30,25,23,178,178,97,97,12,30,10,7,0.6,0.5
2026-06-11T1200,3123A,105.9408,26.2431,安顺市,凤凰山,,34,19,16,14,14,108,108,79,79,7,9,12,14,0.4,0.4
2026-06-11T1200,3124A,105.9443,26.2567,安顺市,金钟山,,36,16,17,13,15,113,113,79,79,6,7,12,15,0.5,0.5
2026-06-11T1200,3125A,105.8983,26.248,安顺市,娄家坡,NA,NA,21,19,17,15,111,111,82,82,6,8,11,16,NA,0.3
2026-06-11T1200,1819A,114.3552,36.1017,安阳市,红庙街,臭氧1小时(O3_1h),75,59,80,23,23,180,180,103,103,5,12,6,6,0.6,0.6
2026-06-11T1200,1820A,114.361,36.0681,安阳市,银杏小区,臭氧1小时(O3_1h),83,61,83,24,28,186,186,111,111,7,14,4,5,0.2,0.3
2026-06-11T1200,3141A,114.3921,36.0879,安阳市,信访局,臭氧1小时(O3_1h),87,57,70,19,26,189,189,111,111,8,13,5,4,0.7,0.6
2026-06-11T1200,3669A,114.4706,36.0634,安阳市,左辅环卫站,臭氧1小时(O3_1h),63,62,96,25,24,170,170,104,104,9,16,3,4,0.3,0.3
2026-06-11T1200,4117A,114.2918,36.0769,安阳市,钢三路198号,细颗粒物(PM2.5),90,NA,80,55,32,172,172,100,100,6,15,7,7,0.6,0.6
2026-06-11T1200,1748A,123.0441,41.1201,鞍山市,深沟寺,,35,31,24,13,12,111,111,93,93,15,14,9,7,0.8,0.8
2026-06-11T1200,1749A,123.011,41.0931,鞍山市,太阳城,,36,32,30,13,14,113,113,90,90,15,15,11,10,0.8,0.9
2026-06-11T1200,1750A,123.0483,41.1445,鞍山市,太平,,35,35,32,15,14,104,104,88,88,14,16,8,6,0.8,0.8
2026-06-11T1200,1751A,122.964,41.0968,鞍山市,铁西三道街,,47,47,35,19,16,121,121,94,94,17,23,12,10,1.0,1
2026-06-11T1200,1753A,123.0219,41.0822,鞍山市,明达新区,,35,30,25,15,14,110,110,94,94,14,15,12,13,0.7,0.8
2026-06-11T1200,4201A,122.944647,41.082639,鞍山市,兴盛南路290号,,41,41,35,22,18,114,114,92,92,17,19,14,10,1.0,0.8
2026-06-11T1200,2195A,107.4206,40.7609,巴彦淖尔市,附二中,,34,18,28,7,8,106,106,61,60,4,14,12,14,0.4,0.4
2026-06-11T1200,2196A,107.37,40.7372,巴彦淖尔市,市环保大楼,,35,29,31,3,6,112,112,76,76,6,8,8,9,0.5,0.5
2026-06-11T1200,1956A,86.1476,41.7529,巴音郭楞蒙古自治州,孔雀公园,颗粒物(PM10),65,70,73,14,23,101,101,62,62,13,20,6,5,0.3,0.3
2026-06-11T1200,1957A,86.1971,41.7166,巴音郭楞蒙古自治州,棉纺厂,颗粒物(PM10),100,120,86,16,26,108,108,59,59,8,21,/,/,/,/
2026-06-11T1200,1958A,86.236,41.7172,巴音郭楞蒙古自治州,经济开发区,,37,37,65,3,21,102,102,78,78,2,6,3,2,0.3,0.2
2026-06-11T1200,3181A,106.776805,31.852614,巴中市,市五中,,43,36,36,30,27,71,71,42,42,14,13,8,7,0.7,0.7
2026-06-11T1200,3183A,106.7419,31.8654,巴中市,圣泉水务公司,NA,NA,42,34,32,26,72,72,44,44,NA,22,10,8,0.8,0.7
2026-06-11T1200,3616A,106.7617,31.8343,巴中市,市中心医院,,46,40,34,32,26,78,78,45,45,12,14,8,7,0.8,0.7
2026-06-11T1200,2235A,122.7909,45.608,白城市,洮北区环保局,,37,20,16,14,8,118,118,76,76,4,10,7,4,0.2,0.3
2026-06-11T1200,2236A,122.8741,45.5725,白城市,市环保局,,34,9,10,3,8,106,106,74,74,4,8,4,4,0.3,0.3
2026-06-11T1200,2231A,126.4219,41.9172,白山市,喜丰,,32,26,25,10,12,102,102,56,56,9,14,7,7,0.6,0.6
2026-06-11T1200,2232A,126.4082,41.9416,白山市,环保局,,31,27,23,12,14,99,99,50,50,6,8,13,7,0.6,0.7
2026-06-11T1200,2647A,104.1727,36.5448,白银市,第三小学,细颗粒物(PM2.5),94,NA,44,57,28,108,108,87,87,10,14,23,28,0.4,0.5
2026-06-11T1200,2648A,104.1467,36.5482,白银市,动力公司,,41,41,49,14,19,117,117,72,72,12,24,17,11,0.5,0.5
2026-06-11T1200,2512A,106.6102,23.901,百色市,市监测站,NA,NA,25,21,18,11,106,106,42,42,11,13,8,7,NA,0.7
2026-06-11T1200,2513A,106.6524,23.8842,百色市,市中心血站,,37,32,31,18,16,116,116,41,41,11,19,12,9,0.7,0.7
2026-06-11T1200,4133A,106.6273,23.8798,百色市,龙景西路,,43,43,33,18,15,122,122,42,42,11,17,10,8,0.5,0.5
2026-06-11T1200,2270A,117.396,32.9389,蚌埠市,工人疗养院,臭氧1小时(O3_1h),77,62,74,23,38,181,181,124,124,25,21,9,8,0.4,0.6
2026-06-11T1200,2271A,117.3606,32.9428,蚌埠市,百货大楼,臭氧1小时(O3_1h),88,66,69,24,34,190,190,128,127,19,18,11,10,0.5,0.6
2026-06-11T1200,2273A,117.4183,32.8909,蚌埠市,蚌埠学院,臭氧1小时(O3_1h),68,44,66,14,41,174,174,117,117,8,15,8,8,0.4,0.6
2026-06-11T1200,2274A,117.3534,32.9672,蚌埠市,淮上区政府,臭氧1小时(O3_1h),69,63,66,27,34,175,175,130,121,17,18,9,7,0.3,0.4
2026-06-11T1200,2275A,117.3143,32.8977,蚌埠市,高新区,臭氧1小时(O3_1h),79,56,86,19,45,183,183,115,115,11,23,10,11,0.4,0.5
2026-06-11T1200,3715A,117.3091,32.9314,蚌埠市,蚌埠田家炳中学,臭氧1小时(O3_1h),90,63,84,21,44,192,192,119,119,10,18,9,15,0.5,0.6
2026-06-11T1200,1585A,109.8761,40.6533,包头市,市环境监测站,,37,30,17,10,10,118,118,54,54,12,23,10,9,0.2,0.2
2026-06-11T1200,1587A,109.9992,40.5843,包头市,包头八中,NA,NA,NA,27,NA,12,106,106,55,55,13,23,11,14,0.3,0.5
2026-06-11T1200,1589A,109.8641,40.6288,包头市,惠龙物流,,36,25,18,10,9,114,114,61,61,10,19,11,10,0.3,0.3
2026-06-11T1200,1590A,110.0376,40.5546,包头市,东河鸿龙湾,,34,31,23,3,13,106,106,57,57,12,23,8,18,0.5,0.5
2026-06-11T1200,3283A,109.9154,40.5684,包头市,滨河大厦,,32,27,29,6,15,101,101,52,52,16,30,10,10,0.5,0.4
2026-06-11T1200,3419A,109.9449,40.6259,包头市,包头市委党校,,36,NA,11,13,11,114,114,62,62,11,19,11,15,0.5,0.6
2026-06-11T1200,3683A,109.8332,40.6577,包头市,昆区政府,,34,26,14,12,10,108,108,58,58,14,21,14,7,0.5,0.4
2026-06-11T1200,1931A,107.0802,34.3129,宝鸡市,竹园沟,,40,23,21,15,13,126,126,70,70,4,6,6,6,0.5,0.5
2026-06-11T1200,1933A,107.1429,34.3549,宝鸡市,监测站,,42,36,31,14,15,134,134,76,76,6,10,5,5,0.4,0.4
2026-06-11T1200,1934A,107.1172,34.3759,宝鸡市,技工学校,颗粒物(PM10),54,55,32,16,15,131,131,81,81,4,8,6,7,0.4,0.5
2026-06-11T1200,1936A,107.2025,34.3518,宝鸡市,文理学院,,43,31,32,16,16,136,136,79,79,9,13,7,7,0.5,0.5
2026-06-11T1200,1937A,107.2396,34.3626,宝鸡市,三迪小学,颗粒物(PM10),53,54,37,22,16,141,141,84,84,10,13,7,7,0.5,0.5
2026-06-11T1200,4155A,107.1721,34.3558,宝鸡市,滨河北路,,40,27,38,11,17,128,128,75,75,5,9,5,6,0.5,0.5
2026-06-11T1200,4308A,107.3898,34.3601,宝鸡市,陈仓区北开路21号,,48,48,50,23,21,131,131,67,67,17,20,14,11,0.4,0.6
2026-06-11T1200,1051A,115.4803,38.8568,保定市,游泳馆,,39,32,26,6,15,124,124,75,75,4,9,1,2,0.2,0.1
2026-06-11T1200,1052A,115.509,38.8895,保定市,华电二区,,36,20,24,3,11,115,115,60,60,7,10,1,2,0.3,0.4
2026-06-11T1200,1053A,115.4588,38.9037,保定市,接待中心,,37,29,28,3,15,118,118,71,71,6,9,2,1,0.5,0.5
2026-06-11T1200,1054A,115.4484,38.8344,保定市,地表水厂,,39,33,31,3,11,124,124,68,68,4,10,2,2,0.2,0.2
2026-06-11T1200,3581A,115.3136,38.9511,保定市,满城区生态环境分局,,39,19,19,8,9,122,122,77,77,6,9,2,2,0.0,0.1
2026-06-11T1200,3582A,115.4709,38.7628,保定市,清苑区第二中学,,42,29,33,3,13,133,133,64,64,4,15,1,2,0.2,0.3
2026-06-11T1200,3583A,115.6231,39.0223,保定市,徐水物探局,,34,17,27,3,12,108,108,56,56,9,16,2,2,0.3,0.3
2026-06-11T1200,4004A,115.4199,38.8665,保定市,双鹰农机,,38,31,26,10,13,120,120,71,71,4,8,3,2,0.1,0.1
2026-06-11T1200,4034A,115.515,38.8589,保定市,植保所站,,40,33,29,3,12,126,126,NA,NA,7,10,3,4,0.3,0.3
2026-06-11T1200,2594A,99.1589,25.1137,保山市,市环境监测站,,42,42,10,3,6,42,42,52,46,16,9,5,5,0.6,0.4
2026-06-11T1200,2595A,99.1616,25.1381,保山市,市环保局,,23,NA,9,16,15,40,40,49,44,16,6,4,4,0.6,0.5
2026-06-11T1200,1867A,109.1435,21.4085,北海市,海滩公园,NA,NA,42,32,28,21,119,119,76,76,7,10,5,3,NA,0.5
2026-06-11T1200,1868A,109.0983,21.466,北海市,新市环保局,,45,37,31,31,28,126,126,80,80,10,11,6,5,0.8,0.7
2026-06-11T1200,1869A,109.1775,21.5232,北海市,北海工业园,颗粒物(PM10),54,55,40,28,24,118,118,67,67,9,12,8,7,0.5,0.5
2026-06-11T1200,3400A,109.1844,21.4396,北海市,龙潭自来水厂,,39,39,33,25,24,115,115,63,63,8,10,5,4,0.6,0.6
2026-06-11T1200,1001A,116.3611,39.8786,北京市,万寿西宫,,34,7,12,3,6,106,106,67,67,7,14,3,3,0.2,0.2
2026-06-11T1200,1003A,116.4174,39.9289,北京市,东四,,36,7,13,3,6,113,113,60,60,7,7,2,2,0.1,0.2
2026-06-11T1200,1004A,116.4073,39.8858,北京市,天坛,,34,8,13,3,6,106,106,53,53,9,18,1,1,0.2,0.3
2026-06-11T1200,1005A,116.4622,39.9364,北京市,农展馆,,30,7,11,3,6,94,94,50,50,9,23,2,3,0.1,0.3
2026-06-11T1200,1006A,116.3399,39.9293,北京市,官园,,31,9,14,3,6,99,99,60,60,11,20,5,5,0.2,0.2
2026-06-11T1200,1007A,116.2879,39.9613,北京市,海淀万柳,,26,8,15,3,7,82,82,44,44,10,22,4,4,0.1,0.3
2026-06-11T1200,1008A,116.6635,40.1349,北京市,顺义新城,,31,6,8,3,3,97,97,55,55,3,7,3,3,0.2,0.3
2026-06-11T1200,1009A,116.6275,40.327,北京市,怀柔镇,,29,6,13,3,6,92,92,52,52,6,7,1,1,0.3,0.3
2026-06-11T1200,1010A,116.2295,40.217,北京市,昌平镇,,27,8,10,3,4,84,84,62,62,10,11,4,4,0.2,0.5
2026-06-11T1200,1011A,116.3968,39.982,北京市,奥体中心,,27,7,15,3,6,84,84,46,46,7,23,3,3,0.2,0.3
2026-06-11T1200,3418A,116.8336,40.4095,北京市,密云新城,,29,6,11,3,4,92,92,49,49,3,6,2,1,0.2,0.2
2026-06-11T1200,3671A,116.0879,39.9725,北京市,门头沟三家店,NA,NA,NA,14,NA,8,NA,NA,99,55,NA,15,NA,1,NA,0.3
2026-06-11T1200,3672A,116.1507,39.8246,北京市,丰台云岗,,34,19,17,7,9,108,108,62,62,9,13,5,4,0.3,0.3
2026-06-11T1200,3674A,115.9578,39.7602,北京市,房山燕山,,28,8,13,3,7,88,88,58,58,4,7,3,3,0.2,0.4
2026-06-11T1200,3675A,116.4669,39.7734,北京市,大兴旧宫,,32,10,17,3,8,102,102,48,48,6,21,2,2,0.2,0.4
2026-06-11T1200,3694A,115.9859,40.4562,北京市,延庆石河营,,25,14,8,6,6,77,77,35,35,12,14,3,2,0.4,0.3
2026-06-11T1200,3695A,116.6151,40.3052,北京市,怀柔新城,,28,6,13,3,10,87,87,48,48,5,6,3,1,0.3,0.3
2026-06-11T1200,3696A,116.2542,39.8764,北京市,丰台小屯,,31,9,18,3,8,97,97,55,55,6,17,3,3,0.3,0.4
2026-06-11T1200,3697A,116.8399,40.3843,北京市,密云镇,,29,7,12,3,5,91,91,45,45,4,14,4,3,0.3,0.4
2026-06-11T1200,4057A,115.9423,40.4431,北京市,延庆百泉,,24,12,11,7,7,74,74,34,34,11,12,2,1,0.3,0.2
2026-06-11T1200,4058A,116.6598,39.9164,北京市,通州新华,,31,9,12,3,4,98,98,48,48,8,22,3,3,0.3,0.4
2026-06-11T1200,4182A,116.1942,39.9158,北京市,石景山八角,,34,13,18,3,7,107,107,60,60,10,18,3,3,0.3,0.3
2026-06-11T1200,4194A,117.078628,40.151726,北京市,平谷新城,,29,6,11,3,4,92,92,48,48,3,6,3,3,0.2,0.3
2026-06-11T1200,1761A,123.8274146,41.31234549,本溪市,大峪,,36,8,17,3,9,115,115,54,54,10,17,8,7,0.5,0.6
2026-06-11T1200,1763A,123.7169,41.3094,本溪市,彩屯,,36,6,25,3,20,114,114,51,51,5,20,8,11,0.5,1.6
2026-06-11T1200,1764A,123.7672166,41.28649327,本溪市,东明,,37,27,26,3,10,117,117,59,59,13,21,10,7,0.9,0.7
2026-06-11T1200,1765A,123.799345,41.266614,本溪市,新立屯,,38,18,20,3,6,121,121,60,60,8,15,12,9,0.8,0.7
2026-06-11T1200,1766A,123.829144,41.336777,本溪市,威宁,,37,20,24,3,12,117,117,58,58,3,11,9,8,0.6,0.7
2026-06-11T1200,2587A,105.287,27.3133,毕节市,八中,NA,NA,24,26,18,13,80,80,54,54,NA,10,11,8,0.3,0.6
2026-06-11T1200,2588A,105.3079,27.2987,毕节市,师专,,29,22,22,18,12,92,92,53,53,19,10,15,7,0.3,0.3
2026-06-11T1200,4263A,105.3688,27.3598,毕节市,工业大道,,32,27,23,3,8,100,100,54,54,20,14,9,9,/,/
2026-06-11T1200,1629A,117.9961,37.3604,滨州市,第二水厂,NA,NA,NA,53,NA,39,158,158,102,102,6,20,9,12,NA,0.5
2026-06-11T1200,1630A,117.9789,37.3931,滨州市,北中新校,,49,41,45,8,25,154,154,90,90,7,22,12,12,0.7,0.7
2026-06-11T1200,3514A,117.9379,37.3959,滨州市,中海酒店,臭氧1小时(O3_1h),57,39,37,7,22,165,165,93,93,13,22,12,12,0.4,0.4
2026-06-11T1200,3515A,117.9381509,37.35547456,滨州市,开发区一中,颗粒物(PM10),53,53,50,8,24,154,154,95,95,11,25,9,8,0.2,0.4
2026-06-11T1200,3516A,118.0914,37.6938,滨州市,金海六路,NA,NA,NA,47,4,27,146,146,86,86,12,21,8,7,0.5,0.6
2026-06-11T1200,4028A,117.9955,37.3752,滨州市,滨州市西街道办事处,,49,48,43,8,26,155,155,104,104,6,18,9,8,0.5,0.7
2026-06-11T1200,2311A,115.8071,33.8399,亳州市,污水处理厂,臭氧1小时(O3_1h),60,59,40,15,17,168,168,103,103,11,15,7,6,0.3,0.3
2026-06-11T1200,2312A,115.7789,33.8519,亳州市,三国揽胜宫,颗粒物(PM10),70,77,49,17,16,168,168,106,106,9,11,7,6,0.3,0.2
2026-06-11T1200,3332A,115.7631,33.803,亳州市,亳州学院,NA,NA,64,34,25,15,170,170,106,106,NA,11,7,6,0.4,0.3
2026-06-11T1200,2693A,82.0482,44.8553,博尔塔拉蒙古自治州,市党校,,29,23,29,3,7,90,90,78,74,6,5,4,4,0.3,0.2
2026-06-11T1200,2694A,82.0805,44.8966,博尔塔拉蒙古自治州,市环保局,,44,44,33,7,4,90,90,86,69,15,12,4,7,0.4,0.3
2026-06-11T1200,1071A,116.8733,38.2922,沧州市,沧县城建局,,43,19,44,10,26,135,135,86,86,8,20,6,6,0.4,0.5
2026-06-11T1200,1072A,116.8462,38.3189,沧州市,电视转播站,,38,30,48,13,24,121,121,70,70,17,27,4,6,0.3,0.4
2026-06-11T1200,1073A,116.8588,38.3161,沧州市,市环保局,,41,40,56,12,29,129,129,74,74,8,23,4,5,0.3,0.5
2026-06-11T1200,3324A,116.8011,38.294,沧州市,河北水利电力学院,,43,17,31,15,23,137,137,78,78,9,24,4,5,0.1,0.3
2026-06-11T1200,2622A,97.1813,31.1289,昌都市,昌都监测站,,30,13,10,3,2,94,94,71,71,13,8,8,8,0.6,0.6
2026-06-11T1200,3719A,97.1707,31.1428,昌都市,昌都会议中心,,38,NA,7,3,3,119,119,80,80,5,4,7,7,0.5,0.5
2026-06-11T1200,2692A,87.2722,44.0298,昌吉回族自治州,新区政务中心,NA,NA,21,22,3,10,119,119,85,85,7,12,NA,7,0.4,0.3
2026-06-11T1200,3613A,87.3069,44.0093,昌吉回族自治州,亚心广场,,39,29,32,3,9,122,122,86,86,14,14,9,7,0.2,0.2
2026-06-11T1200,4164A,87.2057,43.9289,昌吉回族自治州,财政所,,39,29,32,9,11,122,122,88,88,10,8,8,6,0.3,0.2
2026-06-11T1200,1120A,125.2874,43.9024,长春市,客车厂,,31,8,18,3,14,97,97,58,58,5,22,5,6,0.4,0.4
2026-06-11T1200,1121A,125.2943,43.8508,长春市,邮电学院,,31,NA,13,3,13,99,99,53,53,5,15,6,6,0.3,0.4
2026-06-11T1200,1122A,125.3648,43.8745,长春市,劳动公园,,31,14,16,3,13,98,98,55,55,7,20,6,6,0.3,0.4
2026-06-11T1200,1123A,125.3233,43.8781,长春市,园林处,,31,14,15,3,14,97,97,58,58,6,16,3,3,0.3,0.4
2026-06-11T1200,1124A,125.4604,43.7904,长春市,净月潭,,27,NA,15,3,11,86,86,39,39,4,10,4,4,0.3,0.3
2026-06-11T1200,1126A,125.38,43.8422,长春市,经开区环卫处,,31,8,16,3,12,97,97,48,48,6,23,4,4,0.2,0.3
2026-06-11T1200,1127A,125.234,43.7761,长春市,高新区管委会,,30,19,16,3,13,96,96,47,47,5,23,6,6,0.3,0.4
2026-06-11T1200,1128A,125.1695,43.83,长春市,岱山公园,,30,17,20,13,13,93,93,55,55,9,31,3,3,0.2,0.2
2026-06-11T1200,4281A,125.334645,43.916281,长春市,北亚泰大街1068号,,30,14,19,3,13,94,94,54,54,8,23,4,5,0.3,0.4
2026-06-11T1200,1335A,113.082,28.2421,长沙市,经开区环保局,,50,50,35,23,20,158,158,88,88,8,14,7,6,0.5,0.5
2026-06-11T1200,1336A,112.8873,28.2202,长沙市,高开区环保局,臭氧1小时(O3_1h),75,44,35,29,22,180,180,76,76,8,19,5,4,0.7,0.6
2026-06-11T1200,1337A,113.0785,28.2012,长沙市,马坡岭,,50,40,36,18,21,160,160,81,81,7,18,10,8,0.7,0.7
2026-06-11T1200,1338A,112.9448,28.1894,长沙市,湖南师范大学,臭氧1小时(O3_1h),62,62,36,24,20,169,169,91,91,10,17,9,8,0.1,0.2
2026-06-11T1200,1339A,113.0177,28.1322,长沙市,雨花区环保局,臭氧1小时(O3_1h),57,47,38,12,12,165,165,91,91,8,16,8,6,0.7,0.6
2026-06-11T1200,1340A,112.9795,28.2593,长沙市,伍家岭,臭氧1小时(O3_1h),59,54,41,24,22,167,167,72,72,10,18,6,4,0.5,0.4
2026-06-11T1200,1341A,113.002,28.1944,长沙市,火车新站,臭氧1小时(O3_1h),54,47,36,24,19,163,163,101,101,11,15,9,8,0.3,0.3
2026-06-11T1200,1342A,112.9846,28.1177,长沙市,天心区环保局,臭氧1小时(O3_1h),58,49,37,20,20,166,166,86,86,7,19,6,5,0.1,0.1
2026-06-11T1200,1343A,112.8906,28.1307,长沙市,湖南中医药大学,臭氧1小时(O3_1h),53,50,35,22,20,162,162,75,75,10,20,8,7,0.4,0.4
2026-06-11T1200,1727A,113.1146,36.1547,长治市,清华站,臭氧1小时(O3_1h),77,49,38,24,18,181,181,139,135,11,9,13,10,0.7,0.6
2026-06-11T1200,1730A,113.0887,36.2126,长治市,审计局,臭氧1小时(O3_1h),60,52,41,27,20,168,168,96,90,8,16,12,11,0.5,0.6
2026-06-11T1200,1731A,113.0845,36.1856,长治市,长治八中,臭氧1小时(O3_1h),69,61,50,24,23,175,175,104,104,11,20,14,12,0.7,0.7
2026-06-11T1200,2845A,113.1561,36.1912,长治市,德盛苑,NA,NA,69,40,NA,19,184,184,142,142,13,13,13,11,0.6,0.4
2026-06-11T1200,3568A,113.0603,36.0464,长治市,向阳小学,臭氧1小时(O3_1h),87,79,72,26,22,189,189,124,124,6,12,19,15,1.1,0.9
2026-06-11T1200,3569A,112.8788,36.315,长治市,屯留一中,臭氧1小时(O3_1h),68,46,40,27,22,174,174,106,106,6,18,12,13,1.0,0.9
2026-06-11T1200,4189A,113.113092,36.199482,长治市,英华南巷50号,臭氧1小时(O3_1h),77,50,54,21,21,181,181,126,126,7,11,12,10,0.9,0.9
2026-06-11T1200,4190A,113.23666,36.33435,长治市,学府街1号,臭氧1小时(O3_1h),77,57,47,20,21,181,181,137,137,10,11,11,10,0.7,0.9
2026-06-11T1200,1854A,111.696,28.9725,常德市,市二中,,35,35,25,20,17,93,93,45,45,10,15,8,8,0.6,0.6
2026-06-11T1200,3138A,111.7152,29.0288,常德市,武陵区永安,,32,32,26,20,17,101,101,61,61,12,10,7,7,0.9,0.8
2026-06-11T1200,3139A,111.6891,28.9881,常德市,鼎城区玉霞,,29,27,27,19,19,92,92,46,46,11,18,9,8,0.7,0.6
2026-06-11T1200,3140A,111.6651,29.0526,常德市,武陵区长庚,,34,34,30,17,19,85,85,49,49,10,13,8,8,0.7,0.7
2026-06-11T1200,1196A,119.9524,31.7586,常州市,市监测站,臭氧1小时(O3_1h),127,64,41,28,18,254,254,144,144,23,27,8,7,0.4,0.3
2026-06-11T1200,1200A,119.9351,31.703,常州市,武进监测站,臭氧1小时(O3_1h),110,46,36,24,18,219,219,131,131,12,15,8,9,0.3,0.2
2026-06-11T1200,3002A,119.9701,31.813,常州市,行政中心,臭氧1小时(O3_1h),125,59,42,28,18,250,250,142,142,15,17,7,7,0.6,0.4
2026-06-11T1200,3003A,120.0434,31.7726,常州市,经开区,臭氧1小时(O3_1h),127,57,45,29,18,254,254,146,146,21,25,8,8,0.7,0.8
2026-06-11T1200,3010A,119.8919,31.7892,常州市,钟楼,臭氧1小时(O3_1h),121,42,40,14,15,241,241,142,142,16,22,10,11,0.6,0.5
2026-06-11T1200,3429A,119.8595,31.706,常州市,武进经发区,臭氧1小时(O3_1h),97,38,39,24,24,197,197,117,117,7,16,9,10,0.5,0.5
2026-06-11T1200,3430A,119.5812,31.7256,常州市,金坛城区,臭氧1小时(O3_1h),114,40,34,24,23,228,228,120,120,10,24,9,11,0.6,0.7
2026-06-11T1200,4089A,119.9551,31.863,常州市,崇义南街5-H号,臭氧1小时(O3_1h),123,66,47,31,17,246,246,138,138,16,23,11,11,0.6,0.5
2026-06-11T1200,2220A,120.4318,41.588,朝阳市,西梁,,30,25,26,3,11,95,95,51,51,8,18,10,12,0.5,0.8
2026-06-11T1200,2221A,120.452,41.565,朝阳市,河畔小区,,31,17,19,9,8,97,97,57,57,11,14,13,12,0.4,0.4
2026-06-11T1200,2222A,120.4176,41.5648,朝阳市,八里堡,,30,22,29,3,12,96,96,53,53,12,22,7,9,0.6,1.1
2026-06-11T1200,3026A,116.6179,23.6608,潮州市,市政府,,30,24,22,8,11,96,96,86,82,6,8,5,6,0.5,0.6
2026-06-11T1200,4036A,116.646,23.676,潮州市,金山,,26,20,18,8,11,82,82,77,72,4,7,2,3,0.4,0.4
2026-06-11T1200,2473A,113.0116,25.8228,郴州市,市职中,,38,34,32,19,20,121,121,55,55,8,15,17,11,0.7,0.7
2026-06-11T1200,2475A,113.0381,25.8074,郴州市,市审计局,,39,36,31,17,20,122,122,50,50,7,16,12,8,/,/
2026-06-11T1200,2476A,113.0348,25.7757,郴州市,市环保局,,37,36,31,23,24,117,117,43,43,8,17,14,9,0.3,0.8
2026-06-11T1200,4252A,113.0138,25.8011,郴州市,好美居路49号,,39,28,32,24,16,123,123,54,54,6,17,13,8,/,/
2026-06-11T1200,1431A,103.9727,30.7242,成都市,金泉两河,,42,6,26,3,13,133,133,88,84,9,13,3,3,0.2,0.3
2026-06-11T1200,1432A,104.1423,30.6765,成都市,十里店,,44,13,24,12,16,139,139,100,100,11,12,6,6,0.4,0.5
2026-06-11T1200,1433A,104.0594,30.5765,成都市,三瓦窑,,41,27,25,9,14,130,130,93,93,15,16,6,6,0.4,0.5
2026-06-11T1200,1434A,104.1122,30.6306,成都市,沙河铺,,40,23,26,10,15,127,127,88,88,11,15,7,6,0.4,0.5
2026-06-11T1200,2880A,104.0219,30.6561,成都市,大石西路,,38,20,27,10,13,121,121,91,88,15,15,6,5,0.3,0.4
2026-06-11T1200,3136A,104.2724,30.559,成都市,龙泉驿区区政府,,42,17,17,15,17,134,134,97,97,9,10,8,8,0.3,0.3
2026-06-11T1200,3357A,104.0028,30.6891,成都市,金博路,,41,NA,15,8,13,129,129,92,88,15,19,7,7,0.5,0.5
2026-06-11T1200,3359A,104.056,30.5228,成都市,华阳,,43,12,21,6,12,137,137,103,103,6,10,4,3,0.5,0.5
2026-06-11T1200,3488A,104.387954,30.746684,成都市,青白江技师分院,,42,NA,27,10,18,132,132,80,80,7,15,5,6,0.4,0.5
2026-06-11T1200,3489A,104.0788,30.4054,成都市,科学城,,41,NA,18,8,13,131,131,94,94,7,8,8,6,0.4,0.4
2026-06-11T1200,4011A,103.8505,30.6946,成都市,光华大道三段,,41,NA,24,10,14,131,131,97,84,12,14,4,4,0.2,0.3
2026-06-11T1200,4144A,104.3257,30.6406,成都市,八角井街185号,,41,NA,27,9,17,129,129,79,79,9,13,6,5,0.5,0.5
2026-06-11T1200,4224A,104.2433276,30.53529463,成都市,鲸龙路1057号,,45,16,25,6,14,143,143,91,91,9,15,7,8,0.4,0.5
2026-06-11T1200,1062A,117.9531,40.908,承德市,铁路,,22,6,18,3,6,69,69,28,28,11,12,19,5,0.4,0.3
2026-06-11T1200,1063A,117.9397,40.9763,承德市,中国银行,,20,6,13,3,5,62,62,31,31,8,8,10,2,0.3,0.3
2026-06-11T1200,4073A,117.9462,40.95,承德市,杏林街1号,,22,11,13,6,11,68,68,30,30,10,11,8,3,0.2,0.3
2026-06-11T1200,4274A,117.7994,40.9605,承德市,滨河大街98号,,28,19,21,3,8,89,89,32,32,10,10,22,10,1.0,0.6
2026-06-11T1200,2314A,117.4698,30.6617,池州市,池州学院,臭氧1小时(O3_1h),70,40,30,22,18,176,176,99,99,13,22,9,5,0.8,0.9
2026-06-11T1200,3237A,117.4918,30.6617,池州市,展览馆,NA,NA,43,34,18,16,176,176,97,97,11,19,7,4,NA,0.8
2026-06-11T1200,3333A,117.5626,30.695,池州市,第八中学,臭氧1小时(O3_1h),74,35,37,19,18,179,179,98,98,10,24,7,5,0.6,0.6
2026-06-11T1200,3334A,117.5037,30.6242,池州市,第十二中学,臭氧1小时(O3_1h),68,44,35,27,20,174,174,99,99,10,25,7,5,0.7,1
2026-06-11T1200,1744A,118.9229,42.2816,赤峰市,松山一中,,37,9,18,3,4,118,118,79,79,6,13,10,11,0.4,0.4
2026-06-11T1200,1745A,118.9588,42.2733,赤峰市,哈达街,,36,9,13,3,6,113,113,74,74,9,14,11,11,0.3,0.3
2026-06-11T1200,1746A,118.8792,42.2551,赤峰市,天义路,,34,6,7,3,2,106,106,73,73,8,12,5,7,0.3,0
2026-06-11T1200,3058A,119.2656,42.0356,赤峰市,银河街,,31,13,34,3,12,99,99,53,53,1,9,7,15,0.4,0.6
2026-06-11T1200,3286A,118.9359,42.3146,赤峰市,桥北物流园区,,35,6,12,3,5,110,110,72,72,7,13,3,3,0.2,0.2
2026-06-11T1200,2521A,107.3473,22.4137,崇左市,市环保局江州分局,,43,32,25,14,12,135,135,65,65,6,13,7,5,0.7,0.7
2026-06-11T1200,4256A,107.375,22.3736,崇左市,石景林东路7号,,40,19,20,12,12,126,126,67,67,6,14,3,3,0.7,0.6
2026-06-11T1200,3207A,118.31131,32.3033,滁州市,市政府原办公楼,臭氧1小时(O3_1h),109,54,53,39,40,218,218,131,131,12,16,9,8,0.5,0.5
2026-06-11T1200,3331A,118.3268,32.2633,滁州市,图书馆,臭氧1小时(O3_1h),78,66,64,20,28,182,182,110,110,9,18,10,10,0.6,0.5
2026-06-11T1200,4101A,118.3196,32.3335,滁州市,银山路666号,臭氧1小时(O3_1h),105,51,59,29,34,209,209,111,111,18,23,10,8,0.3,0.4
2026-06-11T1200,4102A,118.3426,32.2979,滁州市,黄山路555号,臭氧1小时(O3_1h),104,61,66,27,36,208,208,115,115,7,18,9,9,0.6,0.7
2026-06-11T1200,2606A,101.5379,25.0492,楚雄彝族自治州,市经济开发区,NA,NA,NA,25,NA,16,76,76,65,65,NA,12,2,5,NA,0.7
2026-06-11T1200,4153A,101.5536,25.0343,楚雄彝族自治州,团结路562号,,30,22,22,21,19,82,82,70,70,7,9,3,3,0.5,0.5
2026-06-11T1200,2549A,107.5087,31.2186,达州市,市环境监测站,NA,NA,46,36,20,18,52,52,26,26,18,23,10,7,NA,0.4
2026-06-11T1200,2550A,107.4988,31.2132,达州市,凤凰小区,,41,41,39,20,19,52,52,30,30,16,21,9,7,0.4,0.4
2026-06-11T1200,2551A,107.5081,31.1987,达州市,达县机关宾馆,,36,36,37,18,21,53,53,28,28,20,30,7,6,0.3,0.3
2026-06-11T1200,2552A,107.4644,31.2124,达州市,市政中心,,41,41,45,19,18,62,62,30,30,17,22,6,6,0.4,0.4
2026-06-11T1200,2614A,100.2168,25.5818,大理白族自治州,大理市环境监测站,,25,7,4,3,4,80,80,73,73,10,8,3,3,0.6,0.6
2026-06-11T1200,2615A,100.1542,25.7055,大理白族自治州,大理古城,,26,NA,6,9,4,81,81,72,72,7,8,8,8,0.6,0.6
2026-06-11T1200,1109A,121.6119,38.974,大连市,甘井子,,38,10,25,3,12,119,119,95,95,9,14,11,10,0.6,0.5
2026-06-11T1200,1110A,121.565,38.9509,大连市,周水子,,39,20,24,6,11,123,123,95,95,13,16,9,7,0.7,0.5
2026-06-11T1200,1111A,121.5637,38.8849,大连市,星海三站,,40,25,23,14,13,128,128,97,97,12,10,8,6,0.6,0.5
2026-06-11T1200,1112A,121.6301,38.9117,大连市,青泥洼桥,,41,10,20,3,10,131,131,104,104,9,12,8,7,0.5,0.5
2026-06-11T1200,1113A,121.6248,38.8643,大连市,傅家庄,,45,25,25,16,14,142,142,111,111,7,8,10,8,0.5,0.4
2026-06-11T1200,1114A,121.5117,38.8636,大连市,七贤岭,,39,14,22,3,10,122,122,109,109,8,8,10,8,0.8,0.7
2026-06-11T1200,1116A,121.7507,39.1339,大连市,金州,,43,22,36,8,20,135,135,108,108,18,13,20,6,1.5,0.7
2026-06-11T1200,1117A,121.7811,39.0495,大连市,开发区,,35,25,35,3,19,110,110,87,87,12,18,15,11,1.0,0.7
2026-06-11T1200,1118A,121.9762,39.0631,大连市,双D港,,38,29,28,19,15,119,119,90,90,20,19,8,7,0.8,0.7
2026-06-11T1200,4082A,121.2548,38.8188,大连市,旅顺,,40,14,29,9,21,128,128,104,104,10,9,9,8,0.6,0.6
2026-06-11T1200,1789A,124.8085,46.0381,大庆市,大同区,,41,35,24,17,12,129,129,91,91,9,16,4,4,0.4,0.4
2026-06-11T1200,1790A,125.1166,46.5255,大庆市,龙凤区,NA,NA,45,36,3,15,108,108,34,NA,9,18,5,3,NA,0.4
2026-06-11T1200,1791A,124.8894,46.4007,大庆市,红岗区,,39,32,35,10,12,122,122,79,79,6,12,6,5,0.2,0.3
2026-06-11T1200,1792A,125.1391,46.578,大庆市,萨尔图区,,38,31,28,14,14,119,119,79,79,8,16,6,5,0.4,0.4
2026-06-11T1200,1793A,124.9026,46.6217,大庆市,让胡路区,,43,31,24,14,12,135,135,78,78,10,11,4,3,0.5,0.5
2026-06-11T1200,3481A,125.127,46.6277,大庆市,萨区政府监测点,,45,24,23,16,12,142,142,85,85,5,10,10,9,0.3,0.3
2026-06-11T1200,1723A,113.2926,40.0759,大同市,云冈宾馆,,34,16,25,3,6,106,106,61,61,8,16,8,7,0.4,0.5
2026-06-11T1200,1724A,113.3437,40.0921,大同市,大同大学,,32,29,23,3,6,102,102,64,64,10,14,9,10,0.3,0.3
2026-06-11T1200,1725A,113.2637,40.129,大同市,安家小村,,33,29,27,3,6,105,105,54,54,10,18,7,5,0.3,0.3
2026-06-11T1200,3282A,113.3399,40.0586,大同市,大同市卫生学校,,35,13,17,10,9,112,112,67,67,8,13,8,8,0.3,0.4
2026-06-11T1200,3565A,113.1371,40.1122,大同市,云冈站,,44,44,24,18,6,105,105,53,53,9,21,8,8,0.4,0.5
2026-06-11T1200,3566A,113.1186,40.2556,大同市,图书馆,NA,NA,17,15,3,5,104,104,50,50,NA,8,NA,6,0.5,0.6
2026-06-11T1200,3567A,113.5931,40.0459,大同市,区一中,,37,37,12,3,5,111,111,65,65,8,9,9,8,0.3,0.4
2026-06-11T1200,4199A,113.2798248,40.09972476,大同市,魏都大道141号,,46,46,31,3,8,105,105,51,51,10,21,7,6,0.4,0.4
2026-06-11T1200,2269A,124.1068,50.4091,大兴安岭地区,科技局,NA,NA,31,23,9,12,66,66,40,40,4,3,7,6,NA,0.4
2026-06-11T1200,3663A,124.117,50.4279,大兴安岭地区,红旗社区,,23,17,15,14,12,72,72,46,46,5,8,6,6,0.3,0.3
2026-06-11T1200,1600A,124.33,40.0625,丹东市,江湾东路,,35,19,20,10,11,112,112,55,55,10,14,7,5,0.3,0.4
2026-06-11T1200,1601A,124.4242,40.1513,丹东市,临江后街,,35,20,14,11,8,112,112,52,52,8,9,5,4,0.5,0.4
2026-06-11T1200,1602A,124.3935,40.1461,丹东市,元宝山,,34,17,14,9,8,106,106,45,45,13,14,7,6,0.5,0.5
2026-06-11T1200,1603A,124.3634,40.1093,丹东市,民主桥,,32,25,23,10,10,102,102,48,48,8,14,8,7,0.5,0.5
2026-06-11T1200,3541A,109.5726195,19.51688767,儋州市,第一中学子站,,30,20,30,3,8,96,96,56,56,4,6,2,3,0.6,0.6
2026-06-11T1200,3542A,109.5567,19.5187,儋州市,东坡学校子站,,36,10,22,9,17,113,113,63,63,3,6,2,2,0.6,0.7
2026-06-11T1200,2616A,98.5611,24.4273,德宏傣族景颇族自治州,德宏州监测站,,19,6,6,3,10,58,58,38,37,6,5,4,4,0.5,0.5
2026-06-11T1200,3677A,98.5887,24.4366,德宏傣族景颇族自治州,芒市人民政府综合楼,,21,14,33,3,9,67,67,36,36,7,7,5,6,0.5,0.5
2026-06-11T1200,1901A,104.424,31.1209,德阳市,东山公园,,43,18,25,6,16,136,136,110,109,7,12,2,3,0.3,0.4
2026-06-11T1200,1902A,104.3827,31.1318,德阳市,西小区,,40,40,46,3,13,125,125,95,85,11,22,5,6,0.6,0.7
2026-06-11T1200,1904A,104.3553,31.1091,德阳市,耐火材料厂,,44,36,47,6,23,140,140,103,92,7,18,2,3,0.2,0.3
2026-06-11T1200,4145A,104.4144,31.1495,德阳市,市林业局,,46,27,37,3,18,145,145,98,95,6,23,8,9,0.5,0.7
2026-06-11T1200,1622A,116.3034,37.4675,德州市,儿童乐园,,48,48,38,11,7,152,152,98,98,9,17,8,9,0.5,0.5
2026-06-11T1200,1624A,116.2992,37.4449,德州市,监理站,,49,46,40,9,10,154,154,96,96,8,15,12,11,0.5,0.4
2026-06-11T1200,3066A,116.2722,37.438,德州市,九衢泉纯净水厂,,43,36,38,10,10,137,137,83,83,21,23,20,13,0.6,0.5
2026-06-11T1200,3371A,116.3693,37.44,德州市,开发区人民医院,,45,34,39,3,6,142,142,78,NA,8,17,8,9,0.5,0.4
2026-06-11T1200,3511A,116.5687,37.3331,德州市,陵城艺术中心,,46,24,47,3,12,147,147,104,104,12,21,1,8,0.2,0.3
2026-06-11T1200,4292A,116.352738,37.420875,德州市,新河东路,,46,31,32,10,7,146,146,94,94,18,21,11,10,0.7,0.6
2026-06-11T1200,2621A,99.7054,27.8319,迪庆藏族自治州,迪庆州站,,21,11,12,6,5,67,67,67,66,10,8,8,7,0.5,0.5
2026-06-11T1200,3180A,99.7122,27.8129,迪庆藏族自治州,质量技术监督局,,20,17,12,3,5,61,61,65,64,18,9,10,9,0.5,0.4
2026-06-11T1200,4257A,104.6092,35.5962,定西市,将台街,,39,21,35,3,13,122,122,79,79,4,10,4,3,0.2,0.2
2026-06-11T1200,4309A,104.6159,35.5701,定西市,正龙路62号,,36,31,39,12,14,113,113,83,83,6,8,4,4,0.2,0.3
2026-06-11T1200,4071A,114.9883,38.5232,定州市,交通局,颗粒物(PM10),51,51,29,3,7,159,159,91,91,7,10,2,2,0.4,0.3
2026-06-11T1200,4072A,115.0045,38.5136,定州市,第五中学,,47,40,36,7,10,148,148,88,88,4,8,4,3,0.3,0.3
2026-06-11T1200,1390A,113.7943,23.0132,东莞市,东城石井,NA,NA,45,30,26,18,126,126,55,55,14,15,3,3,NA,0.9
2026-06-11T1200,1391A,113.7384,22.9659,东莞市,南城西平,,40,40,29,24,16,115,115,51,51,12,18,3,3,0.8,0.7
2026-06-11T1200,3319A,113.7283,23.041,东莞市,万江金泰,颗粒物(PM10),51,51,29,32,19,121,121,56,56,12,13,6,6,0.8,0.7
2026-06-11T1200,4129A,113.8666,23.1062,东莞市,裕兴路,颗粒物(PM10),53,53,34,28,18,114,114,55,55,10,13,10,10,0.7,0.6
2026-06-11T1200,4130A,114.0076,22.9739,东莞市,教育路1号,,35,34,26,17,12,111,111,61,61,14,15,6,6,0.7,0.7
2026-06-11T1200,4131A,113.7981,22.8124,东莞市,长怡路1号,,41,35,32,20,16,129,129,60,60,13,17,4,4,0.6,0.6
2026-06-11T1200,1666A,118.6612,37.4313,东营市,市环保局,,49,27,35,3,19,154,154,102,102,13,19,3,7,0.4,0.5
2026-06-11T1200,3036A,118.6903,37.4337,东营市,开发区管委会,,48,28,37,3,18,153,153,103,103,16,20,8,13,0.3,0.5
2026-06-11T1200,3365A,118.5721,37.5654,东营市,垦利区民丰路,颗粒物(PM10),51,51,36,7,20,159,159,105,105,11,14,6,5,0.4,0.5
2026-06-11T1200,3498A,118.5063,37.8606,东营市,河口城区,,44,17,33,3,26,140,140,104,104,3,6,11,8,0.5,0.7
2026-06-11T1200,3646A,118.4979,37.4623,东营市,胜利站,臭氧1小时(O3_1h),62,38,57,10,21,169,169,104,104,8,14,10,10,0.5,0.7
2026-06-11T1200,3734A,118.5753,37.4405,东营市,理想之城,臭氧1小时(O3_1h),58,29,35,7,24,166,166,97,97,16,20,10,9,0.3,0.4
2026-06-11T1200,1591A,110.0024,39.8127,鄂尔多斯市,综合楼,,37,36,32,8,13,117,117,80,80,14,22,11,11,0.7,0.6
2026-06-11T1200,1592A,109.9485,39.8259,鄂尔多斯市,巴音孟克林场办事处,,39,27,33,12,9,122,122,82,82,11,18,7,8,0.6,0.6
2026-06-11T1200,1593A,109.7734,39.5987,鄂尔多斯市,康泽苑,,42,41,49,3,8,133,133,74,74,7,12,8,6,0.3,0.3
2026-06-11T1200,1594A,109.8121,39.5987,鄂尔多斯市,华泰汽车城,,36,31,26,8,7,113,113,49,49,7,21,12,11,0.5,0.5
2026-06-11T1200,1595A,109.9734,39.7884,鄂尔多斯市,奥林花园,颗粒物(PM10),74,83,42,3,11,117,117,61,61,12,31,9,8,0.4,0.4
2026-06-11T1200,2436A,114.894,30.3989,鄂州市,市政府,臭氧1小时(O3_1h),101,70,61,44,33,202,202,83,83,20,34,16,10,0.6,0.7
2026-06-11T1200,2437A,114.8986,30.3714,鄂州市,赵家坝,NA,NA,NA,55,NA,31,194,194,85,85,NA,24,14,16,NA,1
2026-06-11T1200,3654A,114.8093,30.4091,鄂州市,精准医疗中心,臭氧1小时(O3_1h),103,56,61,39,39,205,205,100,100,14,31,4,8,0.8,1.1
2026-06-11T1200,2454A,109.4978,30.2979,恩施土家族苗族自治州,湖北民院,,45,36,46,31,20,29,29,25,18,13,7,4,5,0.5,0.4
2026-06-11T1200,3549A,109.5061,30.3771,恩施土家族苗族自治州,龙凤新区,,36,30,26,25,17,29,29,9,9,14,8,6,6,0.6,0.5
2026-06-11T1200,2499A,108.3411,21.6159,防城港市,沙万,,46,46,31,23,18,126,126,70,70,14,11,8,5,1.1,0.6
2026-06-11T1200,2500A,108.3515,21.7733,防城港市,防城档案局,,40,36,44,17,19,128,128,67,67,7,11,7,6,0.6,0.5
2026-06-11T1200,2501A,108.3506,21.6414,防城港市,大海花园,颗粒物(PM10),55,57,30,24,21,150,150,82,82,14,11,11,7,1.3,0.7
2026-06-11T1200,1371A,113.1293,23.0065,佛山市,湾梁,,40,19,20,13,15,125,125,59,59,11,16,/,/,/,/
2026-06-11T1200,1372A,113.1082,23.0477,佛山市,华材职中,,38,22,19,12,14,119,119,50,50,9,16,6,6,0.4,0.4
2026-06-11T1200,1373A,113.1439,23.045,佛山市,南海气象局,,38,21,21,12,14,119,119,53,53,16,21,/,/,/,/
2026-06-11T1200,1374A,113.2879,22.8094,佛山市,顺德苏岗,,37,NA,17,18,19,116,116,53,53,7,14,/,/,0.7,0.7
2026-06-11T1200,1376A,112.8384,22.8678,佛山市,高明孔堂,,43,26,32,15,23,135,135,56,56,12,23,/,/,/,/
2026-06-11T1200,1377A,112.8835,23.1584,佛山市,三水监测站,NA,NA,24,18,16,16,119,119,63,63,NA,12,6,4,0.5,0.5
2026-06-11T1200,1378A,112.8668,23.185,佛山市,三水云东海,,40,24,23,22,16,125,125,57,57,6,12,/,/,/,/
2026-06-11T1200,3625A,113.2568,22.7629,佛山市,容桂街道办,,35,19,20,16,19,109,109,55,55,12,19,/,/,/,/
2026-06-11T1200,1282A,119.2681,26.0506,福州市,师大,,33,33,27,14,10,81,81,51,51,16,16,6,4,0.6,0.5
2026-06-11T1200,1283A,119.2983,26.1028,福州市,五四北路,,37,37,24,17,9,69,69,58,50,23,18,8,5,0.6,0.4
2026-06-11T1200,1284A,119.2648,26.0769,福州市,杨桥西路,,31,31,26,14,9,81,81,50,50,16,16,5,4,/,/
2026-06-11T1200,3048A,119.5799,26.0937,福州市,九龙,,37,37,25,22,10,89,89,56,56,12,10,11,7,0.8,0.3
2026-06-11T1200,3526A,119.5188,25.9666,福州市,吴航,,36,34,23,21,14,113,113,60,60,17,20,14,8,0.8,0.6
2026-06-11T1200,4104A,119.3106,26.0648,福州市,路通桥巷6号,,39,39,23,22,14,64,64,51,48,22,14,/,/,/,/
2026-06-11T1200,1755A,123.7974,41.8494,抚顺市,望花区,,49,49,28,19,15,103,103,58,58,19,20,15,14,0.9,0.8
2026-06-11T1200,1756A,123.9161,41.8827,抚顺市,顺城区,,36,25,19,10,10,114,114,61,61,16,23,15,11,0.8,0.6
2026-06-11T1200,1757A,124.0437,41.8615,抚顺市,东洲区,,39,39,17,10,8,124,124,76,76,14,12,14,11,1.0,0.4
2026-06-11T1200,1758A,123.9246,41.8638,抚顺市,新抚区,,44,44,23,12,11,126,126,65,65,15,20,17,12,0.7,0.4
2026-06-11T1200,1759A,124.0972,41.8961,抚顺市,大伙房水库,,40,16,19,13,8,128,128,68,68,16,15,14,10,1.1,0.1
2026-06-11T1200,1760A,123.708,41.8386,抚顺市,沈抚新城,,39,36,31,18,17,123,123,67,67,20,29,19,12,0.9,0.9
2026-06-11T1200,2377A,116.3544,27.9833,抚州市,市站,,38,NA,33,26,18,99,99,60,60,2,19,5,5,0.6,0.7
2026-06-11T1200,2378A,116.3562,27.9631,抚州市,血防站,NA,NA,NA,32,NA,15,100,100,54,54,NA,17,6,6,5.3,0.7
2026-06-11T1200,2379A,116.3561,28.0007,抚州市,采茶剧团,,42,32,33,29,19,118,118,71,71,3,19,7,8,0.6,0.6
2026-06-11T1200,2380A,116.3854,27.9648,抚州市,医学分院,,32,27,31,19,17,100,100,59,59,4,10,8,9,0.5,0.6
2026-06-11T1200,2207A,121.6095,41.9978,阜新市,工业园区,,33,10,24,3,11,103,103,52,52,9,35,7,14,0.2,0.3
2026-06-11T1200,2208A,121.6567,42.0188,阜新市,长青街,,33,12,19,3,12,104,104,58,58,7,27,7,16,0.3,0.4
2026-06-11T1200,2209A,121.6672,42.07,阜新市,农业园区,,33,10,14,3,9,104,104,56,56,9,27,5,8,0.4,0.5
2026-06-11T1200,2211A,121.6343,42.0455,阜新市,玉龙新城,,33,13,24,3,11,103,103,50,50,7,34,6,7,0.4,0.5
2026-06-11T1200,2301A,115.8276,32.8929,阜阳市,市监测站,臭氧1小时(O3_1h),63,41,42,13,16,170,170,142,142,11,13,6,6,0.4,0.4
2026-06-11T1200,2303A,115.8551,32.8606,阜阳市,开发区,臭氧1小时(O3_1h),59,49,42,10,15,167,167,122,122,8,12,5,5,0.4,0.5
2026-06-11T1200,2875A,115.783962,32.889217,阜阳市,阜阳职业技术学院,臭氧1小时(O3_1h),70,45,37,15,17,176,176,138,138,6,9,8,7,0.4,0.4
2026-06-11T1200,3468A,115.79,32.8614,阜阳市,市规划展馆,臭氧1小时(O3_1h),72,55,44,14,18,177,177,139,139,8,12,8,8,0.4,0.5
2026-06-11T1200,3469A,115.835101,32.918568,阜阳市,枣园社区,臭氧1小时(O3_1h),67,43,38,13,17,173,173,140,140,9,13,8,8,0.4,0.4
2026-06-11T1200,2669A,102.9097,34.9841,甘南藏族自治州,州政府,,34,23,28,3,13,106,106,46,46,4,13,4,3,0.3,0.4
2026-06-11T1200,3380A,102.8915,34.9618,甘南藏族自治州,甘肃民族师范学院,NA,NA,NA,24,NA,16,NA,NA,NA,NA,NA,19,NA,2,NA,0.3
2026-06-11T1200,2570A,101.96,30.048,甘孜藏族自治州,水桥子,,20,6,10,3,3,63,63,26,26,14,17,7,7,0.2,0.2
2026-06-11T1200,3065A,101.9534,29.9976,甘孜藏族自治州,州环保局,NA,NA,10,10,3,6,77,77,39,39,12,14,5,5,NA,0.4
2026-06-11T1200,2363A,114.9368,25.8663,赣州市,地委,,31,31,31,9,14,65,65,42,42,3,10,2,4,0.5,0.6
2026-06-11T1200,2364A,114.946,25.8483,赣州市,气象台,,20,16,32,8,17,62,62,33,33,7,15,4,4,0.1,0.2
2026-06-11T1200,2365A,114.932,25.8332,赣州市,市图书馆,,22,19,26,10,14,70,70,40,40,7,15,4,6,0.4,0.5
2026-06-11T1200,2366A,114.8905,25.8472,赣州市,华坚鞋城,,32,32,33,10,16,60,60,33,33,12,15,1,2,0.1,0.2
2026-06-11T1200,3109A,115.0094,25.8614,赣州市,赣县区卫计委,,30,30,28,10,10,62,62,34,34,8,10,2,3,0.4,0.4
2026-06-11T1200,2684A,106.2753,36.0057,固原市,监测站,,40,8,21,3,6,127,127,91,91,5,14,7,7,0.3,0.3
2026-06-11T1200,2685A,106.2384,36.0189,固原市,新区,,40,22,24,6,8,127,127,92,92,7,11,6,6,0.3,0.3
2026-06-11T1200,2544A,106.6307,30.4577,广安市,市委,,45,40,39,31,37,79,79,58,58,12,14,6,6,0.5,0.4
2026-06-11T1200,2545A,106.6266,30.4662,广安市,友谊中学,,41,41,43,25,29,86,86,63,63,10,13,8,8,0.5,0.5
2026-06-11T1200,2547A,106.6386,30.4551,广安市,广电花园,细颗粒物(PM2.5),52,NA,37,36,35,84,84,57,57,13,16,9,8,0.6,0.6
2026-06-11T1200,2902A,106.6347,30.4868,广安市,北辰小学,,43,42,39,30,32,81,81,61,61,11,16,7,7,0.5,0.5
2026-06-11T1200,2524A,105.8211,32.4444,广元市,老城,,35,29,41,15,24,111,111,81,81,17,11,5,5,1.0,0.7
2026-06-11T1200,2526A,105.8629,32.429,广元市,监测站,,36,34,42,14,23,115,115,70,70,11,13,8,7,0.5,0.6
2026-06-11T1200,3617A,105.8047,32.4167,广元市,经开区,NA,NA,NA,35,NA,25,114,114,72,72,10,15,5,6,0.5,0.5
2026-06-11T1200,1345A,113.2346,23.1423,广州市,广雅中学,,36,28,21,16,15,114,114,50,50,18,21,1,1,0.6,0.6
2026-06-11T1200,1346A,113.2611,23.105,广州市,市五中,,40,22,21,12,14,125,125,62,62,13,14,4,3,/,/
2026-06-11T1200,1348A,113.3477,23.0916,广州市,广东商学院,,34,16,20,11,13,107,107,57,57,8,14,4,4,0.6,0.6
2026-06-11T1200,1349A,113.4332,23.105,广州市,市八十六中,,32,21,42,9,59,102,102,52,52,9,16,6,7,/,/
2026-06-11T1200,1350A,113.3506,22.9488,广州市,番禺中学,,35,30,24,15,17,110,110,53,53,12,19,5,6,0.6,0.6
2026-06-11T1200,1351A,113.2147,23.3918,广州市,花都师范,,31,30,24,20,14,97,97,65,65,4,7,4,4,0.3,0.4
2026-06-11T1200,1352A,113.2599,23.1329,广州市,市监测站,,37,21,22,12,13,116,116,56,56,13,16,3,3,/,/
2026-06-11T1200,1353A,113.5618,23.3119,广州市,九龙镇镇龙,,23,16,16,9,10,71,71,32,32,7,14,6,6,0.6,0.6
2026-06-11T1200,1354A,113.2764,23.1544,广州市,麓湖,,33,12,18,8,12,105,105,45,45,10,24,7,7,0.7,0.7
2026-06-11T1200,2846A,113.3209,23.1323,广州市,体育西,,36,36,23,13,13,110,110,52,52,15,19,4,4,0.6,0.6
2026-06-11T1200,3298A,113.5718,23.5493,广州市,从化街口,,25,18,22,15,14,80,80,34,34,7,13,6,6,0.7,0.7
2026-06-11T1200,3299A,113.3463,23.369,广州市,白云竹料,,31,22,23,13,20,98,98,47,47,6,12,2,2,0.5,0.6
2026-06-11T1200,3300A,113.2981,23.2365,广州市,白云嘉禾,,32,20,24,10,13,100,100,42,42,10,20,9,10,/,/
2026-06-11T1200,3301A,113.4256,23.1716,广州市,黄埔科学城,,30,13,20,13,14,93,93,53,53,7,13,8,8,0.5,0.5
2026-06-11T1200,3302A,113.3942,23.0485,广州市,番禺大学城,,39,28,20,8,12,122,122,60,60,11,19,5,6,0.3,0.4
2026-06-11T1200,3303A,113.4923,22.8169,广州市,南沙黄阁,,45,31,32,25,20,141,141,55,55,9,16,11,10,/,/
2026-06-11T1200,3304A,113.534,22.7893,广州市,南沙街,,45,30,33,20,20,141,141,61,61,17,22,10,9,0.6,0.6
2026-06-11T1200,3443A,113.2905,23.5541,广州市,花都梯面,,22,16,19,9,12,68,68,53,53,6,12,10,9,/,/
2026-06-11T1200,3445A,113.786,23.7479,广州市,从化良口,,21,12,17,8,12,66,66,36,36,5,9,4,4,/,/
2026-06-11T1200,3446A,113.805,23.2614,广州市,增城荔城,,25,21,21,16,13,77,77,46,46,6,10,7,8,0.8,0.8
2026-06-11T1200,2506A,109.604387,23.066791,贵港市,江南子站,,35,31,37,18,23,111,111,60,60,5,14,8,6,0.8,0.6
2026-06-11T1200,2508A,109.5669,23.1065,贵港市,荷城子站,NA,NA,24,26,20,20,100,100,66,66,9,11,9,10,NA,0.7
2026-06-11T1200,3405A,109.5886,23.1172,贵港市,新世纪学校,,35,27,26,24,19,107,107,62,62,7,11,/,/,0.7,0.6
2026-06-11T1200,4260A,109.5933,23.095,贵港市,中山路155-3号,,41,41,32,22,19,113,113,68,68,12,12,/,/,0.6,0.5
2026-06-11T1200,1439A,106.6863,26.6035,贵阳市,马鞍山,,36,14,21,3,14,113,113,48,48,9,13,10,9,/,/
2026-06-11T1200,1441A,106.6241,26.6266,贵阳市,鉴湖路,NA,NA,NA,34,13,12,116,116,69,69,12,12,9,11,NA,0.4
2026-06-11T1200,1442A,106.7468,26.6344,贵阳市,燕子冲,,33,22,30,3,11,103,103,57,57,7,12,11,9,0.4,0.5
2026-06-11T1200,1443A,106.6556,26.4362,贵阳市,碧云窝,,39,34,37,15,13,122,122,58,58,8,11,5,6,/,/
2026-06-11T1200,1445A,106.6963,26.6063,贵阳市,红边门,,37,19,25,3,12,116,116,63,63,6,11,10,8,/,/
2026-06-11T1200,1446A,106.7162383,26.56964667,贵阳市,新华路,,40,29,34,3,13,126,126,68,68,5,9,47,30,0.5,0.3
2026-06-11T1200,1447A,106.6742,26.542,贵阳市,太慈桥,,38,27,26,11,13,121,121,52,52,9,13,6,7,/,/
2026-06-11T1200,4230A,106.688212,26.56952,贵阳市,花果园大街66号,,35,19,22,7,16,111,111,63,63,9,13,4,6,/,/
2026-06-11T1200,4231A,106.687268,26.516892,贵阳市,漓江路57号,,37,22,22,13,12,117,117,54,54,12,15,4,5,0.5,0.5
2026-06-11T1200,1864A,110.3091,25.2705,桂林市,龙隐路小学,,36,30,22,23,13,114,114,68,68,5,8,4,4,0.4,0.4
2026-06-11T1200,1865A,110.2849361,25.22909545,桂林市,八中,,37,28,23,9,11,117,117,75,75,9,12,5,6,0.5,0.5
2026-06-11T1200,3531A,110.296,25.1254,桂林市,旅游学院,NA,NA,24,33,18,17,118,118,54,54,2,11,9,8,NA,0.4
2026-06-11T1200,4222A,110.1835,25.2444,桂林市,环湖路276号,,38,24,24,22,17,120,120,59,59,8,13,5,12,0.4,0.4
2026-06-11T1200,4301A,110.2803,25.2773,桂林市,信义路13号,,35,35,24,3,15,112,112,62,62,6,10,4,5,0.5,0.5
2026-06-11T1200,2674A,100.2262,34.4854,果洛藏族自治州,玛沁县大武镇,,32,16,18,3,7,102,102,80,80,2,2,14,15,0.3,0.3
2026-06-11T1200,1130A,126.5557,45.8109,哈尔滨市,松北商大,,33,NA,20,11,17,103,103,51,51,11,28,6,5,0.4,0.4
2026-06-11T1200,1132A,126.6162,45.719,哈尔滨市,南岗学府路,,35,18,29,3,15,112,112,57,57,9,28,5,6,0.3,0.4
2026-06-11T1200,1133A,126.6894,45.7733,哈尔滨市,太平宏伟公园,,33,24,32,3,16,103,103,48,48,13,35,6,6,0.2,0.3
2026-06-11T1200,1134A,126.6361,45.7672,哈尔滨市,道外承德广场,,33,21,41,3,14,103,103,50,50,10,30,5,5,0.3,0.4
2026-06-11T1200,1136A,126.644,45.7261,哈尔滨市,动力和平路,,35,16,31,7,11,110,110,54,54,10,33,7,6,0.2,0.4
2026-06-11T1200,1137A,126.5933,45.7479,哈尔滨市,道里建国路,,36,23,25,13,15,113,113,61,61,14,28,5,4,0.5,0.6
2026-06-11T1200,1138A,126.6127,45.6119,哈尔滨市,平房东轻厂,,32,8,18,3,11,102,102,56,56,9,33,4,5,0.5,0.6
2026-06-11T1200,1139A,126.5875,45.9827,哈尔滨市,呼兰师专,,39,39,23,8,13,114,114,62,62,8,22,8,8,0.1,0.2
2026-06-11T1200,1140A,126.6299,45.6799,哈尔滨市,省农科院,,42,42,38,16,16,98,98,50,50,12,39,5,6,0.0,0.2
2026-06-11T1200,4282A,126.6769,45.7379,哈尔滨市,华山路1号,,35,14,26,3,11,111,111,57,57,11,22,8,10,0.2,0.3
2026-06-11T1200,4283A,126.9717,45.5356,哈尔滨市,解放大街52号,,31,15,36,3,4,99,99,48,48,13,33,6,7,0.5,0.6
2026-06-11T1200,2688A,93.5124,42.8176,哈密市,地区监测站,,36,20,18,12,9,113,113,97,95,6,7,7,5,0.3,0.2
2026-06-11T1200,2689A,93.5014,42.8312,哈密市,哈密师范学校,,38,28,28,19,13,121,121,89,89,8,10,6,5,0.1,0.1
2026-06-11T1200,2671A,100.9016,36.9464,海北藏族自治州,海晏县西海镇,NA,NA,31,31,23,18,130,130,91,91,2,2,8,8,NA,0.4
2026-06-11T1200,3867A,102.074,36.5056,海东市,平安区公安局北苑,,45,45,34,20,20,123,123,78,71,8,11,11,8,0.6,0.6
2026-06-11T1200,4163A,102.0984,36.5119,海东市,滨河路,,33,20,35,12,19,103,103,38,38,12,36,9,7,0.7,0.8
2026-06-11T1200,1410A,110.3189,20.0596,海口市,海南大学,,40,17,21,12,15,127,127,105,105,5,8,5,5,0.5,0.5
2026-06-11T1200,1411A,110.2827,20.0051,海口市,秀英海南医院,,41,26,22,10,19,129,129,102,102,7,10,6,6,0.5,0.5
2026-06-11T1200,1412A,110.3391,19.9979,海口市,海南师范大学,,42,30,24,13,18,132,132,103,103,7,7,4,4,0.6,0.6
2026-06-11T1200,1413A,110.3303,20.0359,海口市,龙华路环保局宿舍,,43,27,21,10,13,136,136,110,110,6,7,/,/,0.5,0.5
2026-06-11T1200,3539A,110.5111,19.9737,海口市,桂林洋子站,,39,19,26,13,18,124,124,87,87,6,7,/,/,/,/
2026-06-11T1200,4134A,110.1952,20.0451,海口市,长滨二路9号,,38,23,22,12,16,119,119,96,96,9,8,/,/,/,/
2026-06-11T1200,2673A,100.6158,36.2985,海南藏族自治州,共和县恰卜恰镇,,36,26,29,16,16,113,113,79,79,3,6,8,11,0.4,0.5
2026-06-11T1200,2676A,97.373,37.376,海西蒙古族藏族自治州,德令哈市,,36,17,21,8,12,114,114,101,101,3,3,18,15,0.4,0.4
2026-06-11T1200,1049A,114.492,36.5712,邯郸市,矿院,臭氧1小时(O3_1h),75,46,54,3,19,180,180,120,120,5,11,5,5,0.3,0.4
2026-06-11T1200,1050A,114.4839,36.6136,邯郸市,丛台公园,臭氧1小时(O3_1h),70,26,45,11,18,176,176,121,121,6,11,6,6,0.3,0.3
2026-06-11T1200,3458A,114.7893,36.5592,邯郸市,香泉濮院小区,臭氧1小时(O3_1h),55,34,73,18,21,164,164,100,100,8,18,3,2,0.3,0.3
2026-06-11T1200,3580A,114.1998,36.4439,邯郸市,峰峰矿区临水派出所,臭氧1小时(O3_1h),80,37,51,8,20,184,184,130,130,9,15,7,8,0.3,0.5
2026-06-11T1200,4068A,114.5209,36.7697,邯郸市,建安街268号,臭氧1小时(O3_1h),69,43,79,14,20,175,175,103,103,6,23,3,3,0.3,0.3
2026-06-11T1200,4069A,114.5488,36.6177,邯郸市,丛台东路558号,臭氧1小时(O3_1h),65,42,56,8,19,172,172,106,106,5,15,5,6,0.3,0.4
2026-06-11T1200,2635A,107.0155,33.0707,汉中市,市监测站,,48,42,32,33,24,92,92,56,56,10,11,6,5,0.5,0.4
2026-06-11T1200,2636A,107.0083,33.114,汉中市,鑫源开发区,颗粒物(PM10),55,56,35,30,27,96,96,46,46,15,17,8,6,0.8,0.6
2026-06-11T1200,2637A,107.0072,33.0323,汉中市,南郑大河坎水厂,,35,26,30,24,20,73,73,46,46,10,10,4,4,0.7,0.6
2026-06-11T1200,1223A,120.2073,30.2111,杭州市,滨江,臭氧1小时(O3_1h),89,42,45,26,27,191,191,88,88,20,34,10,10,0.4,0.4
2026-06-11T1200,1224A,120.0625,30.2737,杭州市,西溪,臭氧1小时(O3_1h),80,42,44,26,26,184,184,79,79,15,27,5,4,0.5,0.5
2026-06-11T1200,1226A,120.3417,30.315,杭州市,下沙,臭氧1小时(O3_1h),74,37,40,26,25,179,179,84,84,25,46,6,6,0.6,0.6
2026-06-11T1200,1227A,120.1252,30.2465,杭州市,卧龙桥,臭氧1小时(O3_1h),89,40,32,23,21,191,191,91,91,9,15,12,11,0.4,0.4
2026-06-11T1200,1228A,120.1902,30.2691,杭州市,浙江农大,臭氧1小时(O3_1h),58,NA,39,32,27,166,166,84,84,18,35,7,7,0.4,0.4
2026-06-11T1200,1230A,120.1195,30.3121,杭州市,和睦小学,臭氧1小时(O3_1h),69,32,35,22,29,175,175,81,81,11,26,8,8,0.5,0.6
2026-06-11T1200,1231A,120.3076,30.4146,杭州市,临平镇,臭氧1小时(O3_1h),88,40,49,21,26,190,190,82,82,20,37,8,8,0.4,0.4
2026-06-11T1200,1232A,120.2753,30.1839,杭州市,城厢镇,臭氧1小时(O3_1h),80,49,44,30,30,184,184,106,106,24,33,8,7,0.4,0.5
2026-06-11T1200,1233A,120.0883,30.1808,杭州市,云栖,臭氧1小时(O3_1h),78,38,37,3,18,182,182,76,76,16,30,9,9,0.7,0.7
2026-06-11T1200,3557A,119.9463,30.0496,杭州市,镇二中,臭氧1小时(O3_1h),80,33,38,23,26,184,184,84,84,16,38,6,6,0.3,0.4
2026-06-11T1200,3558A,119.7184,30.2367,杭州市,市府大楼,臭氧1小时(O3_1h),82,24,26,13,22,185,185,99,99,11,18,8,8,0.5,0.6
2026-06-11T1200,3656A,120.1554,30.2863,杭州市,消防大队,臭氧1小时(O3_1h),70,38,36,26,27,176,176,89,89,16,30,8,8,0.5,0.4
2026-06-11T1200,1270A,117.1957,31.7845,合肥市,明珠广场,臭氧1小时(O3_1h),105,36,39,14,21,210,210,129,129,12,20,9,9,0.5,0.5
2026-06-11T1200,1271A,117.307,31.8765,合肥市,三里街,臭氧1小时(O3_1h),100,46,41,16,19,200,200,134,134,22,25,10,10,0.5,0.5
2026-06-11T1200,1272A,117.2587,31.8703,合肥市,琥珀山庄,臭氧1小时(O3_1h),104,46,40,17,16,208,208,134,134,10,13,8,8,0.7,0.7
2026-06-11T1200,1275A,117.2593,31.9376,合肥市,庐阳区,臭氧1小时(O3_1h),83,36,41,12,16,186,186,136,136,12,18,8,8,0.6,0.7
2026-06-11T1200,1276A,117.345251,31.861615,合肥市,瑶海区,臭氧1小时(O3_1h),102,46,41,13,17,203,203,135,135,16,23,9,9,0.5,0.6
2026-06-11T1200,1277A,117.3033,31.7967,合肥市,包河区,臭氧1小时(O3_1h),88,41,40,13,17,190,190,121,121,13,20,8,8,0.5,0.5
2026-06-11T1200,1278A,117.278,31.7392,合肥市,滨湖新区,NA,NA,NA,36,NA,15,189,189,115,115,NA,20,11,10,NA,0.5
2026-06-11T1200,1279A,117.1324,31.8395,合肥市,高新区,臭氧1小时(O3_1h),99,39,42,14,17,199,199,141,141,12,16,7,8,0.4,0.4
2026-06-11T1200,3464A,117.3802,31.9148,合肥市,高教基地,臭氧1小时(O3_1h),97,41,39,12,17,197,197,133,133,13,16,6,6,0.5,0.6
2026-06-11T1200,4098A,117.2518,31.8404,合肥市,中国科学技术大学,臭氧1小时(O3_1h),114,41,35,14,15,227,227,154,154,14,17,10,10,0.6,0.6
2026-06-11T1200,3614A,79.9241,37.0878,和田地区,地区环保局,颗粒物(PM10),318,434,614,3,0,111,111,109,109,4,9,6,5,0.3,0.2
2026-06-11T1200,3615A,79.9132,37.1137,和田地区,市环保局,颗粒物(PM10),272,400,209,69,36,124,124,NA,NA,3,9,1,2,0.3,0.4
2026-06-11T1200,2517A,108.0496,24.6957,河池市,市环保站,,47,47,20,11,7,105,105,51,51,6,13,8,6,0.7,0.6
2026-06-11T1200,4302A,108.0901,24.6945,河池市,上任中路54号,,36,29,24,3,9,114,114,43,43,10,21,6,4,0.6,0.6
2026-06-11T1200,1697A,114.6962,23.7538,河源市,东埔,,17,10,18,9,13,54,54,40,40,8,8,4,4,0.7,0.7
2026-06-11T1200,1698A,114.6895,23.7232,河源市,老城,,20,13,16,8,13,62,62,42,42,9,10,4,5,0.8,0.7
2026-06-11T1200,3374A,115.5562,35.089,菏泽市,定陶老年大学,臭氧1小时(O3_1h),74,48,52,14,15,179,179,139,139,11,14,6,6,0.4,0.3
2026-06-11T1200,4114A,115.4239,35.2593,菏泽市,黄河路600号,臭氧1小时(O3_1h),69,54,61,20,25,175,175,129,129,9,11,6,7,0.4,0.3
2026-06-11T1200,4115A,115.5025,35.2727,菏泽市,菏泽市人社局,臭氧1小时(O3_1h),52,35,47,16,16,161,161,125,125,10,16,8,8,0.2,0.2
2026-06-11T1200,4184A,115.479691,35.244011,菏泽市,永昌路1号,臭氧1小时(O3_1h),79,42,59,13,17,183,183,142,142,7,13,7,7,0.3,0.3
2026-06-11T1200,4193A,115.471542,35.280012,菏泽市,长城路999号,臭氧1小时(O3_1h),68,45,58,14,21,174,174,135,135,8,13,8,8,0.3,0.3
2026-06-11T1200,2514A,111.5264,24.4178,贺州市,环保小区,NA,NA,38,36,22,22,113,113,53,53,7,12,9,8,NA,0.4
2026-06-11T1200,2515A,111.561,24.4074,贺州市,政协大楼,,42,32,30,20,21,134,134,60,60,10,17,13,14,0.6,0.6
2026-06-11T1200,3534A,111.4744,24.455,贺州市,西湾,,38,28,38,23,21,119,119,51,51,9,15,12,10,0.5,0.5
2026-06-11T1200,2385A,114.17,35.9019,鹤壁市,市监测站,臭氧1小时(O3_1h),80,64,86,23,33,184,184,110,110,9,15,7,8,0.6,0.7
2026-06-11T1200,2386A,114.2953,35.7512,鹤壁市,市交警支队,臭氧1小时(O3_1h),69,74,79,27,29,175,175,108,108,9,15,7,8,0.4,0.5
2026-06-11T1200,2387A,114.2877,35.7302,鹤壁市,迎宾馆,颗粒物(PM10),72,80,82,23,27,176,176,110,110,8,16,6,9,0.6,0.4
2026-06-11T1200,3474A,114.2616,35.6824,鹤壁市,大新区,臭氧1小时(O3_1h),80,75,71,27,28,184,184,119,119,11,16,6,8,0.4,0.4
2026-06-11T1200,3596A,114.1573,35.9607,鹤壁市,南山宾馆,臭氧1小时(O3_1h),72,57,86,40,38,177,177,108,108,9,17,10,12,0.6,0.7
2026-06-11T1200,2244A,130.2537,47.3416,鹤岗市,哈啤分公司,NA,NA,22,15,8,11,84,84,64,64,NA,6,7,6,0,0
2026-06-11T1200,2245A,130.2683,47.3087,鹤岗市,斯达机电,,26,19,22,12,10,82,82,65,65,6,6,6,5,0.2,0.3
2026-06-11T1200,2246A,130.3114,47.3388,鹤岗市,东山纸板厂,,23,14,23,10,16,73,73,44,44,8,14,6,8,0.1,0.6
2026-06-11T1200,2263A,127.4832,50.2524,黑河市,交通局,,22,17,24,13,11,70,70,49,49,9,12,4,6,0.3,0.3
2026-06-11T1200,2264A,127.5146,50.2339,黑河市,环保局,,26,NA,23,18,11,79,79,56,56,6,11,7,7,0.2,0.2
2026-06-11T1200,1074A,115.6839,37.754,衡水市,电机北厂,,45,22,35,3,13,141,141,92,92,6,11,5,3,0.2,0.3
2026-06-11T1200,1075A,115.6303,37.7318,衡水市,市监测站,,42,23,32,3,8,134,134,87,87,7,11,7,8,0.4,0.4
2026-06-11T1200,3188A,115.6684,37.7216,衡水市,市城管局,,43,23,33,8,13,136,136,86,86,6,10,2,5,0.1,0.2
2026-06-11T1200,3459A,115.599,37.5491,衡水市,地表水厂,,48,26,41,10,11,151,151,94,94,4,10,7,7,0.2,0.3
2026-06-11T1200,2457A,112.6209,26.9268,衡阳市,衡阳化工总厂,,41,33,34,16,21,131,131,70,70,6,14,11,8,0.8,0.8
2026-06-11T1200,2458A,112.621,26.8957,衡阳市,珠晖区环保局,,42,40,36,21,21,134,134,63,63,12,26,14,11,0.9,0.8
2026-06-11T1200,2459A,112.628,26.8654,衡阳市,市委党校,,48,46,35,33,25,124,124,59,59,8,15,15,12,0.8,0.8
2026-06-11T1200,2460A,112.6007,26.8977,衡阳市,市监测站,NA,NA,NA,36,NA,24,143,143,76,76,9,16,12,10,0.8,0.9
2026-06-11T1200,2461A,112.5658,26.9013,衡阳市,真空机电公司,,47,37,33,28,23,148,148,85,85,10,15,10,8,0.8,0.7
2026-06-11T1200,3399A,112.6703,26.8817,衡阳市,师范学院,颗粒物(PM10),56,58,38,18,22,121,121,62,62,8,15,13,11,0.6,0.6
2026-06-11T1200,3038A,103.3757,23.3679,红河哈尼族彝族自治州,州图书馆,,24,18,31,14,21,74,74,66,63,5,8,4,7,0.3,0.4
2026-06-11T1200,4154A,103.401,23.3561,红河哈尼族彝族自治州,蒙自市朝阳路,,32,NA,21,22,22,69,69,58,56,4,8,5,7,0.3,0.4
2026-06-11T1200,1090A,111.6506,40.7517,呼和浩特市,呼市一监,,38,17,8,3,6,119,119,80,80,7,8,10,7,0.3,0.3
2026-06-11T1200,1094A,111.7516,40.8369,呼和浩特市,如意水处理厂,,37,15,11,3,6,118,118,76,76,5,13,9,8,0.5,0.5
2026-06-11T1200,1095A,111.727798,40.806187,呼和浩特市,二十九中,,34,NA,12,7,7,108,108,71,71,7,13,10,8,0.4,0.4
2026-06-11T1200,1097A,111.717,40.7617,呼和浩特市,化肥厂生活区,,37,21,13,10,7,117,117,80,80,7,11,12,8,0.4,0.4
2026-06-11T1200,3699A,111.6519,40.8389,呼和浩特市,海东办,NA,NA,12,9,NA,3,109,109,70,70,8,17,9,5,0.4,0.4
2026-06-11T1200,4275A,111.591512,40.827312,呼和浩特市,成吉思汗西街8号,,33,27,10,3,3,105,105,68,68,11,18,11,5,0.3,0.2
2026-06-11T1200,4276A,111.6597,40.8077,呼和浩特市,公园东路75号,,38,19,10,3,4,121,121,85,85,9,14,12,8,0.5,0.4
2026-06-11T1200,4277A,111.5427,40.7846,呼和浩特市,金海路35号,,33,17,14,6,6,104,104,63,63,10,17,12,5,0.3,0.3
2026-06-11T1200,3061A,119.7511,49.1576,呼伦贝尔市,国华电力东,,29,20,22,14,11,92,92,61,61,6,7,5,5,0.3,0.3
2026-06-11T1200,4279A,119.7569,49.2222,呼伦贝尔市,伊敏大街东7号,,27,20,24,11,11,86,86,56,56,6,9,5,6,0.4,0.4
2026-06-11T1200,1250A,120.075,30.867,湖州市,城西水厂,臭氧1小时(O3_1h),105,33,38,22,25,210,210,82,82,22,27,7,7,0.6,0.6
2026-06-11T1200,2873A,120.083,30.8929,湖州市,仁皇山新区,臭氧1小时(O3_1h),98,32,38,23,27,198,198,87,87,17,32,7,7,0.4,0.4
2026-06-11T1200,2907A,120.1846,30.8592,湖州市,吴兴区站,NA,NA,28,42,19,33,192,192,93,93,10,21,8,8,NA,0.8
2026-06-11T1200,3562A,120.4146,30.8538,湖州市,南浔区站,臭氧1小时(O3_1h),105,33,32,28,27,210,210,116,116,16,19,9,8,0.5,0.5
2026-06-11T1200,1607A,120.904878,40.721091,葫芦岛市,龙港区,,36,24,22,3,10,114,114,55,55,8,22,13,12,0.4,0.4
2026-06-11T1200,1608A,120.8382,40.7521,葫芦岛市,化工街,,35,22,29,8,13,109,109,50,50,20,41,11,14,0.3,0.4
2026-06-11T1200,1609A,120.8339,40.7078,葫芦岛市,新区,,30,25,23,12,11,96,96,58,58,14,34,7,6,0.4,0.5
2026-06-11T1200,1610A,120.8697,40.7679,葫芦岛市,东城区,,41,41,33,8,18,121,121,56,56,18,36,9,23,0.4,0.4
2026-06-11T1200,2483A,109.9297,27.5383,怀化市,河西地税局,,25,18,22,13,13,78,78,35,35,6,11,2,2,/,/
2026-06-11T1200,2484A,109.9783,27.5342,怀化市,市四医院,,43,43,28,11,18,103,103,46,46,10,12,7,6,0.5,0.5
2026-06-11T1200,2485A,109.9971,27.5579,怀化市,监测楼,,40,40,23,28,15,125,125,59,59,10,10,9,7,0.6,0.4
2026-06-11T1200,1210A,119.0566,33.5991,淮安市,钵池山,,43,36,49,8,18,135,135,96,96,10,16,6,7,0.5,0.6
2026-06-11T1200,1211A,119.0083,33.578,淮安市,北京南路,,49,39,55,9,18,156,156,112,112,6,13,7,8,0.6,0.6
2026-06-11T1200,1212A,118.9938,33.6083,淮安市,市监测站,,50,19,46,8,16,157,157,NA,NA,10,16,6,8,0.5,0.6
2026-06-11T1200,1213A,119.135,33.5038,淮安市,楚州区监测站,,49,39,57,15,23,154,154,113,113,6,15,6,7,0.5,0.5
2026-06-11T1200,3426A,118.8757,33.2897,淮安市,新华书店,颗粒物(PM10),54,55,56,15,21,151,151,101,101,10,18,8,10,0.6,0.6
2026-06-11T1200,4092A,119.119691,33.550006,淮安市,枚皋中路89号,,48,46,47,8,20,152,152,110,110,9,15,8,9,0.7,0.7
2026-06-11T1200,4206A,119.028838,33.631911,淮安市,承德北路606号,,44,36,55,8,17,140,140,101,101,5,12,6,8,0.5,0.5
2026-06-11T1200,2282A,116.8005,33.9749,淮北市,监测站,NA,NA,NA,56,NA,20,164,164,123,123,7,13,7,7,0.7,0.8
2026-06-11T1200,2283A,116.8094,33.9008,淮北市,烈山区政府,颗粒物(PM10),67,73,74,11,16,172,172,127,127,8,14,4,7,0.3,0.4
2026-06-11T1200,4017A,116.7926,33.9534,淮北市,市博物馆,臭氧1小时(O3_1h),73,58,59,18,20,178,178,134,134,5,9,4,6,0.1,0.1
2026-06-11T1200,4100A,116.8322,33.9884,淮北市,杜集区第一实验学校,臭氧1小时(O3_1h),64,61,68,7,15,171,171,129,129,6,12,4,6,0.4,0.5
2026-06-11T1200,2277A,116.8304,32.7726,淮南市,潘集区政府,臭氧1小时(O3_1h),104,57,55,25,24,208,208,162,162,13,20,10,9,0.4,0.4
2026-06-11T1200,2279A,116.8569,32.5949,淮南市,谢家集区政府,臭氧1小时(O3_1h),103,44,41,20,24,205,205,143,143,15,19,8,8,0.4,0.4
2026-06-11T1200,2280A,116.8279,32.6333,淮南市,八公山区政府,臭氧1小时(O3_1h),102,57,52,21,23,203,203,152,152,10,12,9,8,0.3,0.3
2026-06-11T1200,2894A,117.0561,32.6536,淮南市,经济技术开发区消防队,臭氧1小时(O3_1h),110,55,46,30,23,219,219,158,158,14,15,10,9,0.6,0.4
2026-06-11T1200,3329A,117.011,32.5891,淮南市,山南新区,臭氧1小时(O3_1h),108,63,51,26,26,215,215,156,156,13,14,13,11,0.6,0.4
2026-06-11T1200,4209A,117.003137,32.644456,淮南市,国庆中路369号,臭氧1小时(O3_1h),105,53,41,28,22,209,209,146,146,20,18,8,7,0.5,0.4
2026-06-11T1200,2446A,114.9021,30.474,黄冈市,职工中心,臭氧1小时(O3_1h),116,52,37,52,28,232,232,115,115,7,8,12,10,0.7,0.7
2026-06-11T1200,2929A,114.8858,30.4519,黄冈市,红卫路,臭氧1小时(O3_1h),107,46,40,42,33,214,214,112,112,6,9,12,8,0.7,0.8
2026-06-11T1200,3398A,114.9134,30.4446,黄冈市,市林业局,臭氧1小时(O3_1h),105,59,48,46,36,209,209,109,109,13,16,14,8,0.5,0.5
2026-06-11T1200,2672A,102.02,35.5101,黄南藏族自治州,同仁县隆务镇,,36,23,29,9,12,114,114,84,84,2,1,9,9,0.2,0.2
2026-06-11T1200,2295A,118.2905,29.6965,黄山市,延安路89号,NA,NA,20,15,14,10,126,126,61,61,4,7,6,6,NA,0.2
2026-06-11T1200,2297A,118.1369,30.2755,黄山市,黄山区政府5号楼,,33,16,17,6,11,104,104,50,50,4,6,3,3,0.3,0.3
2026-06-11T1200,4210A,118.335445,29.720283,黄山市,滨江东路7-2号,,43,34,27,11,11,135,135,62,62,8,8,/,/,/,/
2026-06-11T1200,2423A,115.0547,30.2332,黄石市,沈家营,臭氧1小时(O3_1h),105,84,55,53,30,209,209,112,112,19,19,22,11,0.7,0.4
2026-06-11T1200,2426A,114.899,30.211,黄石市,铁山,臭氧1小时(O3_1h),83,46,51,24,29,186,186,118,118,9,13,14,7,0.2,0.6
2026-06-11T1200,2427A,115.0259,30.2108,黄石市,团城山,臭氧1小时(O3_1h),107,71,54,41,30,214,214,111,111,12,15,11,7,0.9,0.8
2026-06-11T1200,3149A,115.0174,30.1591,黄石市,笔架山北路,臭氧1小时(O3_1h),93,55,59,24,29,194,194,122,122,6,12,7,6,0.2,0.5
2026-06-11T1200,4185A,115.078022,30.21118,黄石市,磁湖东路29号,细颗粒物(PM2.5),105,86,56,65,31,194,194,106,106,30,16,22,9,1.1,0.6
2026-06-11T1200,1392A,114.4181,23.0528,惠州市,河南岸金山湖子站,,25,20,17,13,10,79,79,49,49,9,8,7,8,1.0,0.9
2026-06-11T1200,1393A,114.4055,23.0824,惠州市,下埔横江三路子站,,25,18,17,9,10,79,79,48,48,8,8,4,4,0.8,0.7
2026-06-11T1200,1395A,114.4645,22.7832,惠州市,惠阳区承修路船湖子站,,33,33,24,20,13,46,46,27,27,12,14,4,4,0.9,0.9
2026-06-11T1200,1396A,114.5316,22.7423,惠州市,大亚湾管委会子站,,26,26,20,12,8,39,39,27,26,14,14,4,4,0.7,0.7
2026-06-11T1200,3314A,114.4334,22.8134,惠州市,惠阳秋长,,24,24,19,14,11,58,58,32,32,12,10,/,/,/,/
2026-06-11T1200,3452A,114.6521,22.7755,惠州市,大亚湾霞涌,,17,17,18,6,8,41,41,28,28,5,6,/,/,/,/
2026-06-11T1200,4300A,114.4089,23.1147,惠州市,文华一路1号,,23,7,12,3,8,71,71,45,45,4,6,/,/,/,/
2026-06-11T1200,2240A,130.9618,45.2926,鸡西市,环保局,,31,19,18,16,14,99,99,64,64,7,11,8,9,0.3,0.3
2026-06-11T1200,2243A,130.9294,45.2959,鸡西市,第一中学,NA,NA,NA,14,16,12,92,92,56,56,NA,9,NA,8,0.2,0.3
2026-06-11T1200,3707A,131.0069,45.2988,鸡西市,欧美日汽修厂,,30,18,21,6,15,94,94,54,54,6,15,8,7,0.3,0.3
2026-06-11T1200,2367A,114.9753,27.0803,吉安市,红声器材厂,NA,NA,35,27,12,8,125,125,63,63,NA,12,9,4,0.5,0.3
2026-06-11T1200,2369A,114.9903,27.1313,吉安市,市环境监测站,,32,29,26,16,10,101,101,57,57,5,10,12,12,/,/
2026-06-11T1200,2370A,115.009527,27.096792,吉安市,青原区法院,,37,37,27,17,9,114,114,61,61,6,14,10,8,0.3,0.3
2026-06-11T1200,1772A,126.54,43.8622,吉林市,哈达湾,,28,17,19,10,12,88,88,51,51,4,16,6,6,0.1,0
2026-06-11T1200,1773A,126.5843,43.8358,吉林市,东局子,,25,14,20,11,13,80,80,47,47,5,13,4,4,0.4,0.4
2026-06-11T1200,1774A,126.5051,43.8243,吉林市,电力学院,,29,9,20,6,11,92,92,48,48,6,27,4,5,0.5,0.5
2026-06-11T1200,1775A,126.6133,43.8971,吉林市,江北,,27,17,21,10,14,85,85,53,53,5,14,6,7,0.4,0.6
2026-06-11T1200,1776A,126.5549,43.8304,吉林市,江南公园,,30,12,19,7,10,94,94,54,54,6,18,5,6,0.2,0.2
2026-06-11T1200,2868A,126.4737,43.953,吉林市,九站,,31,16,18,7,11,98,98,51,51,5,22,4,4,0.4,0.4
2026-06-11T1200,1299A,116.9866,36.6118,济南市,科干所,,48,24,28,8,12,152,152,94,94,12,21,5,4,0.4,0.5
2026-06-11T1200,1300A,116.9379,36.6652,济南市,农科所,,48,29,35,3,15,152,152,86,86,9,25,4,4,0.2,0.3
2026-06-11T1200,1301A,117.1265,36.6736,济南市,开发区,,44,27,35,6,12,139,139,92,92,9,19,6,6,0.4,0.4
2026-06-11T1200,1303A,117.0616,36.6865,济南市,省种子仓库,,47,29,43,3,15,148,148,88,88,7,26,5,6,0.2,0.3
2026-06-11T1200,1304A,116.9495185,36.644937,济南市,机床二厂,,47,32,36,7,13,148,148,94,94,10,22,6,6,0.3,0.4
2026-06-11T1200,1305A,117.0496,36.6629,济南市,市监测站,,42,27,36,3,12,134,134,87,87,8,21,3,4,0.2,0.3
2026-06-11T1200,1306A,116.7674,36.5458,济南市,长清党校,NA,NA,NA,35,0,11,148,148,94,94,9,18,5,4,0.2,0.2
2026-06-11T1200,1961A,117.5323,36.6865,济南市,东山小学,,44,34,41,9,13,139,139,99,99,11,22,4,5,0.2,0.2
2026-06-11T1200,3059A,117.7181,36.205,济南市,泰兴公司,,42,12,38,3,15,133,133,84,84,7,28,10,12,0.1,0.2
2026-06-11T1200,3064A,117.6861,36.2172,济南市,莱芜战役纪念馆,,45,29,40,3,18,141,141,96,96,6,21,10,8,0.2,0.4
2026-06-11T1200,3494A,117.1673,36.9782,济南市,济阳区政府,,42,34,51,3,20,132,132,82,82,10,20,9,9,0.2,0.3
2026-06-11T1200,3495A,117.1168,36.6299,济南市,锦屏中学,,41,22,28,3,10,129,129,90,90,7,12,7,7,0.4,0.4
2026-06-11T1200,4108A,117.7107,36.2385,济南市,山财大街5号,,38,6,31,3,16,120,120,78,78,8,24,5,8,0.1,0.4
2026-06-11T1200,4109A,116.9744,36.6889,济南市,无影山路12号,NA,NA,NA,37,4,15,136,136,83,83,9,25,2,3,0.4,0.5
2026-06-11T1200,1653A,116.6229,35.4288,济宁市,火炬城,,49,28,43,3,10,155,155,121,121,11,8,4,4,0.4,0.4
2026-06-11T1200,3500A,116.5808,35.3703,济宁市,北湖一中,臭氧1小时(O3_1h),59,38,41,11,13,167,167,127,127,8,10,2,3,0.2,0.3
2026-06-11T1200,3501A,116.8251,35.5592,济宁市,服务中心,,50,26,38,3,7,160,160,121,121,4,10,2,2,0.2,0.2
2026-06-11T1200,3678A,116.5907,35.4054,济宁市,市第七中学,臭氧1小时(O3_1h),78,43,45,11,11,182,182,134,134,8,12,6,6,0.3,0.2
2026-06-11T1200,4111A,116.6075,35.4566,济宁市,任和路,臭氧1小时(O3_1h),59,24,42,6,10,167,167,125,125,4,12,3,3,0.4,0.4
2026-06-11T1200,4112A,116.5648,35.3921,济宁市,文体南路1号,NA,NA,31,41,3,13,171,171,125,125,NA,10,3,4,NA,0.3
2026-06-11T1200,4122A,112.6071,35.1015,济源市,市委党校,臭氧1小时(O3_1h),68,73,53,18,20,174,174,105,105,12,19,10,17,0.5,0.5
2026-06-11T1200,4123A,112.596,35.0702,济源市,沁园中路1号,NA,NA,48,49,27,21,178,178,110,110,12,23,NA,9,0.6,0.8
2026-06-11T1200,2255A,130.2749,46.8028,佳木斯市,佳纺,,30,13,21,8,13,94,94,66,66,2,9,1,2,0.2,0.2
2026-06-11T1200,2257A,130.3258,46.7975,佳木斯市,环保局,,35,35,26,6,13,96,96,74,74,3,11,4,5,0.2,0.2
2026-06-11T1200,4285A,130.363,46.806,佳木斯市,顺和街,,29,17,24,6,11,90,90,63,63,7,13,1,1,0.2,0.2
2026-06-11T1200,4286A,130.3952,46.8268,佳木斯市,长安路196号,颗粒物(PM10),51,51,40,11,11,94,94,63,63,13,15,4,4,0.2,0.2
2026-06-11T1200,1252A,120.7439,30.778,嘉兴市,清河小学,臭氧1小时(O3_1h),68,31,31,6,15,174,174,112,112,13,14,6,6,0.4,0.4
2026-06-11T1200,1253A,120.7261,30.7477,嘉兴市,嘉兴学院,臭氧1小时(O3_1h),92,37,26,19,19,193,193,116,116,17,20,7,6,0.4,0.3
2026-06-11T1200,2872A,120.7845,30.7524,嘉兴市,南湖区残联,臭氧1小时(O3_1h),78,27,30,9,13,182,182,116,116,14,15,8,7,0.5,0.5
2026-06-11T1200,3407A,120.6915,30.7741,嘉兴市,秀洲住建,臭氧1小时(O3_1h),83,36,29,13,16,186,186,107,107,17,23,9,8,0.3,0.4
2026-06-11T1200,1945A,98.291,39.7705,嘉峪关市,气象局,,44,44,37,12,13,119,119,85,85,2,13,4,8,0.3,0.4
2026-06-11T1200,2884A,98.2672,39.7978,嘉峪关市,酒钢宾馆,,48,48,39,18,15,116,116,93,93,4,11,13,16,0.7,0.7
2026-06-11T1200,3248A,98.2644,39.7723,嘉峪关市,雄关区,NA,NA,NA,33,NA,10,118,118,NA,NA,NA,15,NA,4,0.4,0.2
2026-06-11T1200,1383A,113.1063,22.6058,江门市,北街,,37,27,33,14,21,117,117,50,50,9,21,/,/,/,/
2026-06-11T1200,1384A,113.073,22.5835,江门市,西区,,36,25,34,18,22,115,115,44,44,14,24,/,/,/,/
2026-06-11T1200,1385A,113.0218,22.531,江门市,圭峰西,,36,36,34,12,23,106,106,47,47,12,23,/,/,/,/
2026-06-11T1200,1386A,113.0826,22.5947,江门市,东湖,,36,23,36,14,22,115,115,47,47,13,24,6,8,0.5,0.5
2026-06-11T1200,3311A,113.1077,22.5647,江门市,江海富民,,36,28,38,21,23,115,115,50,50,15,23,/,/,0.5,0.9
2026-06-11T1200,3449A,113.0496,22.4669,江门市,新会银湖,,36,32,36,23,26,113,113,42,42,18,28,1,2,0.7,0.7
2026-06-11T1200,3335A,113.3137,35.2643,焦作市,马村街道办,臭氧1小时(O3_1h),80,45,54,17,19,184,184,133,133,9,13,9,8,0.4,0.4
2026-06-11T1200,3336A,113.2464,35.2374,焦作市,焦作技师学院,臭氧1小时(O3_1h),72,46,44,19,15,177,177,126,126,9,13,12,10,0.3,0.3
2026-06-11T1200,3477A,113.1656,35.2536,焦作市,中站许衡医院,臭氧1小时(O3_1h),78,50,51,19,16,182,182,135,135,8,9,8,9,0.5,0.5
2026-06-11T1200,3981A,113.2456,35.18,焦作市,原李万街道办,臭氧1小时(O3_1h),78,48,58,14,18,182,182,137,137,7,12,9,11,0.4,0.5
2026-06-11T1200,4264A,113.234,35.219,焦作市,新安路1731号,臭氧1小时(O3_1h),90,43,55,22,19,192,192,140,140,14,20,14,12,0.8,0.8
2026-06-11T1200,4295A,113.2722,35.2121,焦作市,人民路3066号,臭氧1小时(O3_1h),55,49,54,20,19,164,164,123,123,13,17,11,8,0.5,0.5
2026-06-11T1200,1708A,116.3701,23.5345,揭阳市,新兴,,35,28,29,11,15,109,109,82,82,8,16,8,8,0.4,0.4
2026-06-11T1200,1709A,116.3261,23.5442,揭阳市,西马,,36,22,28,11,15,114,114,85,85,11,16,8,7,0.5,0.6
2026-06-11T1200,1710A,116.361,23.5627,揭阳市,东兴,颗粒物(PM10),53,53,26,22,16,105,105,75,75,14,15,12,5,/,/
2026-06-11T1200,1711A,116.4151,23.5295,揭阳市,渔湖,,30,27,28,9,16,96,96,72,72,6,14,3,5,/,/
2026-06-11T1200,3320A,116.4028,23.5699,揭阳市,曲溪,,47,47,26,20,13,112,112,79,79,11,12,16,10,0.8,0.7
2026-06-11T1200,1944A,102.1691,38.5166,金昌市,天庆家园,颗粒物(PM10),58,61,46,17,16,132,132,86,86,9,14,5,8,0.3,0.4
2026-06-11T1200,4022A,102.1648,38.5369,金昌市,金川区人防中心,颗粒物(PM10),55,56,39,24,17,130,130,91,91,11,12,11,8,0.5,0.4
2026-06-11T1200,4239A,102.193042,38.531887,金昌市,长春路96号,,43,36,48,15,19,136,136,94,94,9,12,7,10,0.4,0.5
2026-06-11T1200,1262A,119.6478,29.0773,金华市,十五中,颗粒物(PM10),53,53,22,25,11,160,160,73,73,14,17,3,2,0.5,0.9
2026-06-11T1200,1263A,119.6859,29.1032,金华市,监测站,,49,34,24,21,13,154,154,69,69,12,16,4,4,0.5,0.5
2026-06-11T1200,3659A,119.656,29.1132,金华市,气象局,,50,39,27,18,14,160,160,76,76,12,15,4,3,0.4,0.4
2026-06-11T1200,1767A,121.1114,41.0879,锦州市,南山,,34,25,25,3,18,106,106,58,58,9,26,7,8,0.2,0.3
2026-06-11T1200,1768A,121.060361,40.842794,锦州市,开发区,颗粒物(PM10),66,72,56,16,14,92,92,NA,NA,33,31,32,15,0.8,0.5
2026-06-11T1200,1769A,121.1836,41.1118,锦州市,百股街道,,49,49,26,3,20,111,111,56,56,9,22,9,9,0.2,0.4
2026-06-11T1200,1770A,121.1176,41.1224,锦州市,天安街道,,34,19,30,3,19,106,106,56,56,7,25,7,9,0.3,0.5
2026-06-11T1200,1771A,121.1303,41.1385,锦州市,北湖公园,,34,27,26,7,17,106,106,60,60,7,21,9,10,0.3,0.4
2026-06-11T1200,2160A,112.8496,35.5051,晋城市,自来水公司,"颗粒物(PM10),臭氧1小时(O3_1h)",60,64,54,12,9,168,168,109,109,8,19,6,6,0.5,0.5
2026-06-11T1200,2162A,112.8509,35.4886,晋城市,市环保局,臭氧1小时(O3_1h),58,48,42,11,12,166,166,100,100,7,18,6,5,0.4,0.4
2026-06-11T1200,3620A,112.8258,35.4804,晋城市,泽州一中,臭氧1小时(O3_1h),67,46,55,13,12,173,173,108,108,12,24,6,5,0.5,0.5
2026-06-11T1200,4078A,112.8246,35.5152,晋城市,前书院路,臭氧1小时(O3_1h),52,48,46,10,14,161,161,105,105,7,17,8,8,1.1,1.3
2026-06-11T1200,4079A,112.8864,35.4773,晋城市,祥云街666号,臭氧1小时(O3_1h),55,40,36,12,14,164,164,93,93,10,22,9,8,0.5,0.6
2026-06-11T1200,2174A,112.6992,37.6984,晋中市,榆次区政府,,47,36,45,13,17,148,148,106,106,6,15,8,9,0.5,0.5
2026-06-11T1200,2865A,112.7195,37.683,晋中市,榆次三中,,50,41,43,18,17,158,158,109,109,4,12,8,8,0.5,0.4
2026-06-11T1200,4080A,112.7375,37.7215,晋中市,广安街188号,,46,32,40,15,16,146,146,104,104,4,16,7,9,0.2,0.4
2026-06-11T1200,4200A,112.7478,37.6954,晋中市,迎宾街26号,,48,41,43,17,17,152,152,104,104,7,16,7,8,0.3,0.2
2026-06-11T1200,2439A,112.2012,31.048,荆门市,竹园小学,颗粒物(PM10),76,86,49,32,27,130,130,108,102,18,14,9,5,0.7,0.7
2026-06-11T1200,2440A,112.1968,30.9892,荆门市,掇刀,细颗粒物(PM2.5),64,58,44,42,29,124,124,92,87,19,14,9,10,0.7,0.6
2026-06-11T1200,3012A,112.1849,31.0361,荆门市,西山林语,颗粒物(PM10),63,68,37,38,22,114,114,88,87,19,12,10,9,0.6,0.5
2026-06-11T1200,3547A,112.1631,31.0134,荆门市,龙泉中学南校,细颗粒物(PM2.5),64,60,36,42,22,129,129,87,87,17,13,11,8,0.7,0.6
2026-06-11T1200,4124A,112.2213,31.0654,荆门市,新台西路6号,细颗粒物(PM2.5),58,47,50,39,33,115,115,65,65,15,22,6,3,0.6,0.6
2026-06-11T1200,1844A,112.2493,30.3198,荆州市,市图书馆,NA,NA,NA,32,NA,25,127,127,78,78,22,18,10,7,0.4,0.4
2026-06-11T1200,1845A,112.2009,30.3543,荆州市,市委党校,颗粒物(PM10),63,68,40,35,28,106,106,66,66,16,19,13,11,0.5,0.4
2026-06-11T1200,3194A,112.2749,30.3124,荆州市,管委会,细颗粒物(PM2.5),66,54,35,43,27,128,128,77,77,11,13,12,10,0.5,0.4
2026-06-11T1200,4268A,112.1722,30.3366,荆州市,学苑路85号,细颗粒物(PM2.5),66,47,31,43,28,127,127,63,63,11,17,10,9,0.5,0.4
2026-06-11T1200,2343A,117.2114,29.2931,景德镇市,老干部活动中心,,40,24,20,12,19,127,127,66,66,5,14,6,12,0.5,0.5
2026-06-11T1200,2344A,117.1893,29.2789,景德镇市,兽医站,颗粒物(PM10),74,83,36,13,16,125,125,69,69,5,17,3,4,0.5,0.5
2026-06-11T1200,2346A,117.246,29.2958,景德镇市,陶研所,,36,17,22,15,16,115,115,56,56,4,13,5,4,0.2,0.5
2026-06-11T1200,4289A,117.154766,29.256967,景德镇市,青少年活动中心,,47,34,23,28,18,150,150,61,61,16,18,27,26,/,/
2026-06-11T1200,1803A,115.9873,29.6816,九江市,十里,臭氧1小时(O3_1h),64,31,30,12,16,171,171,110,110,15,26,2,3,0.6,0.7
2026-06-11T1200,1804A,115.9583,29.7047,九江市,茅山头,臭氧1小时(O3_1h),53,10,22,9,12,162,162,105,105,8,21,4,4,0.4,0.4
2026-06-11T1200,1805A,115.9877,29.7295,九江市,西园,臭氧1小时(O3_1h),52,21,19,9,12,161,161,84,84,27,32,6,6,0.5,0.5
2026-06-11T1200,1808A,115.9112,29.6038,九江市,综合工业园,NA,NA,NA,34,7,14,141,141,91,91,NA,24,4,4,NA,0.6
2026-06-11T1200,3190A,116.0254,29.6995,九江市,外国语学校,NA,NA,26,26,12,17,142,142,NA,NA,NA,27,NA,9,NA,0.6
2026-06-11T1200,4253A,116.010205,29.659402,九江市,莲花大道8号,,46,22,30,13,18,147,147,104,104,11,12,5,6,0.5,0.5
2026-06-11T1200,4240A,98.495752,39.733935,酒泉市,玉门东路5号,,48,48,38,19,15,111,111,90,90,5,9,7,6,0.2,0.2
2026-06-11T1200,4241A,98.5099,39.7506,酒泉市,北大街108号,颗粒物(PM10),53,53,42,18,14,114,114,93,93,4,9,9,9,0.2,0.2
2026-06-11T1200,2698A,76.0071,39.466,喀什地区,巡警大队,颗粒物(PM10),52,52,39,14,14,117,117,119,104,12,9,6,5,0.2,0.2
2026-06-11T1200,2699A,75.9756,39.4693,喀什地区,吾办,NA,NA,NA,40,NA,14,NA,NA,143,NA,NA,4,NA,5,NA,0.3
2026-06-11T1200,4027A,75.9485,39.4688,喀什地区,老干局,,38,37,34,3,5,120,120,117,102,4,4,3,3,0.4,0.4
2026-06-11T1200,1824A,114.3389,34.778,开封市,肿瘤医院,颗粒物(PM10),75,84,61,33,24,174,174,120,120,12,18,9,9,0.6,0.7
2026-06-11T1200,1826A,114.2884,34.7966,开封市,世纪星幼儿园,臭氧1小时(O3_1h),70,60,51,26,26,176,176,122,122,11,14,10,9,0.6,0.5
2026-06-11T1200,3147A,114.3434,34.8101,开封市,龙亭公园,臭氧1小时(O3_1h),78,69,57,28,21,182,182,124,124,14,20,9,8,0.7,0.6
2026-06-11T1200,3210A,114.3645,34.7955,开封市,汴京公园,臭氧1小时(O3_1h),79,66,57,28,27,183,183,126,126,14,20,11,10,5.4,0.7
2026-06-11T1200,3473A,114.2485,34.8306,开封市,技师学院,臭氧1小时(O3_1h),82,73,54,30,21,185,185,127,127,14,17,11,10,0.5,0.4
2026-06-11T1200,3592A,114.4518,34.7503,开封市,祥符区生态环境局,臭氧1小时(O3_1h),79,56,59,22,28,183,183,121,121,16,34,11,12,0.5,0.5
2026-06-11T1200,1951A,84.886,45.6029,克拉玛依市,长征新村,,39,39,27,18,10,113,113,96,83,10,8,4,3,0.2,0.2
2026-06-11T1200,1952A,84.8894,45.5827,克拉玛依市,南林小区,,42,42,32,3,3,93,93,84,63,13,7,4,5,0.2,0.2
2026-06-11T1200,1954A,84.896,44.3328,克拉玛依市,独山子区,,32,31,28,3,6,101,101,96,96,5,6,7,7,0.3,0.3
2026-06-11T1200,1955A,85.6888,46.0909,克拉玛依市,乌尔禾区商贸楼,,37,37,32,12,12,99,99,80,64,8,7,7,6,0.2,0.2
2026-06-11T1200,3612A,85.1045,45.6895,克拉玛依市,白碱滩区新站,,37,37,28,3,6,107,107,105,86,16,7,7,6,0.0,0.1
2026-06-11T1200,2697A,76.1457,39.7143,克孜勒苏柯尔克孜自治州,市人民政府,颗粒物(PM10),60,64,46,20,18,106,106,111,92,6,8,6,7,0.2,0.1
2026-06-11T1200,3665A,76.1654,39.7157,克孜勒苏柯尔克孜自治州,克州文化中心,颗粒物(PM10),60,63,46,14,20,106,106,115,104,10,5,6,5,0.3,0.3
2026-06-11T1200,1450A,102.8203,24.889,昆明市,呈贡新区,,30,NA,17,16,13,94,94,92,92,9,7,1,3,0.5,0.5
2026-06-11T1200,1452A,102.7253,25.0904,昆明市,龙泉镇,,31,22,22,21,16,98,98,93,93,11,11,7,6,0.4,0.4
2026-06-11T1200,1453A,102.7267,25.0378,昆明市,东风东路,,35,29,24,24,17,98,98,92,92,15,16,2,2,0.4,0.4
2026-06-11T1200,1454A,102.6744,25.0671,昆明市,金鼎山,,33,33,26,23,16,95,95,95,94,16,13,4,4,0.4,0.4
2026-06-11T1200,1455A,102.6643,25.0401,昆明市,碧鸡广场,,36,30,27,25,15,84,84,84,82,16,14,1,2,0.5,0.4
2026-06-11T1200,3179A,102.7491,25.012,昆明市,官渡区博物馆,,29,26,24,20,16,90,90,82,82,15,18,5,4,0.4,0.4
2026-06-11T1200,3375A,102.8016,24.8336,昆明市,青年创业园,NA,NA,NA,23,17,18,90,90,81,81,8,9,4,5,NA,0.4
2026-06-11T1200,3550A,102.8,24.9787,昆明市,昆明学院,,30,28,27,14,12,94,94,86,86,10,11,6,6,0.6,0.6
2026-06-11T1200,3551A,102.5969,24.6738,昆明市,晋宁区生态环境分局,NA,NA,NA,27,13,19,102,102,80,80,5,8,NA,8,0.3,0.5
2026-06-11T1200,3552A,102.6673,24.9861,昆明市,云天化总部,,29,27,23,16,14,91,91,89,89,13,13,4,4,0.5,0.5
2026-06-11T1200,1456A,91.132,29.6515,拉萨市,八廓街,,42,12,12,3,6,134,134,121,121,5,6,6,6,0.4,0.3
2026-06-11T1200,1457A,91.1221,29.6748,拉萨市,市环保局,,40,8,10,3,6,128,128,114,114,7,9,7,7,0.4,0.5
2026-06-11T1200,1458A,91.0874,29.6476,拉萨市,区监测站,NA,NA,NA,8,NA,6,132,132,119,119,NA,11,5,6,0.6,0.6
2026-06-11T1200,1459A,91.1774,29.6541,拉萨市,西藏大学,,42,6,9,3,6,134,134,121,121,9,9,6,6,0.5,0.6
2026-06-11T1200,1460A,90.9798,29.6586,拉萨市,区辐射站,,41,9,11,6,7,131,131,122,122,11,11,6,6,0.4,0.3
2026-06-11T1200,1461A,91.0831,29.6292,拉萨市,拉萨火车站,,40,8,10,6,8,127,127,116,116,8,8,3,4,0.3,0.3
2026-06-11T1200,2520A,109.2203,23.7252,来宾市,来宾技工学校,,48,43,32,27,19,151,151,77,77,9,13,11,9,0.8,0.7
2026-06-11T1200,3535A,109.1781,23.7293,来宾市,兴宾区政府,臭氧1小时(O3_1h),64,39,26,28,17,171,171,78,78,9,13,14,8,0.8,0.6
2026-06-11T1200,4002A,109.2312,23.7428,来宾市,中南小学,,48,43,29,24,19,152,152,72,72,11,21,9,7,0.6,0.5
2026-06-11T1200,1479A,103.8309,36.0467,兰州市,铁路设计院,,39,38,43,23,22,123,123,73,73,25,27,8,7,0.8,0.7
2026-06-11T1200,3241A,103.7439,36.0841,兰州市,百合公园,,40,37,47,15,18,128,128,60,60,16,28,12,8,0.6,0.5
2026-06-11T1200,3242A,103.9613,35.9985,兰州市,和平,,40,35,31,20,18,127,127,91,91,6,10,11,10,0.4,0.3
2026-06-11T1200,4236A,103.629272,36.093822,兰州市,庄浪东路808号,臭氧1小时(O3_1h),55,46,45,24,20,164,164,90,90,19,23,12,9,0.6,0.4
2026-06-11T1200,4237A,103.7251,36.104344,兰州市,安宁西路88号,NA,NA,39,47,21,20,129,129,65,65,17,27,NA,9,NA,0.3
2026-06-11T1200,4238A,103.846982,36.067567,兰州市,北滨河东路1号,,40,31,40,14,18,126,126,76,76,14,25,12,12,0.4,0.5
2026-06-11T1200,1067A,116.6712,39.5109,廊坊市,药材公司,,34,NA,26,7,17,106,106,44,44,8,24,3,2,0.3,0.4
2026-06-11T1200,1068A,116.7215,39.5592,廊坊市,开发区,,35,14,22,3,12,112,112,49,49,8,27,3,3,0.3,0.3
2026-06-11T1200,1070A,116.7246,39.5273,廊坊市,北华航天学院,,35,21,23,3,7,110,110,55,55,6,19,3,2,0.2,0.3
2026-06-11T1200,2919A,116.7022,39.5454,廊坊市,河北工业大学,,35,12,21,8,13,112,112,52,52,8,24,3,2,0.2,0.3
2026-06-11T1200,2536A,103.7629,29.5844,乐山市,牛耳桥,,23,23,30,13,16,70,70,56,49,20,17,6,7,0.6,0.6
2026-06-11T1200,2537A,103.7501,29.6002,乐山市,市第三水厂,,27,22,27,7,14,84,84,66,61,21,17,7,7,0.9,0.8
2026-06-11T1200,2538A,103.7571,29.5664,乐山市,市监测站,,22,21,27,10,14,69,69,59,46,18,17,2,4,1.0,0.9
2026-06-11T1200,3361A,103.7313,29.563,乐山市,理工大学,,25,25,29,10,15,71,71,52,41,16,17,7,5,0.8,0.7
2026-06-11T1200,2599A,100.2497,26.8802,丽江市,丽江古城,,25,11,12,3,7,80,80,83,80,6,6,5,5,0.7,0.7
2026-06-11T1200,2600A,100.2203,26.8906,丽江市,市中心,,23,NA,6,7,4,71,71,76,74,11,6,3,4,0.6,0.6
2026-06-11T1200,1267A,119.9141,28.4513,丽水市,监测站大楼,,40,40,31,14,13,70,70,24,24,14,15,6,5,0.2,0.2
2026-06-11T1200,1268A,119.93,28.4589,丽水市,莲都小学,,25,25,29,13,12,70,70,23,23,12,16,/,/,/,/
2026-06-11T1200,1269A,119.8794,28.4232,丽水市,余庄前,,30,30,42,14,13,67,67,17,17,17,15,6,5,0.3,0.3
2026-06-11T1200,1173A,119.1759,34.5885,连云港市,市环境监测站,,48,NA,31,22,16,152,152,118,118,14,15,9,10,0.4,0.5
2026-06-11T1200,3000A,119.3577,34.6971,连云港市,德源药业,,46,22,39,9,18,147,147,92,92,10,24,5,6,0.4,0.5
2026-06-11T1200,3007A,119.178,34.8442,连云港市,新城一中,NA,NA,NA,43,NA,14,144,144,110,110,8,23,4,5,NA,0.5
2026-06-11T1200,3008A,119.3607,34.7519,连云港市,胡沟管理处,,45,9,25,3,12,141,141,106,106,16,37,9,13,0.4,0.5
2026-06-11T1200,3009A,119.1478,34.5913,连云港市,矿山设计院,,45,19,36,3,12,144,144,106,106,12,14,2,4,0.2,0.3
2026-06-11T1200,3434A,119.2414,34.6539,连云港市,工贸学校,,50,13,28,8,15,158,158,121,121,11,13,4,5,0.5,0.6
2026-06-11T1200,3664A,119.4171,34.734,连云港市,连云街道,,36,28,28,13,13,114,114,114,114,36,13,12,10,0.3,0.4
2026-06-11T1200,2573A,102.2629,27.8981,凉山彝族自治州,西昌市政府,,30,NA,16,17,9,93,93,81,75,7,6,3,3,0.4,0.3
2026-06-11T1200,2574A,102.2686,27.885,凉山彝族自治州,凉山州政府,,29,18,15,15,8,91,91,78,71,6,6,5,4,0.4,0.3
2026-06-11T1200,4229A,102.2342,27.8859,凉山彝族自治州,凯乐南路30号,,39,30,17,27,8,82,82,71,67,17,12,18,7,1.1,0.4
2026-06-11T1200,2212A,123.1978,41.2036,辽阳市,宏伟区,,49,49,25,11,9,124,124,92,92,13,14,10,8,0.9,0.7
2026-06-11T1200,2213A,123.1684,41.2497,辽阳市,新华园,颗粒物(PM10),55,56,32,14,12,123,123,88,88,22,24,21,10,1.4,0.7
2026-06-11T1200,2214A,123.2355,41.2663,辽阳市,滨河路,颗粒物(PM10),53,53,26,17,11,123,123,84,84,20,20,16,8,1.0,0.3
2026-06-11T1200,4083A,123.153,41.2874,辽阳市,铁西路150号,颗粒物(PM10),51,51,34,14,13,117,117,90,90,17,21,15,10,0.9,0.6
2026-06-11T1200,2227A,125.1359,42.8845,辽源市,环保局,,40,17,19,11,9,128,128,71,71,8,22,8,7,0.5,0.5
2026-06-11T1200,4085A,125.0998,42.9134,辽源市,安宁大街333号,,36,29,28,10,10,114,114,56,56,9,27,8,7,0.4,0.4
2026-06-11T1200,1625A,115.9789,36.4372,聊城市,区政府,,48,30,52,11,15,153,153,99,99,5,12,10,9,0.3,0.4
2026-06-11T1200,3200A,115.9772,36.4986,聊城市,监控中心,,48,30,59,3,5,151,151,86,86,7,14,11,9,0.3,0.3
2026-06-11T1200,3513A,116.0443,36.436,聊城市,九州社区,,50,40,54,9,13,158,158,106,106,4,13,6,5,0.3,0.3
2026-06-11T1200,4018A,116.0564,36.4609,聊城市,星美广场,臭氧1小时(O3_1h),60,29,55,13,16,168,168,109,109,6,12,8,8,0.3,0.4
2026-06-11T1200,4113A,116.0091,36.4495,聊城市,利民路,,49,10,33,6,16,155,155,102,102,5,14,10,10,0.2,0.3
2026-06-11T1200,2632A,94.3683,29.6373,林芝市,林芝监测站,,27,7,7,3,4,86,86,90,84,6,4,4,4,0.4,0.4
2026-06-11T1200,2633A,94.3616,29.6634,林芝市,林芝人民医院,,28,11,8,3,5,88,88,85,82,7,6,3,3,0.5,0.4
2026-06-11T1200,2603A,100.0779,23.8981,临沧市,市环保局,NA,NA,25,13,15,11,56,56,46,44,6,6,7,3,NA,0.8
2026-06-11T1200,2604A,100.0894,23.882,临沧市,市气象局,,19,13,14,11,10,60,60,55,50,6,6,8,8,0.4,0.5
2026-06-11T1200,1733A,111.5552,36.0791,临汾市,临钢医院,臭氧1小时(O3_1h),83,40,38,18,11,186,186,102,102,11,18,14,9,0.8,0.6
2026-06-11T1200,1734A,111.4984,36.0734,临汾市,技工学校,臭氧1小时(O3_1h),73,60,48,13,16,178,178,88,88,15,24,13,7,0.7,0.5
2026-06-11T1200,1736A,111.5017,36.0857,临汾市,市委,臭氧1小时(O3_1h),79,76,58,18,12,183,183,90,90,15,24,17,12,0.9,0.7
2026-06-11T1200,3018A,111.5048,36.1015,临汾市,唐尧大酒店,臭氧1小时(O3_1h),75,70,58,20,13,180,180,84,84,16,27,17,11,0.8,0.6
2026-06-11T1200,4244A,111.4879,36.053,临汾市,启星学校,臭氧1小时(O3_1h),77,52,41,16,14,181,181,90,90,15,27,17,10,0.7,0.5
2026-06-11T1200,4271A,103.2464,35.6123,临夏回族自治州,滨河东路1号,,47,47,58,14,22,83,83,44,44,10,18,12,11,0.3,0.4
2026-06-11T1200,4310A,103.207136,35.599807,临夏回族自治州,新华街21号,NA,NA,NA,52,NA,29,96,96,49,49,6,12,11,10,NA,0.6
2026-06-11T1200,1618A,118.3429,35.0532,临沂市,沂河小区,臭氧1小时(O3_1h),57,31,31,6,8,165,165,119,119,9,12,11,12,0.2,0.2
2026-06-11T1200,1619A,118.2962,35.0568,临沂市,鲁南制药厂,臭氧1小时(O3_1h),59,19,30,6,10,167,167,123,123,13,16,9,10,0.3,0.3
2026-06-11T1200,1620A,118.2793,34.9976,临沂市,新光毛纺厂,,49,24,29,7,12,155,155,115,114,7,14,10,11,0.2,0.3
2026-06-11T1200,1621A,118.3955,35.0889,临沂市,河东保险公司,NA,NA,36,35,11,9,168,168,123,123,13,13,10,10,NA,0.2
2026-06-11T1200,3370A,118.3563,35.0215,临沂市,十里堡居委,臭氧1小时(O3_1h),55,19,24,3,9,164,164,120,120,14,18,9,10,0.4,0.4
2026-06-11T1200,3496A,118.359,35.1067,临沂市,南坊新区,臭氧1小时(O3_1h),62,53,30,16,10,169,169,116,116,16,14,9,10,0.1,0.1
2026-06-11T1200,3860A,118.3915,35.0297,临沂市,皇山花园小区,臭氧1小时(O3_1h),57,19,26,19,11,165,165,119,119,9,12,10,11,0.3,0.3
2026-06-11T1200,1870A,109.4854,24.3898,柳州市,柳东小学,,37,25,22,24,22,118,118,69,69,6,11,6,6,0.5,0.5
2026-06-11T1200,1871A,109.4109,24.3304,柳州市,环保监测站,,36,29,34,11,20,115,115,60,60,9,22,8,12,0.6,0.8
2026-06-11T1200,1872A,109.3886,24.3408,柳州市,河西水厂,,41,37,43,23,23,131,131,51,51,11,21,17,19,0.7,0.6
2026-06-11T1200,1873A,109.4263,24.2951,柳州市,市四中,,39,24,38,13,29,124,124,67,67,8,22,8,9,0.6,0.7
2026-06-11T1200,1874A,109.396,24.3658,柳州市,市九中,,41,38,43,20,24,129,129,56,56,9,24,9,10,0.5,0.6
2026-06-11T1200,1875A,109.4912,24.3164,柳州市,古亭山,,43,43,25,10,15,124,124,60,60,8,22,6,5,0.5,0.6
2026-06-11T1200,3402A,109.5422,24.3994,柳州市,市二中,,42,26,25,14,15,132,132,67,67,2,12,7,8,0.5,0.5
2026-06-11T1200,2307A,116.5078,31.7369,六安市,监测大楼,臭氧1小时(O3_1h),65,NA,29,20,20,172,172,117,117,7,12,3,4,0.4,0.4
2026-06-11T1200,2308A,116.4738,31.7642,六安市,皖西学院,臭氧1小时(O3_1h),68,41,37,21,19,174,174,112,112,5,10,6,6,0.3,0.3
2026-06-11T1200,2309A,116.4997,31.7904,六安市,朝阳厂,颗粒物(PM10),68,74,27,24,20,160,160,106,106,10,13,8,8,0.3,0.3
2026-06-11T1200,2310A,116.5566,31.7885,六安市,开发区,臭氧1小时(O3_1h),82,19,29,18,22,185,185,117,117,9,39,7,7,0.2,0.2
2026-06-11T1200,2577A,104.8293,26.592,六盘水市,黄土坡,,39,28,20,10,8,122,122,88,88,8,9,6,4,0.1,0.1
2026-06-11T1200,2579A,104.8481,26.5898,六盘水市,民中,,36,26,16,7,7,113,113,86,86,11,16,5,4,0.4,0.4
2026-06-11T1200,2580A,104.9541,26.5506,六盘水市,双水,,35,14,18,3,7,111,111,85,85,6,7,5,5,0.3,0.3
2026-06-11T1200,4151A,104.8899,26.5685,六盘水市,钟山大道中段564号,,35,17,20,6,9,111,111,82,82,3,6,7,7,0.5,0.6
2026-06-11T1200,2336A,117.022,25.1031,龙岩市,龙岩市监测站,,19,16,9,7,8,59,59,48,48,10,7,6,6,0.4,0.4
2026-06-11T1200,2337A,117.0257,25.0662,龙岩市,闽西职业技术学院,,20,19,12,8,9,64,64,47,47,10,7,6,6,0.6,0.5
2026-06-11T1200,2338A,117.0195,25.0306,龙岩市,龙岩学院,,24,14,13,8,9,75,75,48,48,6,7,6,3,/,/
2026-06-11T1200,2885A,104.9344,33.3827,陇南市,滨江中学,,45,45,45,12,12,132,132,87,87,5,9,8,8,0.3,0.3
2026-06-11T1200,3247A,104.9551,33.3709,陇南市,市总工会,NA,NA,NA,29,NA,12,132,132,91,91,4,7,7,7,NA,0.6
2026-06-11T1200,2488A,111.9984,27.7346,娄底市,市监测站,颗粒物(PM10),58,61,39,28,24,103,103,42,42,17,21,15,14,1.2,1
2026-06-11T1200,2491A,111.9888,27.7035,娄底市,市政府,,41,39,31,17,25,130,130,45,45,7,10,7,7,0.8,0.4
2026-06-11T1200,4127A,111.9812,27.7591,娄底市,涟钢职大,颗粒物(PM10),61,65,31,25,17,122,122,64,64,33,12,40,10,4.9,1.7
2026-06-11T1200,4128A,112.0303,27.7457,娄底市,娄底体校,NA,NA,NA,34,18,16,128,128,37,37,NA,13,9,3,0.8,0.5
2026-06-11T1200,1894A,105.4427,28.9063,泸州市,小市上码头,颗粒物(PM10),54,55,34,29,15,66,66,19,19,21,28,8,7,0.5,0.5
2026-06-11T1200,1895A,105.4241,28.8573,泸州市,兰田宪桥,颗粒物(PM10),60,63,48,36,25,78,78,21,21,16,24,7,7,0.4,0.4
2026-06-11T1200,1896A,105.4378,28.8833,泸州市,市环监站,,44,44,31,28,16,69,69,21,21,20,28,8,8,0.6,0.7
2026-06-11T1200,4272A,105.3689,28.7783,泸州市,纳溪中医医院,细颗粒物(PM2.5),54,40,37,37,28,83,83,22,22,13,18,6,5,0.7,0.7
2026-06-11T1200,2183A,111.1447,37.5212,吕梁市,环保局,,43,40,33,3,7,136,136,83,83,13,17,7,6,0.3,0.2
2026-06-11T1200,2185A,111.1285,37.5338,吕梁市,自来水公司,,43,33,51,3,11,137,137,62,62,15,24,5,6,0.5,0.4
2026-06-11T1200,2867A,111.1225,37.5093,吕梁市,马茂庄小学,,43,40,42,3,7,135,135,75,75,14,19,6,8,0.4,0.3
2026-06-11T1200,1812A,112.3934,34.6517,洛阳市,市委党校,臭氧1小时(O3_1h),79,62,42,24,15,183,183,98,98,12,17,12,10,0.5,0.4
2026-06-11T1200,1815A,112.494,34.6883,洛阳市,河南林校,臭氧1小时(O3_1h),90,71,46,20,15,192,192,109,109,13,20,13,12,0.6,0.5
2026-06-11T1200,1816A,112.3843,34.623,洛阳市,开发区管委会,臭氧1小时(O3_1h),97,58,34,23,12,197,197,116,116,9,14,12,10,0.5,0.4
2026-06-11T1200,1817A,112.4263,34.6249,洛阳市,市委新办公区,臭氧1小时(O3_1h),70,67,39,24,15,176,176,105,105,10,13,13,11,0.2,0.1
2026-06-11T1200,3340A,112.6005,34.6323,洛阳市,伊滨,臭氧1小时(O3_1h),70,56,39,29,13,176,176,104,104,14,14,11,12,0.6,0.5
2026-06-11T1200,3341A,112.495,34.6338,洛阳市,中移产业园,臭氧1小时(O3_1h),69,69,41,28,13,175,175,100,100,10,13,11,9,0.5,0.3
2026-06-11T1200,3593A,112.5736,34.8993,洛阳市,吉利监测站,臭氧1小时(O3_1h),82,68,44,20,13,185,185,111,111,10,15,11,10,0.3,0.2
2026-06-11T1200,3635A,112.3678,34.6623,洛阳市,河科大西苑校区,臭氧1小时(O3_1h),84,70,41,30,15,187,187,107,107,13,21,13,12,0.7,0.6
2026-06-11T1200,3636A,112.4387,34.678,洛阳市,英才小学,臭氧1小时(O3_1h),70,74,47,24,16,176,176,98,98,11,18,10,10,0.5,0.5
2026-06-11T1200,4214A,112.460027,34.694929,洛阳市,春都路1号院,臭氧1小时(O3_1h),94,65,47,31,22,195,195,114,114,10,20,10,10,0.3,0.3
2026-06-11T1200,2399A,114.051,33.5721,漯河市,三五一五工厂,臭氧1小时(O3_1h),102,113,59,38,26,203,203,121,121,18,25,10,8,0.5,0.5
2026-06-11T1200,2400A,114.0055,33.5698,漯河市,漯河大学,臭氧1小时(O3_1h),105,100,56,41,29,210,210,124,124,20,23,10,8,0.4,0.4
2026-06-11T1200,2401A,114.0134,33.5826,漯河市,市水利局,臭氧1小时(O3_1h),105,97,55,39,28,209,209,124,124,19,22,10,8,0.3,0.3
2026-06-11T1200,2402A,114.0261,33.5697,漯河市,市广电局,臭氧1小时(O3_1h),103,93,54,32,24,206,206,122,122,19,25,10,8,0.5,0.5
2026-06-11T1200,3478A,113.9691,33.568,漯河市,市图书馆,臭氧1小时(O3_1h),101,90,56,34,25,202,202,121,121,23,24,11,9,0.5,0.4
2026-06-11T1200,4250A,114.089259,33.588274,漯河市,韶山路11号,臭氧1小时(O3_1h),101,70,58,32,24,202,202,115,115,15,23,12,11,0.4,0.3
2026-06-11T1200,1798A,118.5084,31.6838,马鞍山市,湖东路四小,臭氧1小时(O3_1h),110,46,44,21,19,219,219,125,125,10,21,7,8,0.5,0.7
2026-06-11T1200,1799A,118.5019,31.6449,马鞍山市,开发区,臭氧1小时(O3_1h),107,45,60,18,26,213,213,109,109,8,37,8,7,0.5,0.7
2026-06-11T1200,3633A,118.4914,31.681,马鞍山市,雨山,臭氧1小时(O3_1h),112,32,44,31,24,223,223,130,130,9,23,4,4,0.4,0.6
2026-06-11T1200,4191A,118.527362,31.722269,马鞍山市,慈湖高新区,臭氧1小时(O3_1h),111,48,46,26,24,221,221,128,128,14,23,6,7,0.5,0.5
2026-06-11T1200,1686A,111.0285,21.469,茂名市,电白南海,颗粒物(PM10),51,51,37,30,22,81,81,39,39,14,11,10,12,0.7,0.8
2026-06-11T1200,1687A,110.9294,21.6533,茂名市,茂石化七小,,46,46,36,32,23,88,88,47,47,15,13,11,14,0.7,0.6
2026-06-11T1200,1688A,110.9108,21.6688,茂名市,健康路,,42,36,26,29,21,88,88,50,50,12,12,11,12,0.8,0.8
2026-06-11T1200,1689A,110.8592,21.6826,茂名市,高岭,颗粒物(PM10),56,58,37,34,23,62,62,37,37,15,11,13,14,/,/
2026-06-11T1200,3450A,111.0101,21.5165,茂名市,电白水东,细颗粒物(PM2.5),52,44,31,36,23,104,104,56,56,13,12,5,12,/,/
2026-06-11T1200,2540A,103.8414,30.0871,眉山市,气象局,,35,30,26,9,5,111,111,85,76,20,19,13,11,0.5,0.4
2026-06-11T1200,3148A,103.829,30.0563,眉山市,区人社局,,36,36,31,6,6,99,99,88,78,20,20,10,10,0.5,0.4
2026-06-11T1200,4148A,103.8836,30.0695,眉山市,眉职院,,36,36,22,14,6,102,102,85,74,14,14,9,10,0.7,0.6
2026-06-11T1200,1690A,116.1248,24.3307,梅州市,梅江月梅,,16,16,13,3,7,44,44,23,23,11,9,/,/,/,/
2026-06-11T1200,1691A,116.0798,24.2719,梅州市,梅县新城,,32,32,13,3,7,49,49,27,27,9,9,8,8,0.6,0.6
2026-06-11T1200,3315A,116.1234,24.2994,梅州市,梅龙,,21,NA,9,12,11,65,65,32,32,8,8,6,6,0.7,0.7
2026-06-11T1200,1878A,104.7775,31.4741,绵阳市,富乐山,,39,23,27,10,14,124,124,102,102,16,12,10,10,0.6,0.7
2026-06-11T1200,1880A,104.6698,31.4668,绵阳市,高新区自来水公司,,40,20,34,6,19,125,125,95,87,7,17,10,10,0.6,0.7
2026-06-11T1200,3491A,104.6899,31.5324,绵阳市,西科大附属小学,,41,14,45,6,28,129,129,93,82,8,21,6,6,0.2,0.4
2026-06-11T1200,3492A,104.5647,31.5343,绵阳市,安州区旅游局,,40,27,43,3,24,128,128,100,92,8,12,5,7,0.5,0.5
2026-06-11T1200,4146A,104.7092,31.4972,绵阳市,科技城新区公安局,NA,NA,NA,40,5,19,125,125,108,100,NA,15,10,10,0.4,0.5
2026-06-11T1200,4226A,104.765114,31.453094,绵阳市,绵阳市气象局,,38,23,30,8,15,119,119,103,95,13,15,7,8,0.4,0.5
2026-06-11T1200,1784A,129.61,44.561,牡丹江市,环保大楼,,32,9,18,3,6,102,102,50,50,5,10,4,4,0.2,0.2
2026-06-11T1200,1787A,129.6364,44.6075,牡丹江市,机车工厂,,31,16,27,7,13,97,97,49,49,4,11,6,6,0.2,0.2
2026-06-11T1200,1788A,129.6386,44.5462,牡丹江市,第一中学,,33,11,15,3,7,103,103,51,51,3,8,7,6,0.3,0.2
2026-06-11T1200,4287A,129.5992,44.5964,牡丹江市,东晓云街98号,,32,22,22,3,10,102,102,52,52,4,8,5,5,0.2,0.3
2026-06-11T1200,2531A,105.0703,29.61,内江市,市监测站,,33,27,26,6,22,103,103,43,43,11,15,10,10,0.5,0.7
2026-06-11T1200,2533A,105.0657,29.5807,内江市,内江二中,,32,26,36,7,24,100,100,46,46,6,14,8,8,0.4,0.6
2026-06-11T1200,2534A,105.0407,29.5828,内江市,内江日报社,,34,34,28,8,25,93,93,41,41,20,18,6,10,0.3,0.5
2026-06-11T1200,4147A,105.0433,29.6105,内江市,玉峰路西段888号,,30,21,32,7,22,93,93,39,39,16,19,9,10,0.5,0.7
2026-06-11T1200,2628A,92.0653,31.4846,那曲市,那曲监测站,NA,NA,NA,11,NA,10,131,131,131,122,18,9,4,5,0.4,0.4
2026-06-11T1200,4243A,92.0515,31.4787,那曲市,那曲市委宣传部,,44,NA,7,15,8,139,139,129,118,10,11,8,9,0.4,0.4
2026-06-11T1200,1291A,115.8887,28.7006,南昌市,省林业公司,,49,36,21,25,15,156,156,63,63,14,18,9,5,0.6,0.5
2026-06-11T1200,1292A,115.813,28.7443,南昌市,林科所,臭氧1小时(O3_1h),52,34,17,20,10,161,161,82,82,12,21,12,8,0.9,0.6
2026-06-11T1200,1294A,115.8518,28.687,南昌市,建工学校,,46,32,23,24,15,147,147,70,70,9,15,11,9,0.8,0.7
2026-06-11T1200,1295A,115.8926,28.6425,南昌市,象湖,NA,NA,NA,18,18,15,137,137,76,76,13,22,12,10,0.6,0.6
2026-06-11T1200,3046A,115.9084,28.6062,南昌市,机电学校,,43,36,29,15,15,137,137,69,69,8,21,10,7,0.5,0.5
2026-06-11T1200,3690A,115.9718,28.7032,南昌市,外国语学校,,39,26,24,12,16,122,122,80,80,6,13,14,13,0.6,0.6
2026-06-11T1200,4106A,115.7923,28.6873,南昌市,工业二路,,48,33,24,18,10,151,151,70,70,6,13,8,6,0.6,0.5
2026-06-11T1200,4192A,115.931587,28.686774,南昌市,南京东路235号,,46,43,30,17,14,147,147,86,86,13,20,12,6,1.3,0.8
2026-06-11T1200,1906A,106.0791,30.8022,南充市,南充市委,,38,38,34,23,22,70,70,66,64,17,12,7,7,0.3,0.3
2026-06-11T1200,1907A,106.1038,30.8215,南充市,南充炼油厂,,40,40,37,18,17,80,80,70,70,14,11,7,7,0.5,0.5
2026-06-11T1200,4227A,106.108336,30.788436,南充市,梨树横街98号,,39,38,36,27,23,80,80,74,74,16,13,9,9,0.6,0.6
2026-06-11T1200,4304A,106.1172,30.843,南充市,清泉寺北路188号,,47,47,37,22,21,82,82,75,68,15,12,8,9,0.4,0.4
2026-06-11T1200,4305A,106.067,30.7616,南充市,同庆路1号,,33,33,33,20,23,70,70,62,59,19,14,8,8,0.4,0.4
2026-06-11T1200,1151A,118.8033,32.1085,南京市,迈皋桥,臭氧1小时(O3_1h),124,53,42,28,21,248,248,136,136,26,21,18,10,1.1,0.6
2026-06-11T1200,1152A,118.7487,32.057,南京市,草场门,臭氧1小时(O3_1h),111,73,48,41,24,222,222,121,121,46,37,29,10,2.1,0.9
2026-06-11T1200,1154A,118.770105,32.004342,南京市,中华门,臭氧1小时(O3_1h),122,56,41,24,19,243,243,112,112,11,15,6,6,0.4,0.3
2026-06-11T1200,1155A,118.8059,32.0329,南京市,瑞金路,臭氧1小时(O3_1h),116,56,43,28,22,231,231,128,128,20,27,4,4,0.5,0.5
2026-06-11T1200,1156A,118.7946,32.0774,南京市,玄武湖,臭氧1小时(O3_1h),105,67,44,24,18,210,210,109,109,28,21,19,10,1.0,0.6
2026-06-11T1200,1157A,118.6415,32.0964,南京市,浦口,臭氧1小时(O3_1h),106,64,46,25,19,211,211,110,110,33,24,13,9,1.0,0.7
2026-06-11T1200,1158A,118.730129,32.000956,南京市,奥体中心,臭氧1小时(O3_1h),108,50,50,20,19,216,216,109,109,23,38,10,9,0.5,0.5
2026-06-11T1200,1159A,118.9072,32.1047,南京市,仙林大学城,臭氧1小时(O3_1h),120,53,47,28,21,239,239,118,118,24,26,12,7,0.9,0.7
2026-06-11T1200,3422A,118.8443,31.919,南京市,江宁彩虹桥,臭氧1小时(O3_1h),111,38,43,14,16,222,222,126,126,10,26,4,4,0.4,0.4
2026-06-11T1200,3427A,118.8497,32.3599,南京市,六合雄州,臭氧1小时(O3_1h),112,56,59,26,28,224,224,94,94,14,30,4,4,0.5,0.5
2026-06-11T1200,4086A,118.7641,32.0841,南京市,新模范马路66号,臭氧1小时(O3_1h),129,73,52,41,22,257,257,125,125,40,28,33,8,2.1,0.9
2026-06-11T1200,4249A,118.8707617,31.34017673,南京市,汶溪路181号,臭氧1小时(O3_1h),64,62,36,12,18,171,171,118,118,10,14,9,12,0.1,0.2
2026-06-11T1200,4312A,119.019,31.6512,南京市,中山西路1号,臭氧1小时(O3_1h),73,41,29,17,13,178,178,104,104,12,21,3,4,0.5,0.5
2026-06-11T1200,1401A,108.3098,22.788,南宁市,二十一中,,47,33,32,22,24,149,149,65,65,8,18,6,4,0.5,0.5
2026-06-11T1200,1402A,108.3135,22.8529,南宁市,北湖,,42,26,33,19,27,134,134,64,64,14,27,5,15,0.6,0.5
2026-06-11T1200,1403A,108.3205,22.8222,南宁市,市监测站,,49,39,34,15,22,155,155,77,77,6,15,6,10,0.6,0.6
2026-06-11T1200,1404A,108.3828,22.8038,南宁市,大自然花园,NA,NA,41,27,NA,19,151,151,74,74,12,19,7,8,0.5,0.5
2026-06-11T1200,1406A,108.2397,22.8462,南宁市,区农职院,NA,NA,99,41,20,22,146,146,74,74,14,15,6,9,NA,0.4
2026-06-11T1200,1407A,108.3285,22.7356,南宁市,英华嘉园,NA,NA,41,35,23,24,156,156,71,71,12,23,10,7,NA,0.5
2026-06-11T1200,3401A,108.4829,22.762,南宁市,红星社区,,50,34,27,20,19,158,158,76,76,9,17,7,7,0.5,0.4
2026-06-11T1200,4132A,108.2927,23.1477,南宁市,起凤路9号,,42,18,32,13,21,133,133,62,62,10,26,7,5,0.5,0.6
2026-06-11T1200,4221A,108.2177,22.7774,南宁市,乐贤路16号,臭氧1小时(O3_1h),53,46,41,32,25,162,162,70,70,23,30,11,8,0.7,0.6
2026-06-11T1200,2332A,118.1682,26.6371,南平市,南平市监测站,,20,20,18,6,10,45,45,29,29,7,8,4,4,0.4,0.4
2026-06-11T1200,2334A,118.1757,26.6276,南平市,南平七中,,19,19,18,7,5,49,49,24,24,7,8,3,3,0.3,0.3
2026-06-11T1200,1168A,120.9056,31.9669,南通市,狼山街道,臭氧1小时(O3_1h),114,45,26,26,15,228,228,107,107,18,29,11,7,1.7,0.8
2026-06-11T1200,1170A,120.8635,32.0231,南通市,城中,臭氧1小时(O3_1h),108,71,40,3,14,216,216,119,119,33,32,11,6,1.1,0.6
2026-06-11T1200,1171A,120.9376,31.9301,南通市,星湖花园,臭氧1小时(O3_1h),110,53,47,19,19,219,219,108,108,18,31,9,11,0.7,0.6
2026-06-11T1200,1172A,120.8053,32.046,南通市,紫琅学院,臭氧1小时(O3_1h),90,65,38,17,16,192,192,111,111,36,34,19,10,1.8,1.1
2026-06-11T1200,3291A,121.0631,32.0644,南通市,通州监测站,臭氧1小时(O3_1h),116,48,38,15,18,232,232,117,117,15,21,10,7,0.9,0.6
2026-06-11T1200,3432A,120.9348,31.9874,南通市,环境教育馆,臭氧1小时(O3_1h),108,NA,41,18,16,215,215,104,104,18,33,10,7,1.0,0.6
2026-06-11T1200,4091A,120.8692,31.9885,南通市,洪江路,臭氧1小时(O3_1h),107,50,29,22,16,213,213,114,114,21,32,10,6,1.0,0.7
2026-06-11T1200,2404A,112.5338,33.0086,南阳市,瓦房庄,NA,NA,NA,40,NA,18,166,166,105,105,10,10,8,7,0.7,0.6
2026-06-11T1200,2405A,112.5002,32.9734,南阳市,汉画馆,颗粒物(PM10),54,55,47,19,21,156,156,95,95,14,18,9,8,0.5,0.4
2026-06-11T1200,2406A,112.5778,33.0144,南阳市,气象站,颗粒物(PM10),59,62,43,30,18,164,164,95,95,14,13,10,8,0.4,0.4
2026-06-11T1200,2407A,112.548,32.9687,南阳市,理工学院,臭氧1小时(O3_1h),59,59,41,31,22,167,167,102,102,20,19,10,8,0.4,0.3
2026-06-11T1200,4008A,112.5233,32.9921,南阳市,卧龙区政府,细颗粒物(PM2.5),60,46,38,40,21,162,162,103,103,16,14,8,7,0.7,0.5
2026-06-11T1200,1234A,121.8352,29.9111,宁波市,区环保大楼,,32,32,29,10,12,86,86,77,67,57,32,14,8,0.5,0.3
2026-06-11T1200,1235A,121.5595,29.8208,宁波市,万里学院,,49,28,35,8,18,156,156,94,94,15,18,6,7,0.4,0.4
2026-06-11T1200,1236A,121.713,29.9564,宁波市,龙赛医院,,47,22,34,7,15,148,148,92,92,18,19,6,6,0.3,0.4
2026-06-11T1200,1240A,121.5855,29.8635,宁波市,太古小学,,43,16,28,8,15,136,136,94,94,14,18,5,5,0.1,0.2
2026-06-11T1200,1241A,121.5239,29.8673,宁波市,市环境监测中心,,45,33,33,10,17,142,142,88,88,16,18,5,5,0.2,0.3
2026-06-11T1200,2871A,121.6156,29.9015,宁波市,万里国际学校,,46,16,22,10,16,147,147,102,102,9,13,7,7,0.3,0.4
2026-06-11T1200,3710A,121.5593,29.8976,宁波市,白沙活动中心,,47,22,23,10,16,150,150,100,100,14,17,8,8,0.5,0.4
2026-06-11T1200,4095A,121.8962,29.7529,宁波市,中科路88号,,40,23,23,16,16,125,125,79,79,2,9,7,6,0.2,0.2
2026-06-11T1200,2341A,119.5387,26.6611,宁德市,宁德市监测站,,36,36,20,17,10,58,58,40,40,22,16,5,5,0.7,0.7
2026-06-11T1200,3209A,119.5231,26.6562,宁德市,宁德一中,,36,36,20,20,12,58,58,52,51,21,11,8,8,0.9,0.8
2026-06-11T1200,2618A,98.859,25.8541,怒江傈僳族自治州,州监测站,,16,11,12,6,6,51,51,48,48,2,2,4,4,0.5,0.5
2026-06-11T1200,2619A,98.8607,25.8168,怒江傈僳族自治州,泸水一中,,18,18,10,8,10,44,44,40,38,10,9,4,4,0.5,0.8
2026-06-11T1200,1888A,101.6891,26.571,攀枝花市,弄弄坪,,25,25,27,16,11,74,74,62,58,12,10,3,5,0.5,0.5
2026-06-11T1200,1889A,101.577,26.5914,攀枝花市,河门口,颗粒物(PM10),52,52,26,23,11,68,68,68,65,15,9,12,11,0.8,0.5
2026-06-11T1200,1891A,101.7365,26.4986,攀枝花市,仁和,,22,17,23,14,16,70,70,54,54,8,10,4,8,0.5,0.7
2026-06-11T1200,2835A,101.7222,26.567,攀枝花市,四十中小,,35,NA,18,24,14,64,64,59,50,16,13,11,14,1.0,1.1
2026-06-11T1200,1604A,122.0303,41.1489,盘锦市,开发区,,42,38,20,13,12,134,134,97,97,9,8,11,8,0.2,0.3
2026-06-11T1200,1605A,122.0486,41.0883,盘锦市,兴隆台,NA,NA,37,16,NA,22,102,102,84,84,13,12,11,7,0.5,0.4
2026-06-11T1200,1606A,121.8297,41.1026,盘锦市,新生街道,,35,22,14,13,15,112,112,68,68,16,16,9,8,0.3,0.3
2026-06-11T1200,1832A,113.3257,33.7423,平顶山市,新华旅馆,臭氧1小时(O3_1h),83,75,57,30,20,186,186,114,114,13,15,6,5,0.7,0.7
2026-06-11T1200,1833A,113.2917,33.737,平顶山市,规划设计院,颗粒物(PM10),77,87,51,25,20,180,180,110,110,12,11,8,6,0.5,0.4
2026-06-11T1200,1834A,113.182,33.7738,平顶山市,平顶山工学院,臭氧1小时(O3_1h),83,90,48,34,23,186,186,113,113,16,14,9,8,0.5,0.4
2026-06-11T1200,3594A,112.8736,33.9068,平顶山市,石龙区,颗粒物(PM10),55,56,55,18,16,161,161,91,91,9,20,11,7,0.5,0.4
2026-06-11T1200,4116A,113.284,33.7139,平顶山市,姚电大道23号,臭氧1小时(O3_1h),93,100,55,26,20,194,194,110,110,12,16,11,9,0.7,0.6
2026-06-11T1200,2656A,106.6633,35.5338,平凉市,聚贤嘉苑,,45,45,42,18,12,127,127,82,82,14,19,12,10,0.6,0.5
2026-06-11T1200,2657A,106.7021,35.5307,平凉市,博物馆,,44,44,38,18,12,132,132,84,84,13,16,9,11,0.4,0.5
2026-06-11T1200,2348A,113.8384,27.6436,萍乡市,中医院,,40,NA,29,18,17,128,128,69,69,8,17,8,9,0.4,0.5
2026-06-11T1200,2350A,113.8677,27.6438,萍乡市,市环保局,,41,25,34,18,19,130,130,69,69,3,18,11,12,0.3,0.6
2026-06-11T1200,2351A,113.8663,27.6202,萍乡市,安源区政府,,44,30,33,14,19,138,138,80,80,8,15,10,10,0.5,0.6
2026-06-11T1200,4107A,113.8686,27.6668,萍乡市,联洪村委会,,37,NA,28,17,18,118,118,70,70,4,13,9,11,0.5,0.5
2026-06-11T1200,2319A,119.0142,25.4324,莆田市,荔城区仓后路,,38,38,21,13,10,108,108,84,84,12,12,/,/,/,/
2026-06-11T1200,2320A,119.0016,25.4553,莆田市,莆田市监测站,,34,22,16,10,5,107,107,82,82,7,6,4,4,0.4,0.4
2026-06-11T1200,2321A,119.112,25.4561,莆田市,涵江区六中,,37,30,22,3,8,116,116,81,81,10,12,/,/,0.7,0.7
2026-06-11T1200,2322A,119.1014,25.3215,莆田市,秀屿区政府,,45,45,24,23,14,122,122,76,76,12,14,6,5,0.6,0.7
2026-06-11T1200,2392A,115.0312,35.7636,濮阳市,环保局,臭氧1小时(O3_1h),74,39,44,22,13,179,179,132,132,9,13,6,7,0.5,0.5
2026-06-11T1200,3021A,115,35.7667,濮阳市,濮水河管理处,臭氧1小时(O3_1h),64,34,46,17,15,171,171,114,114,12,15,6,6,0.5,0.6
2026-06-11T1200,4118A,115.0552,35.7816,濮阳市,中原东路68号,臭氧1小时(O3_1h),72,35,51,21,13,177,177,126,126,9,13,5,6,0.4,0.4
2026-06-11T1200,4216A,115.0923632,35.76857718,濮阳市,任丘路479号,臭氧1小时(O3_1h),79,39,51,7,15,183,183,128,128,8,12,4,5,0.3,0.2
2026-06-11T1200,2601A,100.9801,22.7634,普洱市,市环保局,,28,28,21,3,10,46,46,42,42,6,4,5,5,0.7,0.6
2026-06-11T1200,2602A,100.9763,22.8237,普洱市,普洱第二中学,,20,18,23,14,7,48,48,39,39,4,6,7,7,0.9,0.8
2026-06-11T1200,3345A,131.0413,45.7795,七台河市,中波台,,32,15,11,3,9,100,100,74,74,5,9,5,4,0.3,0.4
2026-06-11T1200,3637A,131.0136,45.7688,七台河市,人民广场,,37,37,20,10,9,97,97,69,69,8,11,8,6,0.4,0.4
2026-06-11T1200,3684A,130.8639,45.8144,七台河市,新建矿广场,,30,19,19,3,11,95,95,60,60,7,12,9,8,0.2,0.3
2026-06-11T1200,1779A,123.9307,47.3641,齐齐哈尔市,安居小区,,35,29,22,3,9,111,111,73,73,9,8,4,3,0.6,0.6
2026-06-11T1200,1780A,123.9497,47.3389,齐齐哈尔市,中心广场,NA,NA,16,20,9,10,103,103,51,NA,11,13,NA,4,0.4,0.4
2026-06-11T1200,1781A,123.9483,47.3229,齐齐哈尔市,农牧车辆厂,,35,29,26,3,8,110,110,75,75,11,10,9,8,0.7,0.6
2026-06-11T1200,1783A,123.9442,47.2994,齐齐哈尔市,市环境监测站,,33,19,18,3,10,105,105,66,66,10,12,4,3,0.6,0.5
2026-06-11T1200,3662A,123.6341,47.2079,齐齐哈尔市,富区青少年活动中心,,34,33,32,8,14,106,106,62,62,14,24,5,5,0.3,0.3
2026-06-11T1200,2591A,107.9765,26.5724,黔东南苗族侗族自治州,市环境监测站,NA,NA,21,18,15,11,84,84,43,43,8,12,NA,2,NA,0.4
2026-06-11T1200,2881A,107.8909,26.531,黔东南苗族侗族自治州,凯里学院,,31,NA,9,20,12,98,98,49,49,6,10,2,2,0.2,0.2
2026-06-11T1200,2593A,107.5223,26.2371,黔南布依族苗族自治州,小围寨,,28,17,12,13,9,87,87,45,45,8,8,7,6,0.5,0.4
2026-06-11T1200,3538A,107.5175,26.2977,黔南布依族苗族自治州,沙坝,,27,22,19,6,8,86,86,43,43,6,8,5,4,0.4,0.4
2026-06-11T1200,2589A,104.9022,25.0943,黔西南布依族苗族自治州,场坝街,,35,21,25,17,19,110,110,70,70,8,11,9,16,0.2,0.2
2026-06-11T1200,2590A,104.8812,25.0994,黔西南布依族苗族自治州,坪东大道,,34,NA,24,15,18,106,106,69,69,7,11,11,8,0.3,0.3
2026-06-11T1200,2502A,108.6238,21.9667,钦州市,市环保站,,43,34,36,20,16,135,135,74,74,9,14,2,2,0.9,0.9
2026-06-11T1200,2503A,108.655,21.9481,钦州市,沙埠小学,,46,46,48,20,25,122,122,61,61,6,26,3,3,0.6,0.6
2026-06-11T1200,2504A,108.5989,21.7435,钦州市,港区一小,,42,41,37,24,20,133,133,74,74,9,14,8,5,1.0,1
2026-06-11T1200,3404A,108.5959,21.9634,钦州市,北职校,,46,42,38,20,20,145,145,70,70,8,15,5,4,0.7,0.6
2026-06-11T1200,1046A,119.5247,39.9346,秦皇岛市,建设大厦,,33,33,39,9,12,102,102,51,51,7,35,5,7,0.2,0.3
2026-06-11T1200,3132A,119.5979,39.938,秦皇岛市,文明里,,33,26,34,3,12,104,104,54,54,10,25,5,6,0.3,0.4
2026-06-11T1200,4066A,119.7458,39.9952,秦皇岛市,南园路157号,,29,19,33,6,10,92,92,48,48,17,32,8,8,0.2,0.3
2026-06-11T1200,4067A,119.5131,39.8858,秦皇岛市,翠岛大街1号,,32,10,26,3,10,102,102,54,54,6,20,10,10,0.2,0.4
2026-06-11T1200,4198A,119.509013,39.825305,秦皇岛市,北戴河轮滑馆,,32,15,25,3,11,101,101,61,61,12,15,12,9,0.3,0.4
2026-06-11T1200,1310A,120.404,36.0625,青岛市,市南区东部子站,细颗粒物(PM2.5),68,48,34,44,18,126,126,57,57,28,32,8,7,0.3,0.3
2026-06-11T1200,1311A,120.362344,36.10282,青岛市,四方区子站,臭氧1小时(O3_1h),70,36,31,12,11,176,176,96,96,13,29,13,9,0.6,0.6
2026-06-11T1200,1312A,120.294373,36.054183,青岛市,市南区西部子站,细颗粒物(PM2.5),78,58,28,49,13,158,158,90,90,47,37,8,6,0.7,0.5
2026-06-11T1200,1313A,120.4581,36.0858,青岛市,崂山区子站,NA,NA,34,32,33,19,129,129,66,66,8,28,7,8,NA,0.3
2026-06-11T1200,1315A,120.3945,36.3083,青岛市,城阳区子站,,50,31,28,10,12,158,158,99,99,13,22,7,7,0.4,0.4
2026-06-11T1200,3642A,120.3454,36.0735,青岛市,市北区南部,臭氧1小时(O3_1h),57,33,28,21,11,165,165,83,83,21,35,5,5,0.6,0.5
2026-06-11T1200,3643A,120.3897,36.18,青岛市,李沧区北部,臭氧1小时(O3_1h),59,31,26,15,11,167,167,92,92,10,21,12,11,0.5,0.5
2026-06-11T1200,4110A,120.5222,36.4089,青岛市,盟旺路653号,,49,29,33,7,13,156,156,94,94,9,16,7,7,0.6,0.7
2026-06-11T1200,4290A,120.196923,35.954556,青岛市,珠江路669号,细颗粒物(PM2.5),74,61,45,47,25,167,167,79,79,40,35,8,6,0.6,0.5
2026-06-11T1200,4291A,120.0424,35.8656,青岛市,黄岛区人民政府广场,,46,46,48,10,28,143,143,112,112,20,25,11,10,0.7,0.7
2026-06-11T1200,1703A,113.0218,23.7086,清远市,凤城街办,,32,31,22,17,14,100,100,54,54,14,12,/,/,/,/
2026-06-11T1200,3025A,113.0479,23.6343,清远市,技师学院,,32,15,20,8,11,100,100,52,52,2,6,5,5,0.5,0.5
2026-06-11T1200,3318A,112.9898,23.7403,清远市,清新太和,,32,30,19,19,12,100,100,58,58,14,11,6,6,0.5,0.5
2026-06-11T1200,3455A,113.076,23.72,清远市,清城东城,,31,26,22,13,13,98,98,53,53,8,9,/,/,/,/
2026-06-11T1200,2661A,107.6325,35.7357,庆阳市,庆阳五中,,43,36,30,7,7,137,137,109,109,7,11,4,5,0.3,0.3
2026-06-11T1200,2662A,107.6361,35.7067,庆阳市,市环保局,,39,35,31,12,9,124,124,116,114,8,11,3,4,0.3,0.2
2026-06-11T1200,1916A,103.7897,25.5036,曲靖市,环境监测站,,36,26,21,15,9,115,115,100,100,10,9,8,7,0.3,0.2
2026-06-11T1200,1917A,103.8013,25.5357,曲靖市,烟厂办公区,,34,27,17,13,8,108,108,98,96,7,7,4,4,0.4,0.4
2026-06-11T1200,3376A,103.7926,25.4651,曲靖市,南苑二区,,38,38,18,14,8,101,101,89,89,13,12,4,4,0.3,0.2
2026-06-11T1200,3377A,103.7442,25.5259,曲靖市,曲靖师范学院,,37,29,19,19,10,116,116,89,89,10,11,5,4,0.4,0.3
2026-06-11T1200,1264A,118.8694,28.94,衢州市,环保大楼,颗粒物(PM10),54,55,23,28,13,156,156,63,63,20,23,/,/,/,/
2026-06-11T1200,1266A,118.8622,28.9809,衢州市,衢州学院,,49,28,19,20,12,154,154,52,52,14,32,5,4,0.4,0.4
2026-06-11T1200,4097A,118.9646,28.9832,衢州市,衢州三中,,44,31,18,18,12,138,138,60,60,15,24,6,5,0.5,0.4
2026-06-11T1200,1611A,118.5818,24.9116,泉州市,涂山街,,38,27,18,17,11,119,119,88,88,12,12,4,4,0.5,0.5
2026-06-11T1200,1612A,118.597,24.8976,泉州市,津头埔,,39,36,19,20,12,122,122,90,90,13,12,3,3,0.7,0.7
2026-06-11T1200,1613A,118.6669,24.9422,泉州市,万安,,41,28,22,18,12,129,129,86,86,12,16,5,4,0.4,0.4
2026-06-11T1200,4105A,118.6355,24.9148,泉州市,霞新路6号,,42,26,18,22,12,132,132,86,86,14,16,/,/,0.5,0.5
2026-06-11T1200,2626A,88.8873,29.2723,日喀则市,日喀则监测站,,43,7,13,3,3,136,136,120,120,4,4,5,6,0.4,0.4
2026-06-11T1200,3726A,88.8775,29.2425,日喀则市,林业技术推广中心,,41,8,12,3,2,131,131,116,116,2,3,9,9,0.4,0.4
2026-06-11T1200,1659A,119.4711,35.421,日照市,监测站,,49,27,37,3,28,156,156,107,107,15,32,8,9,0.4,0.6
2026-06-11T1200,1660A,119.523,35.4216,日照市,市政府广场,,49,19,39,6,22,156,156,110,110,15,26,7,7,0.7,0.8
2026-06-11T1200,1661A,119.5511,35.4113,日照市,港务局,颗粒物(PM10),63,68,41,10,28,142,142,110,110,32,22,12,8,1.1,0.7
2026-06-11T1200,3507A,119.5326,35.4627,日照市,职业技术学院,臭氧1小时(O3_1h),54,22,40,3,27,163,163,116,116,16,23,8,8,0.6,0.7
2026-06-11T1200,3604A,119.3267,35.1043,日照市,岚山环保分局,,48,31,48,7,21,152,152,106,106,16,26,15,15,0.9,1.1
2026-06-11T1200,1835A,111.1922,34.7752,三门峡市,市政府,颗粒物(PM10),56,58,33,20,11,157,157,96,96,10,18,13,11,0.3,0.1
2026-06-11T1200,1836A,111.1588,34.794,三门峡市,开发区,臭氧1小时(O3_1h),54,49,32,24,12,163,163,94,94,14,14,11,10,0.6,0.5
2026-06-11T1200,3039A,111.1911,34.7829,三门峡市,三门峡市第一小学,颗粒物(PM10),73,81,36,17,11,161,161,92,92,11,16,14,12,0.4,0.2
2026-06-11T1200,3598A,111.1031,34.719,三门峡市,富达温泉假日酒店,颗粒物(PM10),61,65,42,19,12,155,155,88,88,17,20,11,8,0.6,0.5
2026-06-11T1200,2324A,117.621,26.2626,三明市,三钢,,22,20,13,15,12,65,65,52,52,9,10,5,4,0.5,0.4
2026-06-11T1200,2325A,117.6352,26.2714,三明市,三明二中,,26,26,18,12,10,64,64,50,50,8,8,3,2,0.6,0.6
2026-06-11T1200,2326A,117.6028,26.2377,三明市,三元区政府,,23,21,14,9,9,71,71,49,49,5,9,4,5,0.4,0.6
2026-06-11T1200,1877A,109.4962,18.2682,三亚市,河西子站,,37,16,16,8,8,116,116,84,83,5,7,3,3,0.6,0.5
2026-06-11T1200,3540A,109.7348,18.3443,三亚市,君悦子站,,27,25,17,10,9,86,86,53,52,6,8,2,2,0.7,0.7
2026-06-11T1200,4135A,109.1714,18.3739,三亚市,城东小学站,,33,27,22,13,15,105,105,58,58,5,8,/,/,/,/
2026-06-11T1200,2624A,91.7592,29.234,山南市,山南监测站,,45,6,8,3,2,144,144,142,142,3,2,8,8,0.2,0.2
2026-06-11T1200,2625A,91.7701,29.2436,山南市,山南人民医院,,47,12,10,3,2,149,149,142,142,3,2,7,7,0.2,0.2
2026-06-11T1200,1674A,116.6795,23.3666,汕头市,金平子站,,39,21,16,11,9,123,123,105,104,11,8,7,4,0.6,0.6
2026-06-11T1200,1675A,116.7248,23.3632,汕头市,龙湖子站,,36,15,17,14,10,114,114,99,98,8,6,10,6,/,/
2026-06-11T1200,1676A,116.7257,23.2774,汕头市,濠江子站,,37,26,17,10,8,116,116,102,101,9,8,9,8,/,/
2026-06-11T1200,1677A,116.7518,23.4712,汕头市,澄海子站,,35,20,17,9,9,110,110,92,92,8,9,4,4,0.6,0.6
2026-06-11T1200,1678A,116.6088,23.2539,汕头市,潮阳子站,,37,12,14,9,8,118,118,104,101,7,6,7,6,0.6,0.6
2026-06-11T1200,3444A,116.4539,23.2684,汕头市,潮南峡山,,41,18,17,11,8,131,131,102,102,9,7,8,6,0.8,0.8
2026-06-11T1200,3624A,116.4069,23.2533,汕头市,潮南子站,,38,30,20,12,10,119,119,91,91,13,12,7,6,/,/
2026-06-11T1200,1693A,115.3653,22.7751,汕尾市,市环保局,,27,NA,17,7,8,84,84,69,69,7,8,5,5,0.5,0.6
2026-06-11T1200,1695A,115.362,22.7926,汕尾市,新城中学,,27,26,15,8,9,86,86,67,67,4,6,6,6,0.5,0.6
2026-06-11T1200,2645A,109.9155,33.8714,商洛市,监测站,,42,28,24,13,10,132,132,68,68,10,13,7,8,0.6,0.5
2026-06-11T1200,3045A,109.9647,33.8486,商洛市,商州区中学,,41,26,27,12,11,131,131,76,76,8,12,10,9,0.7,0.6
2026-06-11T1200,2408A,115.6701,34.4283,商丘市,环境监测站,臭氧1小时(O3_1h),69,49,54,18,20,175,175,124,124,7,10,5,5,0.4,0.4
2026-06-11T1200,2409A,115.6458,34.4047,商丘市,粮食局,臭氧1小时(O3_1h),58,47,41,10,21,166,166,118,118,8,11,7,7,0.4,0.4
2026-06-11T1200,3171A,115.6069,34.4465,商丘市,梁园区档案局,臭氧1小时(O3_1h),62,55,49,11,19,169,169,121,121,9,12,3,3,0.2,0.3
2026-06-11T1200,4119A,115.6701,34.3767,商丘市,北海东路185号,臭氧1小时(O3_1h),64,44,49,16,20,171,171,123,123,10,17,5,5,0.4,0.4
2026-06-11T1200,4120A,115.6172,34.3704,商丘市,中山大街3号,臭氧1小时(O3_1h),62,47,56,16,21,169,169,120,120,6,12,8,7,0.4,0.4
2026-06-11T1200,1141A,121.401,31.2382,上海市,普陀,臭氧1小时(O3_1h),107,34,30,20,17,213,213,118,118,20,23,7,6,0.3,0.2
2026-06-11T1200,1142A,121.4774,31.2043,上海市,十五厂,臭氧1小时(O3_1h),108,37,33,20,20,215,215,113,113,18,18,8,6,0.6,0.5
2026-06-11T1200,1143A,121.4673,31.3011,上海市,虹口,臭氧1小时(O3_1h),100,37,29,24,17,200,200,112,112,14,19,5,5,0.6,0.5
2026-06-11T1200,1147A,121.4253,31.226,上海市,静安监测站,臭氧1小时(O3_1h),105,26,30,22,19,210,210,116,116,22,21,10,9,0.8,0.6
2026-06-11T1200,1148A,121.7029,31.1905,上海市,浦东川沙,臭氧1小时(O3_1h),83,17,33,12,20,186,186,116,116,10,18,7,7,0.7,0.7
2026-06-11T1200,1149A,121.5339,31.229,上海市,浦东新区监测站,臭氧1小时(O3_1h),83,34,28,20,17,186,186,108,108,12,14,9,7,0.5,0.4
2026-06-11T1200,1150A,121.5776,31.2038,上海市,浦东张江,臭氧1小时(O3_1h),101,29,28,16,18,201,201,125,125,12,17,7,7,0.3,0.2
2026-06-11T1200,3265A,121.4242,31.3303,上海市,宝山庙行,臭氧1小时(O3_1h),102,36,31,22,17,204,204,118,118,17,25,11,11,0.4,0.3
2026-06-11T1200,3266A,121.8789,31.4662,上海市,崇明上实东滩,,44,27,21,22,18,138,138,98,98,29,19,9,8,0.2,0.2
2026-06-11T1200,3268A,121.316,31.2839,上海市,嘉定南翔,臭氧1小时(O3_1h),101,37,32,18,18,201,201,98,98,19,33,6,13,0.5,0.4
2026-06-11T1200,3269A,121.3357,30.7455,上海市,金山新城,,49,25,22,18,16,156,156,114,114,9,8,5,4,0.5,0.5
2026-06-11T1200,3270A,121.4996,31.0741,上海市,闵行浦江,颗粒物(PM10),68,74,36,12,20,170,170,105,105,11,15,6,6,0.1,0.1
2026-06-11T1200,3271A,121.2886,31.1663,上海市,青浦徐泾,臭氧1小时(O3_1h),83,30,29,20,19,186,186,100,100,13,17,6,6,0.3,0.4
2026-06-11T1200,3272A,121.2193,31.0382,上海市,松江图书馆,NA,NA,NA,45,NA,27,NA,NA,166,85,NA,17,NA,8,NA,0.1
2026-06-11T1200,3273A,121.3904,31.206,上海市,长宁仙霞,臭氧1小时(O3_1h),97,39,31,13,18,197,197,106,106,23,21,8,7,0.3,0.2
2026-06-11T1200,3274A,121.7964,31.0507,上海市,浦东惠南,臭氧1小时(O3_1h),59,12,32,9,19,167,167,96,96,12,21,8,7,0.8,0.8
2026-06-11T1200,3544A,121.4891,30.925,上海市,奉贤南桥新城,臭氧1小时(O3_1h),54,24,26,14,17,163,163,107,107,12,17,8,8,0.4,0.3
2026-06-11T1200,4183A,121.417401,31.16637,上海市,冠生园路458号,臭氧1小时(O3_1h),85,24,28,17,18,188,188,99,99,16,21,7,6,0.6,0.5
2026-06-11T1200,4205A,121.541914,31.268301,上海市,宁武路151号,臭氧1小时(O3_1h),93,44,36,16,17,194,194,109,109,21,25,10,8,0.3,0.2
2026-06-11T1200,2382A,117.9758,28.4439,上饶市,市监测站,,45,42,37,23,19,143,143,64,64,3,12,16,14,/,/
2026-06-11T1200,2383A,117.9521,28.4637,上饶市,凤凰光学,,47,33,36,19,19,150,150,61,61,8,19,15,15,0.6,0.4
