timepoint,stationcode,longitude,latitude,area,positionname,primarypollutant,aqi,pm10,pm10_24h,pm2_5,pm2_5_24h,o3,o3_24h,o3_8h,o3_8h_24h,no2,no2_24h,so2,so2_24h,co,co_24h
2026-05-31T2200,2568A,102.2503,31.8896,阿坝藏族羌族自治州,马师校,,32,32,14,6,7,66,66,82,81,6,4,7,7,0.3,0.3
2026-05-31T2200,3994A,102.2174,31.9016,阿坝藏族羌族自治州,马尔康中学西区,,32,32,13,8,8,70,70,81,81,6,5,5,6,0.3,0.3
2026-05-31T2200,2695A,80.2899,41.1684,阿克苏地区,电视台,颗粒物(PM10),149,245,281,107,111,85,85,88,87,23,23,3,3,0.8,0.9
2026-05-31T2200,2696A,80.2592,41.1541,阿克苏地区,艺术中心,细颗粒物(PM2.5),139,199,255,102,117,85,85,95,94,31,31,4,4,0.7,0.8
2026-05-31T2200,2205A,105.699,38.8409,阿拉善盟,蒙二幼,,40,40,134,8,42,76,76,116,102,14,3,7,7,0.4,0.2
2026-05-31T2200,2206A,105.7198,38.8508,阿拉善盟,环保局新楼,,29,28,114,8,40,92,92,118,97,4,3,9,10,0.3,0.3
2026-05-31T2200,2708A,88.1266,47.8515,阿勒泰地区,市站,,30,30,28,11,4,64,64,105,99,35,10,10,6,0.3,0.2
2026-05-31T2200,4166A,88.1198,47.7931,阿勒泰地区,阿勒泰路33号,,30,23,28,3,5,96,96,103,103,10,7,5,4,0.2,0.2
2026-05-31T2200,2630A,80.1171,32.4999,阿里地区,阿里监测站,,41,7,12,3,2,130,130,137,135,2,7,7,7,0.4,0.4
2026-05-31T2200,3192A,80.0906,32.5029,阿里地区,阿里藏医院,,41,6,8,3,3,131,131,138,137,1,3,7,7,0.4,0.3
2026-05-31T2200,2644A,109.0088,32.6974,安康市,汉滨区检察院,,41,41,35,22,20,45,45,101,90,14,10,7,14,0.5,0.5
2026-05-31T2200,4054A,109.0324,32.6913,安康市,市邮政管理局,,50,50,38,32,24,50,50,108,94,17,10,7,6,0.6,0.5
2026-05-31T2200,2291A,117.0806,30.5181,安庆市,环科院,颗粒物(PM10),65,70,59,39,40,116,116,223,192,68,26,9,9,0.7,0.7
2026-05-31T2200,2292A,117.0331,30.5118,安庆市,马山宾馆,颗粒物(PM10),63,68,62,41,41,102,102,222,189,87,26,10,10,0.7,0.7
2026-05-31T2200,2294A,116.9897,30.6146,安庆市,安庆大学,细颗粒物(PM2.5),76,62,56,48,37,119,119,203,186,19,13,3,4,0.6,0.6
2026-05-31T2200,3173A,117.0598,30.5351,安庆市,市人大,细颗粒物(PM2.5),66,62,61,43,41,135,135,226,199,36,21,6,6,0.7,0.7
2026-05-31T2200,3123A,105.9408,26.2431,安顺市,凤凰山,,33,33,34,17,20,78,78,103,100,9,9,7,6,0.7,0.7
2026-05-31T2200,3124A,105.9443,26.2567,安顺市,金钟山,,33,33,32,18,19,79,79,103,100,6,6,8,7,0.5,0.6
2026-05-31T2200,3125A,105.8983,26.248,安顺市,娄家坡,,35,30,32,24,20,80,80,108,104,8,6,9,8,0.7,0.6
2026-05-31T2200,1819A,114.3552,36.1017,安阳市,红庙街,颗粒物(PM10),78,88,62,28,23,144,144,169,166,12,12,18,10,0.5,0.5
2026-05-31T2200,1820A,114.361,36.0681,安阳市,银杏小区,颗粒物(PM10),109,141,71,32,24,147,147,175,172,15,15,6,14,0.5,0.4
2026-05-31T2200,3141A,114.3921,36.0879,安阳市,信访局,颗粒物(PM10),77,87,68,30,26,154,154,182,178,16,13,3,4,0.4,0.3
2026-05-31T2200,3669A,114.4706,36.0634,安阳市,左辅环卫站,颗粒物(PM10),80,92,77,26,25,134,134,171,164,15,15,2,4,0.5,0.6
2026-05-31T2200,4117A,114.2918,36.0769,安阳市,钢三路198号,颗粒物(PM10),67,73,58,27,23,135,135,160,155,12,13,4,5,0.4,0.5
2026-05-31T2200,1748A,123.0441,41.1201,鞍山市,深沟寺,臭氧1小时(O3_1h),78,56,46,23,18,182,182,169,166,10,12,8,10,0.5,0.6
2026-05-31T2200,1749A,123.011,41.0931,鞍山市,太阳城,臭氧1小时(O3_1h),88,50,42,25,20,190,190,172,171,8,12,9,10,0.6,0.7
2026-05-31T2200,1750A,123.0483,41.1445,鞍山市,太平,臭氧1小时(O3_1h),83,57,59,22,20,186,186,172,171,13,14,9,10,0.8,0.8
2026-05-31T2200,1751A,122.964,41.0968,鞍山市,铁西三道街,NA,NA,63,65,29,22,NA,NA,179,174,14,16,8,9,0.5,0.7
2026-05-31T2200,1753A,123.0219,41.0822,鞍山市,明达新区,臭氧1小时(O3_1h),79,44,44,24,19,183,183,166,165,9,11,8,9,0.5,0.6
2026-05-31T2200,4201A,122.944647,41.082639,鞍山市,兴盛南路290号,臭氧1小时(O3_1h),74,73,72,24,23,179,179,171,168,16,19,9,11,0.9,1.1
2026-05-31T2200,2195A,107.4206,40.7609,巴彦淖尔市,附二中,颗粒物(PM10),54,55,114,21,39,78,78,110,102,14,6,8,9,0.4,0.4
2026-05-31T2200,2196A,107.37,40.7372,巴彦淖尔市,市环保大楼,,43,43,111,14,38,69,69,113,102,18,6,7,8,0.4,0.4
2026-05-31T2200,1956A,86.1476,41.7529,巴音郭楞蒙古自治州,孔雀公园,颗粒物(PM10),378,482,200,178,73,81,81,97,92,14,30,4,4,0.2,0.3
2026-05-31T2200,1957A,86.1971,41.7166,巴音郭楞蒙古自治州,棉纺厂,细颗粒物(PM2.5),242,365,248,192,95,89,89,106,101,15,15,/,/,/,/
2026-05-31T2200,1958A,86.236,41.7172,巴音郭楞蒙古自治州,经济开发区,颗粒物(PM10),262,393,198,152,72,88,88,108,96,13,6,2,2,0.3,0.2
2026-05-31T2200,3181A,106.776805,31.852614,巴中市,市五中,细颗粒物(PM2.5),72,49,32,46,22,39,39,105,92,23,16,7,7,0.8,0.7
2026-05-31T2200,3183A,106.7419,31.8654,巴中市,圣泉水务公司,细颗粒物(PM2.5),60,48,32,40,22,23,23,108,97,49,20,8,8,0.8,0.5
2026-05-31T2200,3616A,106.7617,31.8343,巴中市,市中心医院,细颗粒物(PM2.5),72,59,39,46,28,36,36,114,96,35,19,7,7,0.9,0.8
2026-05-31T2200,2235A,122.7909,45.608,白城市,洮北区环保局,颗粒物(PM10),54,55,85,24,25,110,110,189,127,4,9,4,4,0.2,0.4
2026-05-31T2200,2236A,122.8741,45.5725,白城市,市环保局,颗粒物(PM10),55,56,95,17,21,88,88,149,102,8,14,5,5,0.2,0.3
2026-05-31T2200,2231A,126.4219,41.9172,白山市,喜丰,臭氧1小时(O3_1h),75,31,70,6,10,180,180,172,172,4,17,11,11,0.6,0.7
2026-05-31T2200,2232A,126.4082,41.9416,白山市,环保局,,49,35,31,22,13,154,154,172,167,10,12,14,12,0.6,0.6
2026-05-31T2200,2647A,104.1727,36.5448,白银市,第三小学,,38,38,154,22,63,100,100,128,120,16,9,13,6,0.4,0.4
2026-05-31T2200,2648A,104.1467,36.5482,白银市,动力公司,,35,19,136,18,50,109,109,128,124,15,9,10,7,0.4,0.3
2026-05-31T2200,2512A,106.6102,23.901,百色市,市监测站,NA,NA,40,38,18,11,NA,NA,124,123,14,6,14,8,0.8,0.7
2026-05-31T2200,2513A,106.6524,23.8842,百色市,市中心血站,,38,38,37,21,21,100,100,118,115,10,14,16,10,0.7,0.6
2026-05-31T2200,4133A,106.6273,23.8798,百色市,龙景西路,,35,35,43,24,18,94,94,130,122,14,13,15,11,0.7,0.6
2026-05-31T2200,2270A,117.396,32.9389,蚌埠市,工人疗养院,臭氧1小时(O3_1h),78,64,73,23,32,182,182,188,175,17,14,7,6,0.5,0.5
2026-05-31T2200,2271A,117.3606,32.9428,蚌埠市,百货大楼,臭氧1小时(O3_1h),92,48,65,17,37,193,193,188,176,12,12,9,9,0.5,0.6
2026-05-31T2200,2273A,117.4183,32.8909,蚌埠市,蚌埠学院,臭氧1小时(O3_1h),64,63,66,25,34,171,171,187,170,16,11,7,6,0.5,0.4
2026-05-31T2200,2274A,117.3534,32.9672,蚌埠市,淮上区政府,臭氧1小时(O3_1h),87,46,62,18,35,189,189,192,178,13,12,7,7,0.4,0.4
2026-05-31T2200,2275A,117.3143,32.8977,蚌埠市,高新区,颗粒物(PM10),80,92,75,48,42,159,159,179,156,25,17,8,7,0.6,0.4
2026-05-31T2200,3715A,117.3091,32.9314,蚌埠市,蚌埠田家炳中学,臭氧1小时(O3_1h),78,57,72,21,38,182,182,190,169,14,13,7,8,0.6,0.6
2026-05-31T2200,1585A,109.8761,40.6533,包头市,市环境监测站,,30,28,56,21,22,33,33,109,96,59,15,5,6,0.6,0.4
2026-05-31T2200,1587A,109.9992,40.5843,包头市,包头八中,,34,34,53,19,17,34,34,101,90,61,15,7,9,0.4,0.3
2026-05-31T2200,1589A,109.8641,40.6288,包头市,惠龙物流,,35,NA,53,24,18,64,64,106,100,30,11,7,8,0.3,0.2
2026-05-31T2200,1590A,110.0376,40.5546,包头市,东河鸿龙湾,,36,28,49,25,18,35,35,104,92,45,16,11,13,0.5,0.4
2026-05-31T2200,3283A,109.9154,40.5684,包头市,滨河大厦,,24,22,46,12,17,44,44,100,90,48,17,6,8,0.4,0.3
2026-05-31T2200,3419A,109.9449,40.6259,包头市,包头市委党校,,34,29,43,17,19,35,35,104,93,68,14,7,8,0.5,0.3
2026-05-31T2200,3683A,109.8332,40.6577,包头市,昆区政府,,33,30,55,23,18,40,40,105,92,60,13,3,6,0.6,0.4
2026-05-31T2200,1931A,107.0802,34.3129,宝鸡市,竹园沟,,33,NA,26,23,16,67,67,105,80,8,8,8,9,0.4,0.4
2026-05-31T2200,1933A,107.1429,34.3549,宝鸡市,监测站,,26,NA,30,18,13,52,52,126,95,19,12,7,8,0.5,0.4
2026-05-31T2200,1934A,107.1172,34.3759,宝鸡市,技工学校,,36,34,31,25,18,52,52,127,98,14,9,7,6,0.7,0.5
2026-05-31T2200,1936A,107.2025,34.3518,宝鸡市,文理学院,,47,47,34,22,19,65,65,132,106,18,14,6,7,0.5,0.5
2026-05-31T2200,1937A,107.2396,34.3626,宝鸡市,三迪小学,,44,44,36,23,20,57,57,133,109,26,16,7,8,0.6,0.5
2026-05-31T2200,4155A,107.1721,34.3558,宝鸡市,滨河北路,,42,42,34,23,18,54,54,120,97,14,11,8,9,0.7,0.6
2026-05-31T2200,4308A,107.3898,34.3601,宝鸡市,陈仓区北开路21号,颗粒物(PM10),57,59,43,31,23,29,29,116,92,61,22,12,31,0.5,0.5
2026-05-31T2200,1051A,115.4803,38.8568,保定市,游泳馆,颗粒物(PM10),62,66,47,32,25,135,135,214,198,15,12,4,12,0.4,0.4
2026-05-31T2200,1052A,115.509,38.8895,保定市,华电二区,颗粒物(PM10),55,57,42,22,22,145,145,218,204,16,13,7,9,0.6,0.7
2026-05-31T2200,1053A,115.4588,38.9037,保定市,接待中心,颗粒物(PM10),58,61,50,29,26,145,145,213,200,11,12,3,6,0.6,0.6
2026-05-31T2200,1054A,115.4484,38.8344,保定市,地表水厂,颗粒物(PM10),68,74,56,30,22,122,122,211,193,20,14,4,7,0.5,0.6
2026-05-31T2200,3581A,115.3136,38.9511,保定市,满城区生态环境分局,细颗粒物(PM2.5),58,53,46,39,26,127,127,217,201,8,8,3,4,0.4,0.4
2026-05-31T2200,3582A,115.4709,38.7628,保定市,清苑区第二中学,颗粒物(PM10),76,86,74,30,25,117,117,199,175,23,14,6,9,0.4,0.5
2026-05-31T2200,3583A,115.6231,39.0223,保定市,徐水物探局,颗粒物(PM10),81,93,69,38,23,110,110,197,178,31,16,4,7,0.6,0.7
2026-05-31T2200,4004A,115.4199,38.8665,保定市,双鹰农机,颗粒物(PM10),71,79,68,30,25,134,134,211,194,15,14,5,9,0.4,0.4
2026-05-31T2200,4034A,115.515,38.8589,保定市,植保所站,颗粒物(PM10),84,97,58,23,16,129,129,225,206,21,13,8,10,0.4,0.5
2026-05-31T2200,2594A,99.1589,25.1137,保山市,市环境监测站,,15,14,18,10,11,40,40,66,59,7,8,5,5,0.3,0.2
2026-05-31T2200,2595A,99.1616,25.1381,保山市,市环保局,,20,NA,16,14,20,58,58,69,64,3,6,4,4,0.5,0.5
2026-05-31T2200,1867A,109.1435,21.4085,北海市,海滩公园,,33,22,25,20,19,105,105,123,120,6,8,1,3,0.4,0.4
2026-05-31T2200,1868A,109.0983,21.466,北海市,新市环保局,细颗粒物(PM2.5),52,NA,25,36,24,110,110,131,126,7,9,2,3,0.5,0.5
2026-05-31T2200,1869A,109.1775,21.5232,北海市,北海工业园,,45,38,32,31,22,89,89,132,119,9,9,2,4,0.6,0.5
2026-05-31T2200,3400A,109.1844,21.4396,北海市,龙潭自来水厂,,33,27,29,15,18,103,103,121,118,6,10,2,4,0.7,0.8
2026-05-31T2200,1001A,116.3611,39.8786,北京市,万寿西宫,臭氧1小时(O3_1h),77,75,60,27,22,181,181,224,219,21,18,6,7,0.6,0.5
2026-05-31T2200,1003A,116.4174,39.9289,北京市,东四,臭氧1小时(O3_1h),82,76,58,31,24,185,185,238,233,27,21,7,7,0.7,0.6
2026-05-31T2200,1004A,116.4073,39.8858,北京市,天坛,颗粒物(PM10),61,65,55,33,22,112,112,205,186,20,18,2,4,0.6,0.4
2026-05-31T2200,1005A,116.4622,39.9364,北京市,农展馆,臭氧1小时(O3_1h),70,71,59,28,23,176,176,225,221,24,20,6,7,0.6,0.5
2026-05-31T2200,1006A,116.3399,39.9293,北京市,官园,颗粒物(PM10),73,82,63,36,23,171,171,216,212,29,26,7,8,0.4,0.3
2026-05-31T2200,1007A,116.2879,39.9613,北京市,海淀万柳,颗粒物(PM10),73,81,64,33,22,125,125,192,182,31,29,4,5,0.7,0.4
2026-05-31T2200,1008A,116.6635,40.1349,北京市,顺义新城,细颗粒物(PM2.5),96,93,67,58,25,158,158,226,219,23,22,5,6,0.7,0.6
2026-05-31T2200,1009A,116.6275,40.327,北京市,怀柔镇,臭氧1小时(O3_1h),88,63,55,32,24,190,190,232,228,10,12,3,4,0.5,0.4
2026-05-31T2200,1010A,116.2295,40.217,北京市,昌平镇,臭氧1小时(O3_1h),63,55,52,25,20,170,170,236,226,16,21,4,5,0.7,0.6
2026-05-31T2200,1011A,116.3968,39.982,北京市,奥体中心,颗粒物(PM10),72,80,59,35,22,161,161,195,193,21,28,2,3,0.6,0.4
2026-05-31T2200,3418A,116.8336,40.4095,北京市,密云新城,颗粒物(PM10),75,84,62,38,23,155,155,210,199,15,14,2,3,0.6,0.4
2026-05-31T2200,3671A,116.0879,39.9725,北京市,门头沟三家店,颗粒物(PM10),65,71,53,35,20,100,100,189,174,32,27,3,4,0.6,0.4
2026-05-31T2200,3672A,116.1507,39.8246,北京市,丰台云岗,颗粒物(PM10),63,68,66,24,33,130,130,196,184,20,19,4,5,0.6,0.5
2026-05-31T2200,3674A,115.9578,39.7602,北京市,房山燕山,,29,22,64,8,22,90,90,178,160,2,11,2,3,0.1,0.4
2026-05-31T2200,3675A,116.4669,39.7734,北京市,大兴旧宫,颗粒物(PM10),70,78,64,42,26,115,115,222,202,21,14,1,5,0.8,0.6
2026-05-31T2200,3694A,115.9859,40.4562,北京市,延庆石河营,,30,17,32,6,20,95,95,154,137,12,21,2,2,0.3,0.2
2026-05-31T2200,3695A,116.6151,40.3052,北京市,怀柔新城,臭氧1小时(O3_1h),94,66,43,3,6,195,195,221,218,11,13,5,5,0.7,0.6
2026-05-31T2200,3696A,116.2542,39.8764,北京市,丰台小屯,颗粒物(PM10),66,72,63,33,24,159,159,189,183,19,23,4,4,0.5,0.4
2026-05-31T2200,3697A,116.8399,40.3843,北京市,密云镇,颗粒物(PM10),73,82,56,34,23,134,134,220,208,30,16,4,4,0.8,0.6
2026-05-31T2200,4057A,115.9423,40.4431,北京市,延庆百泉,,30,21,43,6,17,94,94,142,124,4,12,1,2,0.2,0.3
2026-05-31T2200,4058A,116.6598,39.9164,北京市,通州新华,颗粒物(PM10),92,108,64,45,26,140,140,210,199,42,24,5,5,0.9,0.6
2026-05-31T2200,4182A,116.1942,39.9158,北京市,石景山八角,臭氧1小时(O3_1h),95,82,74,26,24,196,196,204,204,15,29,6,4,0.5,0.4
2026-05-31T2200,4194A,117.078628,40.151726,北京市,平谷新城,颗粒物(PM10),73,82,58,39,23,138,138,209,201,19,12,4,5,0.7,0.5
2026-05-31T2200,1761A,123.8274146,41.31234549,本溪市,大峪,臭氧1小时(O3_1h),92,53,45,24,19,193,193,184,184,6,11,8,7,0.5,0.5
2026-05-31T2200,1763A,123.7169,41.3094,本溪市,彩屯,颗粒物(PM10),52,52,54,28,24,148,148,158,156,29,27,15,16,2.3,2.8
2026-05-31T2200,1764A,123.7672166,41.28649327,本溪市,东明,臭氧1小时(O3_1h),84,49,53,23,18,187,187,183,183,10,12,6,7,0.6,0.6
2026-05-31T2200,1765A,123.799345,41.266614,本溪市,新立屯,臭氧1小时(O3_1h),95,49,52,24,19,196,196,188,188,8,9,9,10,0.5,0.6
2026-05-31T2200,1766A,123.829144,41.336777,本溪市,威宁,臭氧1小时(O3_1h),78,42,49,22,20,182,182,180,180,4,10,9,9,0.6,0.6
2026-05-31T2200,2587A,105.287,27.3133,毕节市,八中,,44,44,40,26,22,116,116,120,120,6,12,7,8,0.6,0.6
2026-05-31T2200,2588A,105.3079,27.2987,毕节市,师专,,42,42,41,26,23,106,106,114,113,7,12,7,10,0.6,0.6
2026-05-31T2200,4263A,105.3688,27.3598,毕节市,工业大道,,45,45,46,25,22,128,128,127,127,6,15,7,12,/,/
2026-05-31T2200,1629A,117.9961,37.3604,滨州市,第二水厂,颗粒物(PM10),83,95,77,38,24,125,125,189,166,25,19,10,9,0.4,0.3
2026-05-31T2200,1630A,117.9789,37.3931,滨州市,北中新校,颗粒物(PM10),65,70,53,33,21,147,147,194,179,23,19,9,10,0.5,0.5
2026-05-31T2200,3514A,117.9379,37.3959,滨州市,中海酒店,臭氧1小时(O3_1h),62,61,50,27,19,169,169,206,191,21,22,10,13,0.3,0.4
2026-05-31T2200,3515A,117.9381509,37.35547456,滨州市,开发区一中,颗粒物(PM10),58,61,50,37,29,136,136,192,171,27,24,11,12,0.5,0.5
2026-05-31T2200,3516A,118.0914,37.6938,滨州市,金海六路,颗粒物(PM10),72,80,64,32,22,128,128,197,168,33,28,7,8,0.4,0.4
2026-05-31T2200,4028A,117.9955,37.3752,滨州市,滨州市西街道办事处,颗粒物(PM10),68,75,62,32,21,136,136,195,174,23,18,10,9,0.7,0.6
2026-05-31T2200,2311A,115.8071,33.8399,亳州市,污水处理厂,颗粒物(PM10),65,71,55,26,18,152,152,167,164,16,14,5,5,0.2,0.2
2026-05-31T2200,2312A,115.7789,33.8519,亳州市,三国揽胜宫,颗粒物(PM10),70,77,65,24,21,161,161,177,175,12,9,4,5,0.3,0.2
2026-05-31T2200,3332A,115.7631,33.803,亳州市,亳州学院,颗粒物(PM10),74,83,61,26,22,147,147,176,170,14,10,3,4,0.1,0.1
2026-05-31T2200,2693A,82.0482,44.8553,博尔塔拉蒙古自治州,市党校,颗粒物(PM10),65,71,53,27,10,103,103,126,124,22,7,4,4,0.4,0.3
2026-05-31T2200,2694A,82.0805,44.8966,博尔塔拉蒙古自治州,市环保局,颗粒物(PM10),53,53,43,18,11,100,100,124,122,21,11,7,7,0.3,0.3
2026-05-31T2200,1071A,116.8733,38.2922,沧州市,沧县城建局,颗粒物(PM10),65,71,64,36,26,144,144,192,174,13,14,9,7,0.4,0.5
2026-05-31T2200,1072A,116.8462,38.3189,沧州市,电视转播站,颗粒物(PM10),61,65,60,27,25,147,147,192,177,12,15,6,8,0.2,0.3
2026-05-31T2200,1073A,116.8588,38.3161,沧州市,市环保局,颗粒物(PM10),78,88,78,25,25,142,142,197,178,14,14,5,6,0.3,0.4
2026-05-31T2200,3324A,116.8011,38.294,沧州市,河北水利电力学院,颗粒物(PM10),53,53,57,25,26,136,136,179,163,14,19,5,6,0.2,0.4
2026-05-31T2200,2622A,97.1813,31.1289,昌都市,昌都监测站,,28,10,11,3,3,88,88,104,104,12,10,3,3,0.5,0.5
2026-05-31T2200,3719A,97.1707,31.1428,昌都市,昌都会议中心,,31,18,9,3,3,99,99,111,111,4,6,4,6,0.4,0.4
2026-05-31T2200,2692A,87.2722,44.0298,昌吉回族自治州,新区政务中心,,38,NA,28,26,15,107,107,135,131,15,19,8,7,0.2,0.3
2026-05-31T2200,3613A,87.3069,44.0093,昌吉回族自治州,亚心广场,,35,29,35,24,14,102,102,143,138,38,26,8,7,0.3,0.3
2026-05-31T2200,4164A,87.2057,43.9289,昌吉回族自治州,财政所,,48,48,34,21,6,107,107,143,141,25,10,10,9,0.7,0.4
2026-05-31T2200,1120A,125.2874,43.9024,长春市,客车厂,颗粒物(PM10),112,150,95,24,22,137,137,184,154,18,32,7,8,0.3,0.3
2026-05-31T2200,1121A,125.2943,43.8508,长春市,邮电学院,颗粒物(PM10),106,134,75,26,21,153,153,197,166,15,29,8,8,0.4,0.5
2026-05-31T2200,1122A,125.3648,43.8745,长春市,劳动公园,颗粒物(PM10),82,94,62,22,19,154,154,200,169,15,29,8,8,0.3,0.3
2026-05-31T2200,1123A,125.3233,43.8781,长春市,园林处,颗粒物(PM10),81,93,61,34,19,148,148,201,167,15,26,4,5,0.4,0.5
2026-05-31T2200,1124A,125.4604,43.7904,长春市,净月潭,颗粒物(PM10),70,77,41,26,17,157,157,196,166,11,25,6,6,0.4,0.4
2026-05-31T2200,1126A,125.38,43.8422,长春市,经开区环卫处,颗粒物(PM10),99,118,66,20,17,159,159,192,166,13,30,6,6,0.3,0.4
2026-05-31T2200,1127A,125.234,43.7761,长春市,高新区管委会,颗粒物(PM10),86,100,54,22,17,155,155,191,161,12,34,8,7,0.5,0.6
2026-05-31T2200,1128A,125.1695,43.83,长春市,岱山公园,颗粒物(PM10),97,115,92,27,19,151,151,208,170,17,30,4,5,0.4,0.5
2026-05-31T2200,4281A,125.334645,43.916281,长春市,北亚泰大街1068号,颗粒物(PM10),99,118,91,54,26,138,138,192,160,19,32,6,6,0.4,0.4
2026-05-31T2200,1335A,113.082,28.2421,长沙市,经开区环保局,颗粒物(PM10),57,59,57,32,32,78,78,191,170,31,23,6,6,0.7,0.7
2026-05-31T2200,1336A,112.8873,28.2202,长沙市,高开区环保局,细颗粒物(PM2.5),60,62,54,40,31,134,134,166,164,16,13,10,10,0.9,0.7
2026-05-31T2200,1337A,113.0785,28.2012,长沙市,马坡岭,颗粒物(PM10),60,64,58,32,28,84,84,190,166,24,27,6,8,0.9,0.9
2026-05-31T2200,1338A,112.9448,28.1894,长沙市,湖南师范大学,颗粒物(PM10),52,52,48,35,24,98,98,163,143,14,7,6,7,1.0,0.9
2026-05-31T2200,1339A,113.0177,28.1322,长沙市,雨花区环保局,细颗粒物(PM2.5),58,59,55,39,29,87,87,174,156,17,13,5,9,1.1,1.1
2026-05-31T2200,1340A,112.9795,28.2593,长沙市,伍家岭,颗粒物(PM10),63,67,59,36,28,106,106,185,175,24,20,5,5,0.9,0.8
2026-05-31T2200,1341A,113.002,28.1944,长沙市,火车新站,细颗粒物(PM2.5),56,56,53,38,29,96,96,171,158,19,21,9,10,0.7,0.6
2026-05-31T2200,1342A,112.9846,28.1177,长沙市,天心区环保局,NA,NA,57,53,38,30,110,110,172,158,NA,20,NA,8,0.8,0.8
2026-05-31T2200,1343A,112.8906,28.1307,长沙市,湖南中医药大学,细颗粒物(PM2.5),64,59,48,42,24,38,38,156,127,50,23,6,7,0.6,0.5
2026-05-31T2200,1727A,113.1146,36.1547,长治市,清华站,,40,40,35,21,14,111,111,175,154,22,16,9,9,0.6,0.6
2026-05-31T2200,1730A,113.0887,36.2126,长治市,审计局,,46,32,31,14,14,147,147,173,161,9,10,9,9,0.6,0.5
2026-05-31T2200,1731A,113.0845,36.1856,长治市,长治八中,,44,44,37,15,15,119,119,170,151,28,16,11,11,0.5,0.5
2026-05-31T2200,2845A,113.1561,36.1912,长治市,德盛苑,,41,30,30,24,16,130,130,182,164,18,13,9,10,0.3,0.4
2026-05-31T2200,3568A,113.0603,36.0464,长治市,向阳小学,颗粒物(PM10),64,69,64,22,16,116,116,180,160,20,9,13,13,0.6,0.6
2026-05-31T2200,3569A,112.8788,36.315,长治市,屯留一中,,42,32,26,20,16,132,132,161,153,23,15,11,10,1.1,0.8
2026-05-31T2200,4189A,113.113092,36.199482,长治市,英华南巷50号,,45,43,36,26,17,143,143,179,163,13,11,9,9,0.8,0.7
2026-05-31T2200,4190A,113.23666,36.33435,长治市,学府街1号,,45,40,38,20,14,143,143,180,164,15,20,7,7,0.8,0.6
2026-05-31T2200,1854A,111.696,28.9725,常德市,市二中,颗粒物(PM10),51,51,32,34,18,127,127,124,124,11,7,8,8,1.0,0.9
2026-05-31T2200,3138A,111.7152,29.0288,常德市,武陵区永安,,50,50,38,25,16,136,136,133,133,9,6,7,6,0.8,0.8
2026-05-31T2200,3139A,111.6891,28.9881,常德市,鼎城区玉霞,NA,NA,47,36,31,18,NA,NA,125,125,8,8,8,8,0.9,0.9
2026-05-31T2200,3140A,111.6651,29.0526,常德市,武陵区长庚,,48,48,37,29,19,143,143,132,132,8,9,8,8,0.7,0.7
2026-05-31T2200,1196A,119.9524,31.7586,常州市,市监测站,,42,40,46,12,20,132,132,170,162,20,29,3,4,0.2,0.3
2026-05-31T2200,1200A,119.9351,31.703,常州市,武进监测站,NA,NA,NA,40,NA,21,NA,NA,156,152,NA,20,NA,13,NA,0.8
2026-05-31T2200,3002A,119.9701,31.813,常州市,行政中心,,42,42,46,11,19,118,118,163,155,21,26,7,7,0.3,0.5
2026-05-31T2200,3003A,120.0434,31.7726,常州市,经开区,,42,42,61,10,24,123,123,174,162,28,46,11,12,0.5,0.7
2026-05-31T2200,3010A,119.8919,31.7892,常州市,钟楼,,45,32,40,10,15,141,141,175,171,18,21,8,8,0.4,0.5
2026-05-31T2200,3429A,119.8595,31.706,常州市,武进经发区,,37,31,42,14,24,118,118,153,146,20,24,7,8,0.5,0.6
2026-05-31T2200,3430A,119.5812,31.7256,常州市,金坛城区,,43,41,45,22,26,137,137,171,162,12,17,7,8,0.5,0.6
2026-05-31T2200,4089A,119.9551,31.863,常州市,崇义南街5-H号,颗粒物(PM10),58,61,54,20,25,99,99,173,161,31,34,10,9,0.6,0.6
2026-05-31T2200,2220A,120.4318,41.588,朝阳市,西梁,臭氧1小时(O3_1h),93,77,65,31,17,194,194,193,193,18,19,12,10,0.9,0.9
2026-05-31T2200,2221A,120.452,41.565,朝阳市,河畔小区,臭氧1小时(O3_1h),98,73,54,25,14,198,198,196,196,18,14,14,11,0.7,0.4
2026-05-31T2200,2222A,120.4176,41.5648,朝阳市,八里堡,臭氧1小时(O3_1h),101,81,75,31,22,201,201,195,195,20,22,9,9,1.0,1
2026-05-31T2200,3026A,116.6179,23.6608,潮州市,市政府,,38,36,56,15,30,119,119,188,171,9,14,6,11,0.5,0.7
2026-05-31T2200,4036A,116.646,23.676,潮州市,金山,,36,29,40,18,25,113,113,175,165,10,7,6,4,0.5,0.6
2026-05-31T2200,2473A,113.0116,25.8228,郴州市,市职中,,43,43,40,29,34,43,43,103,84,13,12,5,6,1.0,1
2026-05-31T2200,2475A,113.0381,25.8074,郴州市,市审计局,细颗粒物(PM2.5),54,45,44,37,35,52,52,103,90,20,12,6,4,/,/
2026-05-31T2200,2476A,113.0348,25.7757,郴州市,市环保局,细颗粒物(PM2.5),62,43,40,41,35,54,54,111,98,29,16,6,6,0.9,0.8
2026-05-31T2200,4252A,113.0138,25.8011,郴州市,好美居路49号,,47,47,41,26,27,52,52,104,88,18,16,6,5,/,/
2026-05-31T2200,1431A,103.9727,30.7242,成都市,金泉两河,细颗粒物(PM2.5),109,85,65,69,44,82,82,144,128,22,21,2,4,0.5,0.5
2026-05-31T2200,1432A,104.1423,30.6765,成都市,十里店,细颗粒物(PM2.5),76,78,57,48,33,122,122,155,150,20,18,5,6,0.6,0.5
2026-05-31T2200,1433A,104.0594,30.5765,成都市,三瓦窑,细颗粒物(PM2.5),80,79,62,50,35,94,94,155,140,33,19,6,6,0.8,0.7
2026-05-31T2200,1434A,104.1122,30.6306,成都市,沙河铺,颗粒物(PM10),64,69,59,41,32,116,116,142,139,24,19,5,5,0.6,0.5
2026-05-31T2200,2880A,104.0219,30.6561,成都市,大石西路,细颗粒物(PM2.5),94,80,66,57,38,99,99,141,134,27,19,4,5,0.6,0.5
2026-05-31T2200,3136A,104.2724,30.559,成都市,龙泉驿区区政府,细颗粒物(PM2.5),110,75,40,70,27,115,115,150,142,26,12,7,8,0.8,0.6
2026-05-31T2200,3357A,104.0028,30.6891,成都市,金博路,细颗粒物(PM2.5),80,67,55,50,40,106,106,149,139,20,21,6,7,0.4,0.4
2026-05-31T2200,3359A,104.056,30.5228,成都市,华阳,细颗粒物(PM2.5),96,78,55,58,36,105,105,164,153,19,12,3,3,0.6,0.6
2026-05-31T2200,3488A,104.387954,30.746684,成都市,青石路225号,细颗粒物(PM2.5),104,104,45,64,27,98,98,148,140,28,9,5,5,0.8,0.6
2026-05-31T2200,3489A,104.0788,30.4054,成都市,科学城,细颗粒物(PM2.5),74,79,57,47,33,106,106,174,160,19,15,6,6,0.9,0.8
2026-05-31T2200,4011A,103.8505,30.6946,成都市,光华大道三段,细颗粒物(PM2.5),80,64,71,50,43,89,89,138,130,18,16,4,5,0.5,0.5
2026-05-31T2200,4144A,104.3257,30.6406,成都市,八角井街185号,颗粒物(PM10),71,79,48,43,25,94,94,144,137,22,12,7,8,0.6,0.5
2026-05-31T2200,4224A,104.2433276,30.53529463,成都市,鲸龙路1057号,细颗粒物(PM2.5),106,104,44,66,28,115,115,162,152,27,15,8,8,0.8,0.6
2026-05-31T2200,1062A,117.9531,40.908,承德市,铁路,颗粒物(PM10),70,78,45,31,17,155,155,188,184,14,18,6,4,0.7,0.4
2026-05-31T2200,1063A,117.9397,40.9763,承德市,中国银行,颗粒物(PM10),58,61,44,33,17,127,127,179,173,13,12,8,6,0.6,0.4
2026-05-31T2200,4073A,117.9462,40.95,承德市,杏林街1号,细颗粒物(PM2.5),66,68,44,43,26,148,148,193,189,20,15,12,5,0.7,0.4
2026-05-31T2200,4274A,117.7994,40.9605,承德市,滨河大街98号,细颗粒物(PM2.5),60,48,45,40,18,158,158,194,190,12,14,7,9,0.5,0.4
2026-05-31T2200,2314A,117.4698,30.6617,池州市,池州学院,细颗粒物(PM2.5),72,74,49,46,32,118,118,204,186,27,20,5,6,0.8,0.7
2026-05-31T2200,3237A,117.4918,30.6617,池州市,展览馆,颗粒物(PM10),62,66,47,27,30,71,71,204,173,34,16,2,3,0.5,0.6
2026-05-31T2200,3333A,117.5626,30.695,池州市,第八中学,颗粒物(PM10),52,52,50,34,33,134,134,204,180,28,18,4,4,0.4,0.5
2026-05-31T2200,3334A,117.5037,30.6242,池州市,第十二中学,细颗粒物(PM2.5),64,60,45,42,26,95,95,198,166,30,26,4,4,1.0,0.9
2026-05-31T2200,1744A,118.9229,42.2816,赤峰市,松山一中,颗粒物(PM10),53,54,71,9,16,100,100,167,122,9,15,8,9,0.2,0.3
2026-05-31T2200,1745A,118.9588,42.2733,赤峰市,哈达街,,49,49,62,11,14,94,94,156,112,8,19,9,10,0.4,0.5
2026-05-31T2200,1746A,118.8792,42.2551,赤峰市,天义路,,48,48,31,12,13,84,84,157,108,10,12,5,6,0.4,0.4
2026-05-31T2200,3058A,119.2656,42.0356,赤峰市,银河街,颗粒物(PM10),59,62,74,16,21,89,89,179,144,5,12,9,15,0.5,0.6
2026-05-31T2200,3286A,118.9359,42.3146,赤峰市,桥北物流园区,,49,49,47,6,16,95,95,151,112,9,15,4,4,0.2,0.3
2026-05-31T2200,2521A,107.3473,22.4137,崇左市,市环保局江州分局,,26,25,40,18,21,83,83,136,125,6,12,6,5,0.6,0.6
2026-05-31T2200,4256A,107.375,22.3736,崇左市,石景林东路7号,,32,NA,30,22,20,79,79,131,121,9,14,2,2,0.7,0.7
2026-05-31T2200,3207A,118.31131,32.3033,滁州市,市政府原办公楼,"颗粒物(PM10),细颗粒物(PM2.5)",60,63,48,40,41,157,157,208,199,18,16,8,9,0.4,0.5
2026-05-31T2200,3331A,118.3268,32.2633,滁州市,图书馆,颗粒物(PM10),55,57,53,25,29,139,139,191,183,22,16,9,9,0.4,0.5
2026-05-31T2200,4101A,118.3196,32.3335,滁州市,银山路666号,颗粒物(PM10),58,61,53,28,35,147,147,194,188,23,21,10,9,0.3,0.4
2026-05-31T2200,4102A,118.3426,32.2979,滁州市,黄山路555号,细颗粒物(PM2.5),104,104,65,64,39,143,143,199,189,21,18,10,10,0.6,0.6
2026-05-31T2200,2606A,101.5379,25.0492,楚雄彝族自治州,市经济开发区,,16,11,9,6,8,50,50,61,59,8,5,1,1,0.6,0.6
2026-05-31T2200,4153A,101.5536,25.0343,楚雄彝族自治州,团结路562号,,20,NA,8,8,7,62,62,69,68,4,3,4,4,0.6,0.6
2026-05-31T2200,2549A,107.5087,31.2186,达州市,市环境监测站,,30,30,25,12,7,20,20,87,69,38,23,6,7,0.5,0.4
2026-05-31T2200,2550A,107.4988,31.2132,达州市,凤凰小区,,34,34,24,15,8,15,15,88,68,41,21,5,6,0.5,0.4
2026-05-31T2200,2551A,107.5081,31.1987,达州市,达县机关宾馆,,46,46,26,17,11,1,1,92,64,58,28,4,5,0.4,0.3
2026-05-31T2200,2552A,107.4644,31.2124,达州市,市政中心,,42,42,32,16,8,17,17,98,78,49,25,4,4,0.7,0.5
2026-05-31T2200,2614A,100.2168,25.5818,大理白族自治州,大理市环境监测站,,17,8,11,7,7,53,53,68,65,9,6,4,3,0.4,0.4
2026-05-31T2200,2615A,100.1542,25.7055,大理白族自治州,大理古城,,16,16,14,7,8,51,51,76,70,11,8,6,8,0.6,0.6
2026-05-31T2200,1109A,121.6119,38.974,大连市,甘井子,NA,NA,60,56,27,24,NA,NA,200,200,12,12,9,10,0.6,0.6
2026-05-31T2200,1110A,121.565,38.9509,大连市,周水子,臭氧1小时(O3_1h),82,46,42,25,25,185,185,208,205,16,20,6,9,0.4,0.4
2026-05-31T2200,1111A,121.5637,38.8849,大连市,星海三站,臭氧1小时(O3_1h),85,42,42,27,23,188,188,203,201,9,17,8,10,0.6,0.6
2026-05-31T2200,1112A,121.6301,38.9117,大连市,青泥洼桥,臭氧1小时(O3_1h),94,50,47,24,23,195,195,216,213,10,15,8,10,0.4,0.4
2026-05-31T2200,1113A,121.6248,38.8643,大连市,傅家庄,臭氧1小时(O3_1h),82,43,43,20,23,185,185,193,191,9,17,7,8,0.4,0.4
2026-05-31T2200,1114A,121.5117,38.8636,大连市,七贤岭,臭氧1小时(O3_1h),78,48,46,15,15,182,182,205,200,10,15,6,6,0.9,0.5
2026-05-31T2200,1116A,121.7507,39.1339,大连市,金州,臭氧1小时(O3_1h),89,43,47,23,22,191,191,212,210,11,18,8,10,0.6,0.6
2026-05-31T2200,1117A,121.7811,39.0495,大连市,开发区,臭氧1小时(O3_1h),68,44,41,23,27,174,174,188,187,17,24,6,9,0.4,0.5
2026-05-31T2200,1118A,121.9762,39.0631,大连市,双D港,臭氧1小时(O3_1h),74,43,42,20,24,179,179,182,181,6,17,7,8,0.6,0.6
2026-05-31T2200,4082A,121.2548,38.8188,大连市,旅顺,臭氧1小时(O3_1h),63,NA,8,21,25,170,170,192,189,9,14,8,8,0.5,0.5
2026-05-31T2200,1789A,124.8085,46.0381,大庆市,大同区,颗粒物(PM10),105,131,143,20,27,92,92,207,146,7,18,4,6,0.2,0.4
2026-05-31T2200,1790A,125.1166,46.5255,大庆市,龙凤区,颗粒物(PM10),125,183,116,18,25,80,80,187,135,7,15,7,7,0.2,0.3
2026-05-31T2200,1791A,124.8894,46.4007,大庆市,红岗区,颗粒物(PM10),104,129,132,15,28,81,81,186,132,2,14,9,10,0.4,0.4
2026-05-31T2200,1792A,125.1391,46.578,大庆市,萨尔图区,颗粒物(PM10),112,150,101,16,18,78,78,178,131,6,15,4,6,0.2,0.3
2026-05-31T2200,1793A,124.9026,46.6217,大庆市,让胡路区,颗粒物(PM10),132,201,117,23,24,87,87,198,140,3,12,3,5,0.3,0.5
2026-05-31T2200,3481A,125.127,46.6277,大庆市,萨区政府监测点,颗粒物(PM10),85,99,79,18,25,90,90,202,148,1,9,8,10,0.2,0.3
2026-05-31T2200,1723A,113.2926,40.0759,大同市,云冈宾馆,,34,34,48,11,16,86,86,133,117,18,20,7,9,1.0,0.6
2026-05-31T2200,1724A,113.3437,40.0921,大同市,大同大学,,26,19,34,9,13,81,81,129,111,19,24,9,9,0.4,0.4
2026-05-31T2200,1725A,113.2637,40.129,大同市,安家小村,,28,17,43,3,12,87,87,130,114,14,15,9,12,0.3,0.4
2026-05-31T2200,3282A,113.3399,40.0586,大同市,大同市卫生学校,,42,42,51,13,14,100,100,146,127,15,21,8,11,0.4,0.3
2026-05-31T2200,3565A,113.1371,40.1122,大同市,云冈站,颗粒物(PM10),59,62,48,9,14,36,36,124,99,46,24,13,8,0.5,0.4
2026-05-31T2200,3566A,113.1186,40.2556,大同市,图书馆,,34,34,39,11,11,62,62,117,99,18,14,6,7,0.4,0.4
2026-05-31T2200,3567A,113.5931,40.0459,大同市,区一中,,31,9,47,3,13,98,98,141,119,8,15,7,11,0.2,0.3
2026-05-31T2200,4199A,113.2798248,40.09972476,大同市,魏都大道141号,,27,22,49,6,14,86,86,130,114,20,23,5,8,0.4,0.4
2026-05-31T2200,2269A,124.1068,50.4091,大兴安岭地区,科技局,,30,30,32,12,10,71,71,77,75,2,3,8,8,0.3,0.3
2026-05-31T2200,3663A,124.117,50.4279,大兴安岭地区,红旗社区,,25,17,19,6,8,80,80,95,88,1,3,8,7,0.3,0.3
2026-05-31T2200,1600A,124.33,40.0625,丹东市,江湾东路,颗粒物(PM10),80,91,49,25,23,168,168,161,161,8,9,5,6,0.4,0.5
2026-05-31T2200,1601A,124.4242,40.1513,丹东市,临江后街,臭氧1小时(O3_1h),57,58,48,29,26,165,165,160,160,8,9,6,5,0.6,0.6
2026-05-31T2200,1602A,124.3935,40.1461,丹东市,元宝山,臭氧1小时(O3_1h),63,48,49,25,24,170,170,166,166,10,11,6,8,0.6,0.7
2026-05-31T2200,1603A,124.3634,40.1093,丹东市,民主桥,臭氧1小时(O3_1h),60,58,74,28,33,168,168,159,159,5,10,6,7,0.5,0.6
2026-05-31T2200,3541A,109.5726195,19.51688767,儋州市,第一中学子站,,23,23,24,10,12,50,50,67,60,6,6,3,3,0.5,0.5
2026-05-31T2200,3542A,109.5567,19.5187,儋州市,东坡学校子站,,17,17,24,10,12,53,53,73,65,6,6,6,7,0.5,0.6
2026-05-31T2200,2616A,98.5611,24.4273,德宏傣族景颇族自治州,德宏州监测站,,33,24,15,23,12,35,35,65,58,10,7,8,8,0.4,0.3
2026-05-31T2200,3677A,98.5887,24.4366,德宏傣族景颇族自治州,芒市人民政府综合楼,,46,46,33,20,13,35,35,64,57,10,8,5,5,0.6,0.6
2026-05-31T2200,1901A,104.424,31.1209,德阳市,东山公园,细颗粒物(PM2.5),115,77,38,76,34,101,101,137,134,28,11,8,4,0.7,0.5
2026-05-31T2200,1902A,104.3827,31.1318,德阳市,西小区,细颗粒物(PM2.5),119,105,56,80,34,93,93,129,126,23,16,9,7,0.9,0.7
2026-05-31T2200,1904A,104.3553,31.1091,德阳市,耐火材料厂,细颗粒物(PM2.5),131,102,58,94,39,98,98,153,148,30,19,6,4,0.6,0.4
2026-05-31T2200,4145A,104.4144,31.1495,德阳市,市林业局,细颗粒物(PM2.5),120,96,48,81,34,122,122,160,158,24,15,12,8,0.9,0.7
2026-05-31T2200,1622A,116.3034,37.4675,德州市,儿童乐园,颗粒物(PM10),83,95,85,32,26,165,165,200,190,18,16,10,11,0.6,0.6
2026-05-31T2200,1624A,116.2992,37.4449,德州市,监理站,颗粒物(PM10),86,100,85,31,24,155,155,195,183,34,28,9,10,0.4,0.4
2026-05-31T2200,3066A,116.2722,37.438,德州市,九衢泉纯净水厂,颗粒物(PM10),83,95,83,30,23,138,138,185,170,30,25,9,12,0.7,0.7
2026-05-31T2200,3371A,116.3693,37.44,德州市,开发区人民医院,颗粒物(PM10),80,92,85,23,23,123,123,192,174,31,14,9,11,0.6,0.6
2026-05-31T2200,3511A,116.5687,37.3331,德州市,陵城艺术中心,颗粒物(PM10),84,97,80,25,25,162,162,199,186,16,16,6,13,0.6,0.7
2026-05-31T2200,4292A,116.352738,37.420875,德州市,新河东路,颗粒物(PM10),70,78,79,23,22,133,133,185,170,26,23,10,12,0.6,0.7
2026-05-31T2200,2621A,99.7054,27.8319,迪庆藏族自治州,迪庆州站,,17,14,14,3,7,52,52,64,58,9,7,7,7,0.5,0.4
2026-05-31T2200,3180A,99.7122,27.8129,迪庆藏族自治州,质量技术监督局,NA,NA,11,13,6,7,NA,NA,70,63,12,8,8,9,0.3,0.3
2026-05-31T2200,4257A,104.6092,35.5962,定西市,将台街,颗粒物(PM10),58,61,78,16,30,124,124,131,131,10,8,3,4,0.2,0.2
2026-05-31T2200,4309A,104.6159,35.5701,定西市,正龙路62号,颗粒物(PM10),53,54,87,17,25,132,132,137,137,7,8,4,4,0.4,0.3
2026-05-31T2200,4071A,114.9883,38.5232,定州市,交通局,颗粒物(PM10),68,74,60,30,21,136,136,219,195,22,21,11,13,0.5,0.5
2026-05-31T2200,4072A,115.0045,38.5136,定州市,第五中学,颗粒物(PM10),83,96,80,27,21,124,124,207,183,21,19,5,8,0.5,0.5
2026-05-31T2200,1390A,113.7943,23.0132,东莞市,东城石井,,32,32,25,20,15,89,89,169,141,16,18,2,3,0.8,0.7
2026-05-31T2200,1391A,113.7384,22.9659,东莞市,南城西平,,38,38,24,19,13,110,110,157,144,14,11,1,2,0.7,0.7
2026-05-31T2200,3319A,113.7283,23.041,东莞市,万江金泰,,40,40,26,24,18,113,113,166,149,17,16,6,6,0.5,0.6
2026-05-31T2200,4129A,113.8666,23.1062,东莞市,裕兴路,,34,34,22,23,13,99,99,161,145,23,14,7,7,0.9,0.8
2026-05-31T2200,4130A,114.0076,22.9739,东莞市,教育路1号,,48,46,33,33,20,87,87,163,135,25,17,5,5,0.8,0.7
2026-05-31T2200,4131A,113.7981,22.8124,东莞市,长怡路1号,,48,48,29,23,15,107,107,167,154,23,17,4,4,0.6,0.7
2026-05-31T2200,1666A,118.6612,37.4313,东营市,市环保局,颗粒物(PM10),70,78,61,19,13,150,150,199,182,18,17,17,9,0.3,0.3
2026-05-31T2200,3036A,118.6903,37.4337,东营市,开发区管委会,颗粒物(PM10),72,80,65,36,22,131,131,194,173,31,26,15,12,0.4,0.4
2026-05-31T2200,3365A,118.5721,37.5654,东营市,垦利区民丰路,NA,NA,80,64,NA,10,158,158,212,196,20,17,12,12,0.5,0.5
2026-05-31T2200,3498A,118.5063,37.8606,东营市,河口城区,颗粒物(PM10),70,78,60,31,22,143,143,219,194,16,16,12,14,0.8,0.7
2026-05-31T2200,3646A,118.4979,37.4623,东营市,胜利站,,45,38,38,28,22,143,143,194,172,24,23,8,4,0.7,0.7
2026-05-31T2200,3734A,118.5753,37.4405,东营市,理想之城,NA,NA,NA,56,29,22,120,120,199,171,27,22,11,12,0.5,0.6
2026-05-31T2200,1591A,110.0024,39.8127,鄂尔多斯市,综合楼,细颗粒物(PM2.5),102,78,92,62,26,74,74,104,95,24,16,7,8,0.7,0.5
2026-05-31T2200,1592A,109.9485,39.8259,鄂尔多斯市,巴音孟克林场办事处,"颗粒物(PM10),细颗粒物(PM2.5)",60,63,78,40,27,56,56,111,94,38,14,4,6,0.7,0.4
2026-05-31T2200,1593A,109.7734,39.5987,鄂尔多斯市,康泽苑,,36,36,67,21,15,40,40,106,90,39,10,5,7,0.4,0.2
2026-05-31T2200,1594A,109.8121,39.5987,鄂尔多斯市,华泰汽车城,,34,34,56,18,15,33,33,93,80,46,12,8,10,0.6,0.4
2026-05-31T2200,1595A,109.9734,39.7884,鄂尔多斯市,奥林花园,颗粒物(PM10),78,88,88,28,20,31,31,103,91,60,16,5,6,0.5,0.3
2026-05-31T2200,2436A,114.894,30.3989,鄂州市,市政府,颗粒物(PM10),78,89,79,28,37,81,81,175,137,25,25,5,8,0.8,0.8
2026-05-31T2200,2437A,114.8986,30.3714,鄂州市,赵家坝,颗粒物(PM10),59,62,67,37,33,76,76,188,154,27,17,7,7,0.6,0.7
2026-05-31T2200,3654A,114.8093,30.4091,鄂州市,精准医疗中心,颗粒物(PM10),52,52,61,28,34,111,111,179,148,16,19,5,5,0.6,0.9
2026-05-31T2200,2454A,109.4978,30.2979,恩施土家族苗族自治州,湖北民院,细颗粒物(PM2.5),58,41,26,39,14,53,53,96,89,6,4,9,8,0.5,0.5
2026-05-31T2200,3549A,109.5061,30.3771,恩施土家族苗族自治州,龙凤新区,,35,31,19,24,11,31,31,86,75,10,6,7,7,0.5,0.5
2026-05-31T2200,2499A,108.3411,21.6159,防城港市,沙万,,34,34,42,18,23,96,96,128,119,11,14,2,3,0.8,1
2026-05-31T2200,2500A,108.3515,21.7733,防城港市,防城档案局,,43,31,43,30,21,97,97,128,125,5,11,5,6,0.6,0.7
2026-05-31T2200,2501A,108.3506,21.6414,防城港市,大海花园,,40,NA,35,28,25,116,116,153,142,4,11,5,7,0.6,0.8
2026-05-31T2200,1371A,113.1293,23.0065,佛山市,湾梁,,36,34,30,21,25,115,115,173,162,13,17,/,/,/,/
2026-05-31T2200,1372A,113.1082,23.0477,佛山市,华材职中,,36,34,28,25,29,108,108,173,161,8,13,6,7,0.9,0.9
2026-05-31T2200,1373A,113.1439,23.045,佛山市,南海气象局,,37,37,35,24,26,97,97,162,150,19,19,/,/,/,/
2026-05-31T2200,1374A,113.2879,22.8094,佛山市,顺德苏岗,,39,28,12,27,17,98,98,153,136,9,11,/,/,0.7,0.6
2026-05-31T2200,1376A,112.8384,22.8678,佛山市,高明孔堂,,34,31,26,14,20,106,106,139,131,8,12,/,/,/,/
2026-05-31T2200,1377A,112.8835,23.1584,佛山市,三水监测站,,45,NA,25,31,29,63,63,145,NA,37,26,6,5,0.8,0.8
2026-05-31T2200,1378A,112.8668,23.185,佛山市,三水云东海,,41,41,42,23,28,97,97,144,134,15,16,/,/,/,/
2026-05-31T2200,3625A,113.2568,22.7629,佛山市,容桂街道办,,33,31,17,21,18,104,104,150,138,10,14,/,/,/,/
2026-05-31T2200,1282A,119.2681,26.0506,福州市,师大,,34,10,32,3,13,106,106,162,132,10,11,6,6,0.3,0.4
2026-05-31T2200,1283A,119.2983,26.1028,福州市,五四北路,,35,7,27,6,12,109,109,161,134,14,12,5,6,0.1,0.2
2026-05-31T2200,1284A,119.2648,26.0769,福州市,杨桥西路,,35,18,30,7,14,112,112,165,137,9,10,5,5,/,/
2026-05-31T2200,3048A,119.5799,26.0937,福州市,九龙,,32,8,24,3,8,102,102,143,131,13,10,6,7,0.1,0.2
2026-05-31T2200,3526A,119.5188,25.9666,福州市,吴航,,33,18,23,9,12,105,105,145,129,11,12,6,7,0.3,0.4
2026-05-31T2200,4104A,119.3106,26.0648,福州市,路通桥巷6号,,31,15,27,11,16,99,99,157,125,8,8,/,/,/,/
2026-05-31T2200,1755A,123.7974,41.8494,抚顺市,望花区,,50,43,74,18,26,158,158,178,171,12,25,15,16,0.9,1.1
2026-05-31T2200,1756A,123.9161,41.8827,抚顺市,顺城区,臭氧1小时(O3_1h),67,36,54,23,21,173,173,189,182,10,30,11,12,0.6,0.8
2026-05-31T2200,1757A,124.0437,41.8615,抚顺市,东洲区,臭氧1小时(O3_1h),62,40,44,16,17,169,169,181,175,10,18,13,13,0.5,0.6
2026-05-31T2200,1758A,123.9246,41.8638,抚顺市,新抚区,臭氧1小时(O3_1h),84,30,67,18,21,187,187,203,196,10,28,9,10,0.4,0.6
2026-05-31T2200,1759A,124.0972,41.8961,抚顺市,大伙房水库,臭氧1小时(O3_1h),73,28,37,16,17,178,178,189,184,11,21,10,10,0.4,0.5
2026-05-31T2200,1760A,123.708,41.8386,抚顺市,沈抚新城,,50,44,69,18,22,160,160,187,176,23,33,10,12,0.8,0.8
2026-05-31T2200,2377A,116.3544,27.9833,抚州市,市站,细颗粒物(PM2.5),86,72,72,53,51,127,127,144,138,8,8,30,13,0.8,0.8
2026-05-31T2200,2378A,116.3562,27.9631,抚州市,血防站,细颗粒物(PM2.5),84,70,70,52,55,130,130,150,144,9,8,3,5,0.6,0.7
2026-05-31T2200,2379A,116.3561,28.0007,抚州市,采茶剧团,细颗粒物(PM2.5),105,76,72,65,57,117,117,145,136,11,9,10,9,0.9,0.9
2026-05-31T2200,2380A,116.3854,27.9648,抚州市,医学分院,细颗粒物(PM2.5),82,NA,76,51,51,113,113,131,124,6,6,7,13,1.2,1.2
2026-05-31T2200,2207A,121.6095,41.9978,阜新市,工业园区,臭氧1小时(O3_1h),72,72,123,33,32,177,177,202,198,28,32,12,16,0.6,0.6
2026-05-31T2200,2208A,121.6567,42.0188,阜新市,长青街,臭氧1小时(O3_1h),94,69,103,38,34,195,195,205,204,19,25,11,15,0.7,0.7
2026-05-31T2200,2209A,121.6672,42.07,阜新市,农业园区,颗粒物(PM10),68,74,107,35,30,159,159,203,196,24,23,8,10,0.8,0.7
2026-05-31T2200,2211A,121.6343,42.0455,阜新市,玉龙新城,颗粒物(PM10),73,81,104,36,33,175,175,206,202,25,26,10,11,0.8,0.8
2026-05-31T2200,2301A,115.8276,32.8929,阜阳市,市监测站,颗粒物(PM10),63,68,56,26,26,142,142,174,164,21,14,7,7,0.2,0.2
2026-05-31T2200,2303A,115.8551,32.8606,阜阳市,开发区,颗粒物(PM10),83,95,69,35,26,126,126,172,160,23,15,5,5,0.5,0.5
2026-05-31T2200,2875A,115.783962,32.889217,阜阳市,阜阳职业技术学院,颗粒物(PM10),65,70,60,19,22,145,145,176,168,13,9,6,6,0.4,0.3
2026-05-31T2200,3468A,115.79,32.8614,阜阳市,市规划展馆,颗粒物(PM10),67,73,58,30,28,144,144,180,169,20,13,8,8,0.5,0.5
2026-05-31T2200,3469A,115.835101,32.918568,阜阳市,枣园社区,颗粒物(PM10),69,76,56,26,27,126,126,176,163,25,14,6,6,0.5,0.5
2026-05-31T2200,2669A,102.9097,34.9841,甘南藏族自治州,州政府,颗粒物(PM10),110,146,102,62,44,84,84,97,94,9,8,2,2,0.3,0.2
2026-05-31T2200,3380A,102.8915,34.9618,甘南藏族自治州,甘肃民族师范学院,颗粒物(PM10),114,154,108,61,38,76,76,98,94,14,12,3,2,0.3,0.3
2026-05-31T2200,2570A,101.96,30.048,甘孜藏族自治州,水桥子,,20,NA,11,6,5,61,61,76,68,11,13,6,6,0.3,0.2
2026-05-31T2200,3065A,101.9534,29.9976,甘孜藏族自治州,州环保局,,15,NA,14,9,7,48,48,71,62,20,15,4,5,0.5,0.4
2026-05-31T2200,2363A,114.9368,25.8663,赣州市,地委,细颗粒物(PM2.5),103,74,54,63,35,80,80,154,127,9,6,2,4,1.0,0.9
2026-05-31T2200,2364A,114.946,25.8483,赣州市,气象台,细颗粒物(PM2.5),64,58,49,42,40,80,80,153,133,13,11,4,5,0.5,0.5
2026-05-31T2200,2365A,114.932,25.8332,赣州市,市图书馆,颗粒物(PM10),57,59,50,35,35,102,102,163,147,8,8,5,5,0.9,0.8
2026-05-31T2200,2366A,114.8905,25.8472,赣州市,华坚鞋城,颗粒物(PM10),57,59,52,38,30,98,98,145,123,8,12,1,1,0.3,0.4
2026-05-31T2200,3109A,115.0094,25.8614,赣州市,赣县区卫计委,颗粒物(PM10),61,65,57,36,35,65,65,160,134,15,9,2,4,0.6,0.6
2026-05-31T2200,2684A,106.2753,36.0057,固原市,监测站,颗粒物(PM10),59,62,83,17,25,109,109,132,129,20,12,6,7,0.3,0.3
2026-05-31T2200,2685A,106.2384,36.0189,固原市,新区,颗粒物(PM10),56,58,74,20,23,97,97,127,122,22,11,6,7,0.3,0.4
2026-05-31T2200,2544A,106.6307,30.4577,广安市,市委,,45,33,26,31,18,64,64,115,103,16,11,8,8,0.5,0.4
2026-05-31T2200,2545A,106.6266,30.4662,广安市,友谊中学,,39,31,25,27,16,69,69,115,104,16,11,8,8,0.7,0.6
2026-05-31T2200,2547A,106.6386,30.4551,广安市,广电花园,,35,26,27,24,19,62,62,113,102,18,13,7,7,0.7,0.5
2026-05-31T2200,2902A,106.6347,30.4868,广安市,北辰小学,,45,36,28,31,19,65,65,114,101,16,11,9,9,0.6,0.5
2026-05-31T2200,2524A,105.8211,32.4444,广元市,老城,颗粒物(PM10),62,66,41,38,30,51,51,121,102,29,14,4,7,0.6,0.6
2026-05-31T2200,2526A,105.8629,32.429,广元市,监测站,细颗粒物(PM2.5),60,54,51,40,28,52,52,121,102,22,19,7,12,0.7,0.7
2026-05-31T2200,3617A,105.8047,32.4167,广元市,经开区,颗粒物(PM10),53,54,52,33,32,51,51,117,101,32,19,5,14,0.6,0.7
2026-05-31T2200,1345A,113.2346,23.1423,广州市,广雅中学,,33,33,26,19,19,96,96,163,153,12,14,1,2,0.6,0.6
2026-05-31T2200,1346A,113.2611,23.105,广州市,市五中,,36,31,25,20,20,113,113,185,175,12,13,3,3,/,/
2026-05-31T2200,1348A,113.3477,23.0916,广州市,广东商学院,,36,36,26,19,17,111,111,164,154,12,13,5,4,0.6,0.6
2026-05-31T2200,1349A,113.4332,23.105,广州市,市八十六中,,32,29,20,19,15,101,101,150,140,20,20,6,6,/,/
2026-05-31T2200,1350A,113.3506,22.9488,广州市,番禺中学,,35,35,22,18,14,101,101,156,142,12,12,5,5,0.5,0.6
2026-05-31T2200,1351A,113.2147,23.3918,广州市,花都师范,,39,24,33,16,19,124,124,167,160,15,16,7,7,0.8,0.9
2026-05-31T2200,1352A,113.2599,23.1329,广州市,市监测站,,34,34,29,19,20,99,99,164,156,14,13,2,2,/,/
2026-05-31T2200,1353A,113.5618,23.3119,广州市,九龙镇镇龙,,33,22,23,16,17,105,105,156,146,20,20,6,6,0.8,0.8
2026-05-31T2200,1354A,113.2764,23.1544,广州市,麓湖,,35,34,25,20,19,109,109,164,157,11,17,6,6,0.8,0.8
2026-05-31T2200,2846A,113.3209,23.1323,广州市,体育西,,37,37,27,21,17,100,100,160,149,17,17,4,4,0.7,0.6
2026-05-31T2200,3298A,113.5718,23.5493,广州市,从化街口,,35,33,29,24,21,104,104,151,145,15,15,6,5,1.0,0.9
2026-05-31T2200,3299A,113.3463,23.369,广州市,白云竹料,细颗粒物(PM2.5),52,44,27,36,21,97,97,174,156,20,14,2,3,0.8,0.7
2026-05-31T2200,3300A,113.2981,23.2365,广州市,白云嘉禾,,35,34,26,24,21,100,100,157,150,19,19,8,7,/,/
2026-05-31T2200,3301A,113.4256,23.1716,广州市,黄埔科学城,,35,33,27,20,20,112,112,158,147,12,14,8,7,0.5,0.5
2026-05-31T2200,3302A,113.3942,23.0485,广州市,番禺大学城,,38,32,26,19,18,120,120,171,160,15,16,5,5,0.5,0.5
2026-05-31T2200,3303A,113.4923,22.8169,广州市,南沙黄阁,,36,35,25,13,13,115,115,149,142,10,13,6,6,/,/
2026-05-31T2200,3304A,113.534,22.7893,广州市,南沙街,,40,40,24,18,14,106,106,142,132,13,13,7,7,0.4,0.4
2026-05-31T2200,3443A,113.2905,23.5541,广州市,花都梯面,NA,NA,30,24,25,17,NA,NA,140,140,13,13,8,9,/,/
2026-05-31T2200,3445A,113.786,23.7479,广州市,从化良口,,26,22,22,18,19,56,56,88,77,10,8,4,4,/,/
2026-05-31T2200,3446A,113.805,23.2614,广州市,增城荔城,,35,20,23,14,15,109,109,162,146,17,13,6,6,0.9,0.9
2026-05-31T2200,2506A,109.604387,23.066791,贵港市,江南子站,,43,36,33,30,21,96,96,136,121,17,14,2,3,0.7,0.7
2026-05-31T2200,2508A,109.5669,23.1065,贵港市,荷城子站,,36,36,22,23,17,71,71,112,100,16,9,3,3,0.8,0.7
2026-05-31T2200,3405A,109.5886,23.1172,贵港市,新世纪学校,,42,39,28,29,20,89,89,131,115,18,11,/,/,0.7,0.7
2026-05-31T2200,4260A,109.5933,23.095,贵港市,中山路155-3号,,39,36,32,24,19,123,123,145,132,9,8,/,/,0.7,0.7
2026-05-31T2200,1439A,106.6863,26.6035,贵阳市,马鞍山,,22,17,28,10,16,69,69,112,95,9,9,11,9,/,/
2026-05-31T2200,1441A,106.6241,26.6266,贵阳市,鉴湖路,,34,34,45,15,17,74,74,118,104,12,9,6,10,0,0.8
2026-05-31T2200,1442A,106.7468,26.6344,贵阳市,燕子冲,,39,39,40,18,17,72,72,114,98,12,11,6,10,0.8,0.8
2026-05-31T2200,1443A,106.6556,26.4362,贵阳市,碧云窝,,34,34,43,14,19,71,71,106,93,9,8,5,8,/,/
2026-05-31T2200,1445A,106.6963,26.6063,贵阳市,红边门,,31,31,34,12,18,60,60,111,93,19,13,6,11,/,/
2026-05-31T2200,1446A,106.7162383,26.56964667,贵阳市,新华路,,29,29,41,14,17,70,70,115,94,12,12,30,79,0.2,0.5
2026-05-31T2200,1447A,106.6742,26.542,贵阳市,太慈桥,,20,12,30,11,17,63,63,82,73,8,11,10,5,/,/
2026-05-31T2200,4230A,106.688212,26.56952,贵阳市,花果园大街66号,,25,NA,22,12,17,77,77,107,95,8,10,3,4,/,/
2026-05-31T2200,4231A,106.687268,26.516892,贵阳市,漓江路57号,,21,19,33,12,18,66,66,102,88,12,13,2,4,0.6,0.6
2026-05-31T2200,1864A,110.3091,25.2705,桂林市,龙隐路小学,,40,NA,28,28,17,53,53,101,84,13,6,4,4,0.5,0.5
2026-05-31T2200,1865A,110.2849361,25.22909545,桂林市,八中,,36,36,29,16,11,51,51,98,81,20,11,4,4,0.6,0.5
2026-05-31T2200,3531A,110.296,25.1254,桂林市,旅游学院,,33,32,33,23,19,52,52,95,87,6,4,7,6,0.4,0.4
2026-05-31T2200,4222A,110.1835,25.2444,桂林市,环湖路276号,,36,31,23,25,19,62,62,104,94,16,7,6,3,0.4,0.4
2026-05-31T2200,4301A,110.2803,25.2773,桂林市,信义路13号,,32,32,28,21,14,51,51,97,82,18,6,4,4,0.6,0.5
2026-05-31T2200,2674A,100.2262,34.4854,果洛藏族自治州,玛沁县大武镇,,29,15,17,3,6,92,92,99,98,1,2,16,17,0.3,0.3
2026-05-31T2200,1130A,126.5557,45.8109,哈尔滨市,松北商大,颗粒物(PM10),53,53,52,28,18,137,137,190,164,9,23,4,6,0.2,0.3
2026-05-31T2200,1132A,126.6162,45.719,哈尔滨市,南岗学府路,颗粒物(PM10),68,74,133,16,19,141,141,191,171,9,28,5,7,0.5,0.5
2026-05-31T2200,1133A,126.6894,45.7733,哈尔滨市,太平宏伟公园,颗粒物(PM10),70,77,120,12,21,145,145,191,172,13,29,6,8,0.3,0.4
2026-05-31T2200,1134A,126.6361,45.7672,哈尔滨市,道外承德广场,颗粒物(PM10),111,148,98,28,23,134,134,187,164,13,29,5,8,0.4,0.6
2026-05-31T2200,1136A,126.644,45.7261,哈尔滨市,动力和平路,颗粒物(PM10),83,96,65,14,22,142,142,191,172,11,28,4,8,0.3,0.4
2026-05-31T2200,1137A,126.5933,45.7479,哈尔滨市,道里建国路,NA,NA,NA,64,NA,16,NA,NA,199,NA,NA,27,NA,6,NA,0.9
2026-05-31T2200,1138A,126.6127,45.6119,哈尔滨市,平房东轻厂,,41,NA,37,16,20,129,129,187,165,9,26,8,9,0.4,0.4
2026-05-31T2200,1139A,126.5875,45.9827,哈尔滨市,呼兰师专,颗粒物(PM10),136,212,106,16,18,134,134,181,163,10,27,5,8,0.3,0.3
2026-05-31T2200,1140A,126.6299,45.6799,哈尔滨市,省农科院,颗粒物(PM10),66,72,239,31,38,129,129,178,162,8,20,5,6,0.4,0.4
2026-05-31T2200,4282A,126.6769,45.7379,哈尔滨市,华山路1号,,48,48,93,14,15,151,151,201,181,8,26,5,8,0.2,0.3
2026-05-31T2200,4283A,126.9717,45.5356,哈尔滨市,解放大街52号,,40,14,45,3,11,126,126,188,168,17,21,4,5,0.7,0.6
2026-05-31T2200,2688A,93.5124,42.8176,哈密市,地区监测站,,32,NA,16,18,8,101,101,126,120,11,8,3,3,0.6,0.5
2026-05-31T2200,2689A,93.5014,42.8312,哈密市,哈密师范学校,颗粒物(PM10),58,60,21,30,10,62,62,127,113,30,12,4,4,0.5,0.2
2026-05-31T2200,2671A,100.9016,36.9464,海北藏族自治州,海晏县西海镇,,47,47,28,32,19,106,106,132,123,4,2,8,8,0.4,0.4
2026-05-31T2200,3867A,102.074,36.5056,海东市,平安区公安局北苑,细颗粒物(PM2.5),109,71,52,69,29,NA,NA,130,108,13,12,7,11,0.5,0.5
2026-05-31T2200,4163A,102.0984,36.5119,海东市,滨河路,颗粒物(PM10),73,81,55,37,25,26,26,100,78,61,30,5,8,0.7,0.6
2026-05-31T2200,1410A,110.3189,20.0596,海口市,海南大学,,27,27,14,13,7,46,46,66,57,6,4,5,5,0.3,0.3
2026-05-31T2200,1411A,110.2827,20.0051,海口市,秀英海南医院,,25,17,14,17,9,21,21,71,55,23,10,6,6,0.3,0.3
2026-05-31T2200,1412A,110.3391,19.9979,海口市,海南师范大学,,19,19,16,12,9,39,39,70,56,7,5,3,3,0.3,0.3
2026-05-31T2200,1413A,110.3303,20.0359,海口市,龙华路环保局宿舍,,22,22,14,14,9,38,38,65,54,5,4,/,/,0.3,0.2
2026-05-31T2200,3539A,110.5111,19.9737,海口市,桂林洋子站,,28,28,16,14,8,38,38,55,47,6,5,/,/,/,/
2026-05-31T2200,4134A,110.1952,20.0451,海口市,长滨二路9号,,27,27,15,12,7,34,34,73,60,7,3,/,/,/,/
2026-05-31T2200,2673A,100.6158,36.2985,海南藏族自治州,共和县恰卜恰镇,,46,46,41,25,23,93,93,124,111,11,3,11,11,0.3,0.4
2026-05-31T2200,2676A,97.373,37.376,海西蒙古族藏族自治州,德令哈市,,32,19,28,6,14,100,100,122,120,2,2,13,18,0.3,0.4
2026-05-31T2200,1049A,114.492,36.5712,邯郸市,矿院,颗粒物(PM10),60,63,43,27,22,144,144,192,178,15,14,3,5,0.4,0.5
2026-05-31T2200,1050A,114.4839,36.6136,邯郸市,丛台公园,颗粒物(PM10),55,57,38,26,17,142,142,190,176,13,11,5,7,0.4,0.5
2026-05-31T2200,3458A,114.7893,36.5592,邯郸市,香泉濮院小区,颗粒物(PM10),80,91,67,37,24,147,147,181,171,16,15,1,2,0.2,0.3
2026-05-31T2200,3580A,114.1998,36.4439,邯郸市,峰峰矿区临水派出所,,50,38,32,21,18,157,157,190,183,12,17,16,8,1.9,0.8
2026-05-31T2200,4068A,114.5209,36.7697,邯郸市,建安街268号,颗粒物(PM10),53,53,55,26,20,143,143,187,174,16,17,2,7,0.4,0.7
2026-05-31T2200,4069A,114.5488,36.6177,邯郸市,丛台东路558号,颗粒物(PM10),55,57,52,25,22,139,139,182,166,15,19,6,7,0.4,0.6
2026-05-31T2200,2635A,107.0155,33.0707,汉中市,市监测站,细颗粒物(PM2.5),74,72,59,47,36,98,98,137,133,16,14,6,8,0.7,0.6
2026-05-31T2200,2636A,107.0083,33.114,汉中市,鑫源开发区,细颗粒物(PM2.5),111,NA,50,72,35,75,75,127,116,20,17,7,8,0.9,0.7
2026-05-31T2200,2637A,107.0072,33.0323,汉中市,南郑大河坎水厂,细颗粒物(PM2.5),130,NA,56,92,39,56,56,126,115,23,14,5,5,1.0,0.8
2026-05-31T2200,1223A,120.2073,30.2111,杭州市,滨江,,42,42,43,18,21,131,131,181,172,18,20,10,9,0.5,0.5
2026-05-31T2200,1224A,120.0625,30.2737,杭州市,西溪,,45,28,34,14,22,142,142,184,177,15,22,5,4,0.1,0.2
2026-05-31T2200,1226A,120.3417,30.315,杭州市,下沙,,44,27,33,11,18,139,139,180,173,14,27,6,7,0.5,0.5
2026-05-31T2200,1227A,120.1252,30.2465,杭州市,卧龙桥,,46,33,34,16,21,147,147,190,183,14,16,10,9,0.2,0.2
2026-05-31T2200,1228A,120.1902,30.2691,杭州市,浙江农大,,42,38,42,14,23,132,132,174,168,20,27,7,7,0.3,0.4
2026-05-31T2200,1230A,120.1195,30.3121,杭州市,和睦小学,,42,34,38,16,24,133,133,176,167,18,23,8,8,0.5,0.5
2026-05-31T2200,1231A,120.3076,30.4146,杭州市,临平镇,,47,36,40,14,20,150,150,187,NA,11,17,8,8,0.3,0.3
2026-05-31T2200,1232A,120.2753,30.1839,杭州市,城厢镇,,48,48,47,21,23,110,110,181,168,33,26,9,7,0.6,0.5
2026-05-31T2200,1233A,120.0883,30.1808,杭州市,云栖,,42,42,42,16,21,114,114,186,172,28,26,10,9,0.7,0.6
2026-05-31T2200,3557A,119.9463,30.0496,杭州市,镇二中,颗粒物(PM10),53,54,40,21,28,143,143,169,164,23,29,7,6,0.5,0.5
2026-05-31T2200,3558A,119.7184,30.2367,杭州市,市府大楼,,50,22,31,14,25,160,160,202,188,18,19,8,8,0.5,0.5
2026-05-31T2200,3656A,120.1554,30.2863,杭州市,消防大队,,43,29,36,16,23,136,136,180,172,18,26,7,7,0.4,0.4
2026-05-31T2200,1270A,117.1957,31.7845,合肥市,明珠广场,颗粒物(PM10),56,58,57,36,34,156,156,194,180,31,15,8,8,0.6,0.6
2026-05-31T2200,1271A,117.307,31.8765,合肥市,三里街,"颗粒物(PM10),细颗粒物(PM2.5)",68,75,61,44,34,135,135,165,157,40,22,10,9,0.7,0.6
2026-05-31T2200,1272A,117.2587,31.8703,合肥市,琥珀山庄,颗粒物(PM10),63,68,57,36,30,158,158,172,163,22,13,7,7,0.9,0.9
2026-05-31T2200,1275A,117.2593,31.9376,合肥市,庐阳区,颗粒物(PM10),70,78,60,34,29,110,110,177,164,52,22,9,9,0.7,0.7
2026-05-31T2200,1276A,117.345251,31.861615,合肥市,瑶海区,颗粒物(PM10),84,97,69,48,32,129,129,187,171,48,23,10,9,0.8,0.6
2026-05-31T2200,1277A,117.3033,31.7967,合肥市,包河区,颗粒物(PM10),72,80,63,44,30,106,106,166,149,90,38,10,9,0.7,0.6
2026-05-31T2200,1278A,117.278,31.7392,合肥市,滨湖新区,臭氧1小时(O3_1h),72,70,58,36,28,177,177,171,171,16,13,10,9,0.7,0.7
2026-05-31T2200,1279A,117.1324,31.8395,合肥市,高新区,颗粒物(PM10),58,61,64,29,32,138,138,177,160,29,13,6,7,0.5,0.6
2026-05-31T2200,3464A,117.3802,31.9148,合肥市,高教基地,颗粒物(PM10),68,75,71,34,35,130,130,191,177,20,15,10,10,0.8,0.6
2026-05-31T2200,4098A,117.2518,31.8404,合肥市,中国科学技术大学,臭氧1小时(O3_1h),82,73,58,40,29,185,185,203,192,22,15,10,10,0.7,0.7
2026-05-31T2200,3614A,79.9241,37.0878,和田地区,地区环保局,NA,NA,NA,125,45,36,90,90,111,108,NA,3,1,2,0.3,0.2
2026-05-31T2200,3615A,79.9132,37.1137,和田地区,市环保局,颗粒物(PM10),100,120,120,32,33,99,99,122,120,14,5,3,2,0.3,0.2
2026-05-31T2200,2517A,108.0496,24.6957,河池市,市环保站,,26,22,23,18,11,80,80,95,91,9,6,7,8,0.7,0.7
2026-05-31T2200,4302A,108.0901,24.6945,河池市,上任中路54号,,36,36,23,18,8,59,59,97,90,23,7,9,11,0.9,0.9
2026-05-31T2200,1697A,114.6962,23.7538,河源市,东埔,,43,41,30,30,23,68,68,107,92,12,9,5,4,0.9,0.8
2026-05-31T2200,1698A,114.6895,23.7232,河源市,老城,,34,34,35,6,26,32,32,99,NA,16,12,4,5,0.7,0.7
2026-05-31T2200,3374A,115.5562,35.089,菏泽市,定陶老年大学,颗粒物(PM10),88,102,83,30,22,137,137,190,178,23,17,6,5,0.4,0.3
2026-05-31T2200,4114A,115.4239,35.2593,菏泽市,黄河路600号,颗粒物(PM10),95,112,97,32,23,145,145,185,176,21,19,10,7,0.4,0.3
2026-05-31T2200,4115A,115.5025,35.2727,菏泽市,菏泽市人社局,颗粒物(PM10),71,79,77,22,22,146,146,180,172,15,13,8,8,0.2,0.2
2026-05-31T2200,4184A,115.479691,35.244011,菏泽市,永昌路1号,颗粒物(PM10),70,78,77,29,24,141,141,193,181,26,19,7,8,0.5,0.5
2026-05-31T2200,4193A,115.471542,35.280012,菏泽市,长城路999号,颗粒物(PM10),85,99,86,29,25,153,153,194,186,18,13,8,8,0.2,0.1
2026-05-31T2200,2514A,111.5264,24.4178,贺州市,环保小区,,48,48,22,20,16,57,57,101,89,15,6,8,7,0.5,0.4
2026-05-31T2200,2515A,111.561,24.4074,贺州市,政协大楼,,39,27,20,27,16,52,52,106,90,26,10,13,10,0.7,0.7
2026-05-31T2200,3534A,111.4744,24.455,贺州市,西湾,颗粒物(PM10),53,54,27,3,40,30,30,86,67,21,9,9,10,0.6,0.5
2026-05-31T2200,2385A,114.17,35.9019,鹤壁市,市监测站,,49,39,35,32,25,155,155,169,168,14,13,8,5,1.0,0.7
2026-05-31T2200,2386A,114.2953,35.7512,鹤壁市,市交警支队,颗粒物(PM10),73,82,64,32,24,128,128,167,161,24,22,12,9,0.5,0.5
2026-05-31T2200,2387A,114.2877,35.7302,鹤壁市,迎宾馆,颗粒物(PM10),94,111,78,28,23,130,130,177,170,24,20,9,10,0.3,0.4
2026-05-31T2200,3474A,114.2616,35.6824,鹤壁市,大新区,颗粒物(PM10),83,95,85,34,32,102,102,179,164,41,27,10,11,0.2,0.3
2026-05-31T2200,3596A,114.1573,35.9607,鹤壁市,南山宾馆,颗粒物(PM10),60,63,54,35,32,150,150,165,163,13,9,9,10,0.5,0.5
2026-05-31T2200,2244A,130.2537,47.3416,鹤岗市,哈啤分公司,颗粒物(PM10),90,105,38,35,14,152,152,149,146,12,14,11,12,0.0,0.1
2026-05-31T2200,2245A,130.2683,47.3087,鹤岗市,斯达机电,颗粒物(PM10),105,132,35,32,10,152,152,150,148,8,11,9,10,0.4,0.4
2026-05-31T2200,2246A,130.3114,47.3388,鹤岗市,东山纸板厂,颗粒物(PM10),122,176,80,37,23,135,135,134,129,10,20,10,12,0.3,0.4
2026-05-31T2200,2263A,127.4832,50.2524,黑河市,交通局,,44,44,38,9,16,69,69,85,68,6,12,6,7,0.1,0.1
2026-05-31T2200,2264A,127.5146,50.2339,黑河市,环保局,,26,19,10,18,12,70,70,84,66,6,8,4,4,0.3,0.3
2026-05-31T2200,1074A,115.6839,37.754,衡水市,电机北厂,颗粒物(PM10),76,86,70,34,21,146,146,203,186,19,12,4,5,0.2,0.3
2026-05-31T2200,1075A,115.6303,37.7318,衡水市,市监测站,颗粒物(PM10),70,78,63,22,17,139,139,198,177,18,14,5,6,0.5,0.6
2026-05-31T2200,3188A,115.6684,37.7216,衡水市,市城管局,颗粒物(PM10),72,80,68,35,21,141,141,196,178,17,13,9,6,0.3,0.3
2026-05-31T2200,3459A,115.599,37.5491,衡水市,地表水厂,颗粒物(PM10),77,87,71,24,22,94,94,191,160,38,14,7,9,0.4,0.4
2026-05-31T2200,2457A,112.6209,26.9268,衡阳市,衡阳化工总厂,细颗粒物(PM2.5),62,57,58,41,39,80,80,136,122,20,16,5,5,0.9,1
2026-05-31T2200,2458A,112.621,26.8957,衡阳市,珠晖区环保局,,47,47,54,29,33,91,91,141,126,20,15,7,9,0.9,1
2026-05-31T2200,2459A,112.628,26.8654,衡阳市,市委党校,,48,39,54,33,36,89,89,128,118,10,9,9,11,0.8,0.8
2026-05-31T2200,2460A,112.6007,26.8977,衡阳市,市监测站,颗粒物(PM10),56,58,52,32,32,93,93,129,119,12,12,7,9,0.8,0.9
2026-05-31T2200,2461A,112.5658,26.9013,衡阳市,真空机电公司,颗粒物(PM10),55,56,49,31,31,97,97,124,117,17,15,6,8,0.9,0.9
2026-05-31T2200,3399A,112.6703,26.8817,衡阳市,师范学院,,49,46,60,34,35,85,85,136,123,9,8,8,10,0.8,0.8
2026-05-31T2200,3038A,103.3757,23.3679,红河哈尼族彝族自治州,州图书馆,,45,45,19,23,13,61,61,81,73,6,7,2,4,0.2,0.2
2026-05-31T2200,4154A,103.401,23.3561,红河哈尼族彝族自治州,蒙自市朝阳路,,19,NA,13,11,10,60,60,78,73,5,6,5,6,0.2,0.2
2026-05-31T2200,1090A,111.6506,40.7517,呼和浩特市,呼市一监,,26,22,36,14,9,81,81,112,106,11,10,12,12,0.2,0.2
2026-05-31T2200,1094A,111.7516,40.8369,呼和浩特市,如意水处理厂,,30,30,37,12,13,55,55,113,103,34,14,7,9,0.4,0.4
2026-05-31T2200,1095A,111.727798,40.806187,呼和浩特市,二十九中,,28,23,38,19,13,65,65,106,100,29,14,8,10,0.3,0.3
2026-05-31T2200,1097A,111.717,40.7617,呼和浩特市,化肥厂生活区,,33,33,34,13,16,62,62,107,100,31,15,9,10,0.4,0.4
2026-05-31T2200,3699A,111.6519,40.8389,呼和浩特市,海东办,,22,19,37,7,6,68,68,106,98,18,11,5,8,0.6,0.6
2026-05-31T2200,4275A,111.591512,40.827312,呼和浩特市,成吉思汗西街8号,,48,48,36,12,8,50,50,98,86,39,20,4,5,0.2,0.3
2026-05-31T2200,4276A,111.6597,40.8077,呼和浩特市,公园东路75号,,28,17,38,3,10,88,88,104,102,13,13,8,11,0.3,0.3
2026-05-31T2200,4277A,111.5427,40.7846,呼和浩特市,金海路35号,,23,16,45,16,14,71,71,102,90,13,13,4,6,0.3,0.3
2026-05-31T2200,3061A,119.7511,49.1576,呼伦贝尔市,国华电力东,,35,35,85,16,19,60,60,91,66,4,6,5,6,0.3,0.3
2026-05-31T2200,4279A,119.7569,49.2222,呼伦贝尔市,伊敏大街东7号,,35,35,74,15,20,54,54,88,62,5,8,6,6,0.3,0.4
2026-05-31T2200,1250A,120.075,30.867,湖州市,城西水厂,,43,32,41,15,22,136,136,171,166,11,23,8,7,0.5,0.5
2026-05-31T2200,2873A,120.083,30.8929,湖州市,仁皇山新区,,45,33,36,16,21,141,141,169,164,15,21,8,8,0.5,0.4
2026-05-31T2200,2907A,120.1846,30.8592,湖州市,吴兴区站,,42,41,40,17,20,134,134,154,148,13,21,9,8,0.5,0.4
2026-05-31T2200,3562A,120.4146,30.8538,湖州市,南浔区站,,45,45,39,20,19,124,124,158,149,21,24,9,8,0.5,0.5
2026-05-31T2200,1607A,120.904878,40.721091,葫芦岛市,龙港区,臭氧1小时(O3_1h),103,52,69,34,33,205,205,226,226,8,14,10,11,0.6,0.7
2026-05-31T2200,1608A,120.8382,40.7521,葫芦岛市,化工街,臭氧1小时(O3_1h),99,75,78,36,32,199,199,224,224,24,30,14,17,0.6,0.8
2026-05-31T2200,1609A,120.8339,40.7078,葫芦岛市,新区,臭氧1小时(O3_1h),101,67,62,28,32,201,201,223,223,11,15,9,11,0.7,0.8
2026-05-31T2200,1610A,120.8697,40.7679,葫芦岛市,东城区,臭氧1小时(O3_1h),94,62,69,35,38,195,195,216,216,16,24,10,11,0.9,1
2026-05-31T2200,2483A,109.9297,27.5383,怀化市,河西地税局,,45,45,31,27,21,26,26,113,87,24,10,6,7,/,/
2026-05-31T2200,2484A,109.9783,27.5342,怀化市,市四医院,NA,NA,NA,34,NA,20,NA,NA,109,96,15,10,7,7,0.6,0.4
2026-05-31T2200,2485A,109.9971,27.5579,怀化市,监测楼,NA,NA,NA,34,NA,21,NA,NA,121,105,NA,9,NA,6,NA,0.5
2026-05-31T2200,1210A,119.0566,33.5991,淮安市,钵池山,颗粒物(PM10),63,68,45,33,25,120,120,178,171,29,20,15,14,0.5,0.4
2026-05-31T2200,1211A,119.0083,33.578,淮安市,北京南路,颗粒物(PM10),74,83,48,39,28,134,134,182,177,28,18,11,9,0.8,0.6
2026-05-31T2200,1212A,118.9938,33.6083,淮安市,市监测站,颗粒物(PM10),56,58,41,28,26,140,140,174,171,26,23,10,11,0.6,0.7
2026-05-31T2200,1213A,119.135,33.5038,淮安市,楚州区监测站,颗粒物(PM10),69,76,56,43,32,91,91,184,165,38,25,9,8,0.5,0.4
2026-05-31T2200,3426A,118.8757,33.2897,淮安市,新华书店,,43,43,54,21,30,111,111,191,168,31,22,8,9,0.5,0.6
2026-05-31T2200,4092A,119.119691,33.550006,淮安市,枚皋中路89号,颗粒物(PM10),73,81,65,30,31,116,116,194,183,23,18,9,9,0.8,0.9
2026-05-31T2200,4206A,119.028838,33.631911,淮安市,承德北路606号,颗粒物(PM10),63,68,46,31,24,124,124,175,169,26,15,9,9,0.7,0.6
2026-05-31T2200,2282A,116.8005,33.9749,淮北市,监测站,颗粒物(PM10),76,86,73,29,34,155,155,186,181,21,14,7,7,0.6,0.7
2026-05-31T2200,2283A,116.8094,33.9008,淮北市,烈山区政府,颗粒物(PM10),109,141,96,22,32,145,145,190,183,21,12,8,8,0.3,0.3
2026-05-31T2200,4017A,116.7926,33.9534,淮北市,市博物馆,颗粒物(PM10),79,90,71,23,36,158,158,194,190,17,11,5,3,0.4,0.4
2026-05-31T2200,4100A,116.8322,33.9884,淮北市,杜集区第一实验学校,颗粒物(PM10),91,107,94,27,35,156,156,200,190,23,14,9,6,0.3,0.4
2026-05-31T2200,2277A,116.8304,32.7726,淮南市,潘集区政府,颗粒物(PM10),67,73,81,24,39,108,108,197,162,55,20,10,9,0.5,0.6
2026-05-31T2200,2279A,116.8569,32.5949,淮南市,谢家集区政府,颗粒物(PM10),76,86,69,44,40,110,110,194,166,49,22,13,8,0.5,0.4
2026-05-31T2200,2280A,116.8279,32.6333,淮南市,八公山区政府,颗粒物(PM10),73,82,71,39,40,133,133,196,172,24,13,8,6,0.4,0.4
2026-05-31T2200,2894A,117.0561,32.6536,淮南市,经济技术开发区消防队,颗粒物(PM10),69,76,69,37,42,153,153,188,168,27,18,10,9,0.6,0.5
2026-05-31T2200,3329A,117.011,32.5891,淮南市,山南新区,颗粒物(PM10),93,110,78,48,47,164,164,190,174,20,15,13,11,0.5,0.4
2026-05-31T2200,4209A,117.003137,32.644456,淮南市,国庆中路369号,颗粒物(PM10),68,74,69,30,41,166,166,184,170,15,11,6,6,0.4,0.4
2026-05-31T2200,2446A,114.9021,30.474,黄冈市,职工中心,,46,41,52,32,36,109,109,168,150,5,6,5,6,0.7,0.9
2026-05-31T2200,2929A,114.8858,30.4519,黄冈市,红卫路,,45,36,48,31,35,110,110,173,144,3,3,7,8,0.4,0.5
2026-05-31T2200,3398A,114.9134,30.4446,黄冈市,市林业局,,45,45,57,31,40,113,113,172,144,8,12,3,5,0.3,0.4
2026-05-31T2200,2672A,102.02,35.5101,黄南藏族自治州,同仁县隆务镇,颗粒物(PM10),111,147,77,61,32,105,105,130,115,1,1,8,8,0.2,0.1
2026-05-31T2200,2295A,118.2905,29.6965,黄山市,延安路89号,细颗粒物(PM2.5),54,48,44,37,30,46,46,140,95,12,10,6,6,0.5,0.4
2026-05-31T2200,2297A,118.1369,30.2755,黄山市,黄山区政府5号楼,细颗粒物(PM2.5),84,NA,42,52,30,49,49,133,95,6,5,2,3,0.5,0.5
2026-05-31T2200,4210A,118.335445,29.720283,黄山市,滨江东路7-2号,颗粒物(PM10),58,61,49,35,26,46,46,145,102,17,8,/,/,/,/
2026-05-31T2200,2423A,115.0547,30.2332,黄石市,沈家营,细颗粒物(PM2.5),66,70,74,43,37,125,125,180,154,6,13,3,6,0.3,0.4
2026-05-31T2200,2426A,114.899,30.211,黄石市,铁山,细颗粒物(PM2.5),76,64,54,48,36,108,108,183,157,11,10,4,5,0.7,0.6
2026-05-31T2200,2427A,115.0259,30.2108,黄石市,团城山,细颗粒物(PM2.5),80,79,70,50,41,137,137,185,167,10,13,4,5,0.8,1
2026-05-31T2200,3149A,115.0174,30.1591,黄石市,笔架山北路,颗粒物(PM10),78,89,87,41,39,131,131,175,165,8,12,4,7,0.3,0.5
2026-05-31T2200,4185A,115.078022,30.21118,黄石市,磁湖东路29号,颗粒物(PM10),75,84,79,46,41,110,110,177,156,20,14,4,7,0.3,0.4
2026-05-31T2200,1392A,114.4181,23.0528,惠州市,河南岸金山湖子站,,37,37,41,19,24,114,114,157,149,14,9,8,7,0.8,0.9
2026-05-31T2200,1393A,114.4055,23.0824,惠州市,下埔横江三路子站,,45,45,49,23,27,116,116,160,152,14,9,4,5,0.9,0.9
2026-05-31T2200,1395A,114.4645,22.7832,惠州市,惠阳区承修路船湖子站,,47,47,48,21,22,142,142,152,142,9,10,4,6,0.6,0.6
2026-05-31T2200,1396A,114.5316,22.7423,惠州市,大亚湾管委会子站,,47,39,42,20,21,148,148,147,140,11,11,5,6,0.5,0.6
2026-05-31T2200,3314A,114.4334,22.8134,惠州市,惠阳秋长,,42,41,43,22,23,133,133,161,146,9,8,/,/,/,/
2026-05-31T2200,3452A,114.6521,22.7755,惠州市,大亚湾霞涌,,47,26,38,18,21,149,149,144,144,4,5,/,/,/,/
2026-05-31T2200,4300A,114.4089,23.1147,惠州市,文华一路1号,,43,43,45,24,26,113,113,160,152,14,8,/,/,/,/
2026-05-31T2200,2240A,130.9618,45.2926,鸡西市,环保局,,32,32,27,20,12,94,94,145,120,21,17,9,7,0.3,0.3
2026-05-31T2200,2243A,130.9294,45.2959,鸡西市,第一中学,,39,28,23,20,10,122,122,144,124,5,11,7,7,0.4,0.3
2026-05-31T2200,3707A,131.0069,45.2988,鸡西市,欧美日汽修厂,,38,38,31,12,11,77,77,137,113,13,16,6,6,0.5,0.5
2026-05-31T2200,2367A,114.9753,27.0803,吉安市,红声器材厂,细颗粒物(PM2.5),64,66,56,42,31,123,123,150,143,12,9,3,2,0.8,0.7
2026-05-31T2200,2369A,114.9903,27.1313,吉安市,市环境监测站,细颗粒物(PM2.5),92,78,54,56,34,110,110,131,126,10,8,16,10,/,/
2026-05-31T2200,2370A,115.009527,27.096792,吉安市,青原区法院,细颗粒物(PM2.5),90,82,55,55,34,118,118,145,137,11,9,13,8,0.7,0.6
2026-05-31T2200,1772A,126.54,43.8622,吉林市,哈达湾,颗粒物(PM10),55,56,36,20,15,142,142,190,176,18,16,7,7,0.5,0.4
2026-05-31T2200,1773A,126.5843,43.8358,吉林市,东局子,,50,NA,18,14,11,160,160,196,185,15,13,4,5,0.6,0.6
2026-05-31T2200,1774A,126.5051,43.8243,吉林市,电力学院,,49,49,31,17,14,152,152,204,187,22,29,6,6,0.5,0.5
2026-05-31T2200,1775A,126.6133,43.8971,吉林市,江北,,46,46,32,16,12,143,143,184,171,15,14,6,6,0.5,0.5
2026-05-31T2200,1776A,126.5549,43.8304,吉林市,江南公园,,48,48,33,25,17,153,153,194,181,11,14,7,7,0.3,0.3
2026-05-31T2200,2868A,126.4737,43.953,吉林市,九站,颗粒物(PM10),53,53,42,18,13,146,146,197,180,17,22,3,4,0.5,0.5
2026-05-31T2200,1299A,116.9866,36.6118,济南市,科干所,臭氧1小时(O3_1h),69,66,45,25,18,175,175,193,190,16,13,7,8,0.4,0.4
2026-05-31T2200,1300A,116.9379,36.6652,济南市,农科所,颗粒物(PM10),63,68,60,25,19,155,155,188,179,18,13,4,4,0.4,0.3
2026-05-31T2200,1301A,117.1265,36.6736,济南市,开发区,颗粒物(PM10),63,68,54,25,17,167,167,188,184,11,8,6,7,0.4,0.4
2026-05-31T2200,1303A,117.0616,36.6865,济南市,省种子仓库,颗粒物(PM10),67,73,65,28,20,141,141,182,175,27,22,6,7,0.5,0.4
2026-05-31T2200,1304A,116.9495185,36.644937,济南市,机床二厂,颗粒物(PM10),74,83,71,23,19,159,159,185,178,16,13,6,7,0.4,0.4
2026-05-31T2200,1305A,117.0496,36.6629,济南市,市监测站,颗粒物(PM10),67,73,58,22,16,171,171,188,184,15,12,5,5,0.3,0.3
2026-05-31T2200,1306A,116.7674,36.5458,济南市,长清党校,颗粒物(PM10),73,81,67,26,19,169,169,191,186,17,13,6,7,0.2,0.2
2026-05-31T2200,1961A,117.5323,36.6865,济南市,东山小学,颗粒物(PM10),63,68,59,23,20,127,127,189,172,29,18,5,5,0.3,0.2
2026-05-31T2200,3059A,117.7181,36.205,济南市,泰兴公司,颗粒物(PM10),62,66,65,23,22,130,130,185,169,32,39,11,14,0.2,0.4
2026-05-31T2200,3064A,117.6861,36.2172,济南市,莱芜战役纪念馆,颗粒物(PM10),60,63,64,23,24,148,148,188,177,22,31,5,10,0.2,0.4
2026-05-31T2200,3494A,117.1673,36.9782,济南市,济阳区政府,颗粒物(PM10),111,147,78,33,19,107,107,180,164,46,24,9,9,0.2,0.2
2026-05-31T2200,3495A,117.1168,36.6299,济南市,锦屏中学,颗粒物(PM10),67,73,56,26,17,153,153,181,175,9,7,8,8,0.4,0.4
2026-05-31T2200,4108A,117.7107,36.2385,济南市,山财大街5号,颗粒物(PM10),60,63,61,21,20,137,137,188,176,29,26,8,11,0.5,0.5
2026-05-31T2200,4109A,116.9744,36.6889,济南市,无影山路12号,颗粒物(PM10),68,75,59,25,18,152,152,179,173,18,14,2,3,0.4,0.4
2026-05-31T2200,1653A,116.6229,35.4288,济宁市,火炬城,颗粒物(PM10),55,57,63,19,20,138,138,170,164,18,16,3,4,0.5,0.5
2026-05-31T2200,3500A,116.5808,35.3703,济宁市,北湖一中,颗粒物(PM10),58,61,64,18,21,155,155,182,177,3,4,4,6,0.4,0.5
2026-05-31T2200,3501A,116.8251,35.5592,济宁市,服务中心,颗粒物(PM10),68,74,75,19,21,138,138,188,174,17,13,6,3,0.5,0.4
2026-05-31T2200,3678A,116.5907,35.4054,济宁市,市第七中学,颗粒物(PM10),62,66,77,19,22,153,153,186,180,8,6,5,5,0.3,0.3
2026-05-31T2200,4111A,116.6075,35.4566,济宁市,任和路,颗粒物(PM10),63,68,73,19,22,162,162,190,184,7,10,2,4,0.3,0.4
2026-05-31T2200,4112A,116.5648,35.3921,济宁市,文体南路1号,颗粒物(PM10),63,68,68,3,17,158,158,186,180,8,8,3,6,0.5,0.5
2026-05-31T2200,4122A,112.6071,35.1015,济源市,市委党校,颗粒物(PM10),62,66,56,24,23,71,71,156,127,29,19,9,14,0.7,0.7
2026-05-31T2200,4123A,112.596,35.0702,济源市,沁园中路1号,颗粒物(PM10),56,58,47,26,24,69,69,146,125,40,28,7,11,0.7,1.1
2026-05-31T2200,2255A,130.2749,46.8028,佳木斯市,佳纺,,47,9,24,3,9,148,148,147,147,7,9,3,5,0.2,0.1
2026-05-31T2200,2257A,130.3258,46.7975,佳木斯市,环保局,细颗粒物(PM2.5),58,50,24,39,12,146,146,155,151,8,8,3,2,0.2,0.2
2026-05-31T2200,4285A,130.363,46.806,佳木斯市,顺和街,颗粒物(PM10),52,52,28,35,11,140,140,152,147,8,9,1,1,0.2,0.1
2026-05-31T2200,4286A,130.3952,46.8268,佳木斯市,长安路196号,细颗粒物(PM2.5),86,96,31,53,10,149,149,155,150,5,11,3,4,0.2,0.1
2026-05-31T2200,1252A,120.7439,30.778,嘉兴市,清河小学,颗粒物(PM10),57,59,36,29,14,124,124,141,138,26,22,10,9,0.4,0.5
2026-05-31T2200,1253A,120.7261,30.7477,嘉兴市,嘉兴学院,,43,39,26,16,12,137,137,136,NA,19,13,9,6,0.5,0.3
2026-05-31T2200,2872A,120.7845,30.7524,嘉兴市,南湖区残联,,44,42,22,20,12,139,139,154,151,19,15,9,7,0.5,0.5
2026-05-31T2200,3407A,120.6915,30.7741,嘉兴市,秀洲住建,,44,44,27,16,9,130,130,153,148,22,17,8,8,0.5,0.4
2026-05-31T2200,1945A,98.291,39.7705,嘉峪关市,气象局,,41,41,37,18,12,101,101,130,126,16,9,4,3,0.6,0.5
2026-05-31T2200,2884A,98.2672,39.7978,嘉峪关市,酒钢宾馆,,39,39,42,23,17,117,117,136,132,12,10,6,10,0.2,0.4
2026-05-31T2200,3248A,98.2644,39.7723,嘉峪关市,雄关区,,36,36,39,19,14,105,105,136,132,22,16,4,5,0.2,0.1
2026-05-31T2200,1383A,113.1063,22.6058,江门市,北街,,31,29,25,20,18,98,98,130,122,9,12,/,/,/,/
2026-05-31T2200,1384A,113.073,22.5835,江门市,西区,,40,40,25,20,18,106,106,134,129,9,12,/,/,/,/
2026-05-31T2200,1385A,113.0218,22.531,江门市,圭峰西,,40,40,31,22,21,107,107,132,126,10,11,/,/,/,/
2026-05-31T2200,1386A,113.0826,22.5947,江门市,东湖,,36,36,27,21,18,104,104,132,127,9,11,8,8,0.4,0.4
2026-05-31T2200,3311A,113.1077,22.5647,江门市,江海富民,,46,46,34,21,19,102,102,137,130,9,10,/,/,0.6,0.6
2026-05-31T2200,3449A,113.0496,22.4669,江门市,新会银湖,,39,39,24,20,18,94,94,126,122,10,15,2,2,0.6,0.6
2026-05-31T2200,3335A,113.3137,35.2643,焦作市,马村街道办,,48,48,45,29,21,110,110,166,154,17,14,10,10,0.4,0.5
2026-05-31T2200,3336A,113.2464,35.2374,焦作市,焦作技师学院,颗粒物(PM10),51,51,41,26,20,96,96,154,140,29,21,18,12,0.5,0.4
2026-05-31T2200,3477A,113.1656,35.2536,焦作市,中站许衡医院,,47,47,42,21,20,117,117,166,152,15,14,11,12,0.7,0.6
2026-05-31T2200,3981A,113.2456,35.18,焦作市,原李万街道办,颗粒物(PM10),100,120,49,25,20,87,87,157,NA,30,22,4,10,0.4,0.5
2026-05-31T2200,4264A,113.234,35.219,焦作市,新安路1731号,颗粒物(PM10),73,82,47,22,22,92,92,166,151,32,20,20,13,0.6,0.6
2026-05-31T2200,4295A,113.2722,35.2121,焦作市,人民路3066号,颗粒物(PM10),61,65,53,26,22,86,86,146,134,25,21,4,8,0.3,0.4
2026-05-31T2200,1708A,116.3701,23.5345,揭阳市,新兴,,39,27,48,16,43,124,124,172,158,8,11,7,8,0.7,0.8
2026-05-31T2200,1709A,116.3261,23.5442,揭阳市,西马,,42,33,47,13,26,134,134,174,165,7,11,4,6,0.5,0.7
2026-05-31T2200,1710A,116.361,23.5627,揭阳市,东兴,,40,23,43,15,27,128,128,176,164,10,12,5,4,/,/
2026-05-31T2200,1711A,116.4151,23.5295,揭阳市,渔湖,,37,32,44,13,28,118,118,184,166,6,10,5,5,/,/
2026-05-31T2200,3320A,116.4028,23.5699,揭阳市,曲溪,,37,36,42,14,27,116,116,191,171,10,12,6,6,0.8,0.8
2026-05-31T2200,1944A,102.1691,38.5166,金昌市,天庆家园,颗粒物(PM10),55,56,78,23,25,105,105,121,120,16,10,19,13,0.3,0.3
2026-05-31T2200,4022A,102.1648,38.5369,金昌市,金川区人防中心,,39,39,65,18,26,119,119,134,134,15,6,13,12,0.4,0.3
2026-05-31T2200,4239A,102.193042,38.531887,金昌市,长春路96号,颗粒物(PM10),56,58,71,27,30,119,119,133,133,16,5,67,13,0.5,0.3
2026-05-31T2200,1262A,119.6478,29.0773,金华市,十五中,颗粒物(PM10),58,60,48,27,22,99,99,187,169,38,24,2,3,0.4,0.4
2026-05-31T2200,1263A,119.6859,29.1032,金华市,监测站,颗粒物(PM10),68,74,48,33,22,65,65,174,151,64,30,6,5,0.5,0.4
2026-05-31T2200,3659A,119.656,29.1132,金华市,气象局,颗粒物(PM10),60,63,46,32,21,82,82,180,159,54,28,4,4,0.2,0.1
2026-05-31T2200,1767A,121.1114,41.0879,锦州市,南山,NA,NA,NA,74,NA,33,NA,NA,227,227,NA,23,NA,9,NA,0.8
2026-05-31T2200,1768A,121.060361,40.842794,锦州市,开发区,臭氧1小时(O3_1h),106,70,132,38,40,212,212,234,233,18,23,9,10,0.7,0.8
2026-05-31T2200,1769A,121.1836,41.1118,锦州市,百股街道,臭氧1小时(O3_1h),101,55,79,45,41,201,201,228,228,19,23,10,10,0.7,0.7
2026-05-31T2200,1770A,121.1176,41.1224,锦州市,天安街道,臭氧1小时(O3_1h),105,74,84,32,36,210,210,224,224,17,23,6,10,0.9,1
2026-05-31T2200,1771A,121.1303,41.1385,锦州市,北湖公园,臭氧1小时(O3_1h),108,54,76,33,39,216,216,229,229,15,19,8,10,0.5,0.6
2026-05-31T2200,2160A,112.8496,35.5051,晋城市,自来水公司,颗粒物(PM10),51,51,46,14,10,130,130,175,169,14,23,6,5,0.3,0.3
2026-05-31T2200,2162A,112.8509,35.4886,晋城市,市环保局,,38,35,33,12,11,119,119,175,167,19,20,6,5,0.5,0.3
2026-05-31T2200,3620A,112.8258,35.4804,晋城市,泽州一中,,46,46,39,11,13,127,127,173,165,15,18,6,5,0.6,0.6
2026-05-31T2200,4078A,112.8246,35.5152,晋城市,前书院路,颗粒物(PM10),55,57,37,8,9,83,83,162,147,22,15,8,5,1.0,0.9
2026-05-31T2200,4079A,112.8864,35.4773,晋城市,祥云街666号,,41,NA,32,26,15,129,129,161,158,17,21,8,7,0.5,0.6
2026-05-31T2200,2174A,112.6992,37.6984,晋中市,榆次区政府,颗粒物(PM10),90,105,70,33,26,103,103,199,164,19,18,6,14,0.4,0.7
2026-05-31T2200,2865A,112.7195,37.683,晋中市,榆次三中,颗粒物(PM10),102,124,71,36,24,108,108,199,167,20,22,7,13,0.2,0.2
2026-05-31T2200,4080A,112.7375,37.7215,晋中市,广安街188号,颗粒物(PM10),82,94,81,26,27,112,112,206,172,17,27,7,13,0.2,0.4
2026-05-31T2200,4200A,112.7478,37.6954,晋中市,迎宾街26号,颗粒物(PM10),88,102,65,34,24,101,101,194,164,23,21,6,11,0.2,0.2
2026-05-31T2200,2439A,112.2012,31.048,荆门市,竹园小学,颗粒物(PM10),53,54,60,28,32,107,107,167,161,20,18,4,6,0.7,0.7
2026-05-31T2200,2440A,112.1968,30.9892,荆门市,掇刀,细颗粒物(PM2.5),56,50,53,38,31,144,144,174,170,13,13,9,10,0.6,0.6
2026-05-31T2200,3012A,112.1849,31.0361,荆门市,西山林语,NA,NA,NA,50,34,26,97,97,161,147,14,9,8,9,0.9,0.8
2026-05-31T2200,3547A,112.1631,31.0134,荆门市,龙泉中学南校,,47,47,43,28,24,121,121,174,168,7,3,7,7,0.5,0.5
2026-05-31T2200,4124A,112.2213,31.0654,荆门市,新台西路6号,颗粒物(PM10),55,57,56,34,35,114,114,168,162,20,16,15,13,0.6,0.5
2026-05-31T2200,1844A,112.2493,30.3198,荆州市,市图书馆,,46,46,44,32,28,118,118,157,148,20,14,8,8,0.5,0.4
2026-05-31T2200,1845A,112.2009,30.3543,荆州市,市委党校,,45,45,45,26,25,120,120,141,135,18,14,9,9,0.6,0.5
2026-05-31T2200,3194A,112.2749,30.3124,荆州市,管委会,颗粒物(PM10),52,52,43,28,29,105,105,148,138,21,13,10,10,0.7,0.5
2026-05-31T2200,4268A,112.1722,30.3366,荆州市,学苑路85号,,48,48,34,29,26,96,96,163,144,31,16,4,4,0.5,0.4
2026-05-31T2200,2343A,117.2114,29.2931,景德镇市,老干部活动中心,NA,NA,NA,47,60,43,NA,NA,120,98,NA,10,NA,5,NA,0.9
2026-05-31T2200,2344A,117.1893,29.2789,景德镇市,兽医站,细颗粒物(PM2.5),76,56,50,48,38,92,92,148,119,11,10,4,4,0.6,0.7
2026-05-31T2200,2346A,117.246,29.2958,景德镇市,陶研所,细颗粒物(PM2.5),52,40,43,36,35,67,67,130,95,21,14,4,4,0.6,0.7
2026-05-31T2200,4289A,117.154766,29.256967,景德镇市,青少年活动中心,细颗粒物(PM2.5),84,82,61,52,40,55,55,141,102,26,18,13,15,/,/
2026-05-31T2200,1803A,115.9873,29.6816,九江市,十里,细颗粒物(PM2.5),78,73,74,49,44,100,100,180,157,31,23,4,4,1.2,1.2
2026-05-31T2200,1804A,115.9583,29.7047,九江市,茅山头,细颗粒物(PM2.5),66,61,72,43,50,117,117,220,189,17,21,3,4,0.6,0.7
2026-05-31T2200,1805A,115.9877,29.7295,九江市,西园,细颗粒物(PM2.5),66,64,66,43,51,49,49,197,160,105,52,4,6,1.0,1
2026-05-31T2200,1808A,115.9112,29.6038,九江市,综合工业园,细颗粒物(PM2.5),88,61,59,54,41,105,105,226,184,31,28,5,7,0.8,0.8
2026-05-31T2200,3190A,116.0254,29.6995,九江市,外国语学校,NA,NA,55,45,43,33,111,111,142,142,NA,14,8,9,0.8,0.7
2026-05-31T2200,4253A,116.010205,29.659402,九江市,莲花大道8号,细颗粒物(PM2.5),72,53,60,46,44,107,107,154,141,12,11,4,6,0.8,0.8
2026-05-31T2200,4240A,98.495752,39.733935,酒泉市,玉门东路5号,,48,48,40,28,15,102,102,139,135,19,9,6,5,0.5,0.2
2026-05-31T2200,4241A,98.5099,39.7506,酒泉市,北大街108号,颗粒物(PM10),78,88,46,34,17,65,65,138,127,41,11,9,8,0.7,0.2
2026-05-31T2200,2698A,76.0071,39.466,喀什地区,巡警大队,颗粒物(PM10),92,108,136,43,60,112,112,119,118,16,19,4,4,0.3,0.3
2026-05-31T2200,2699A,75.9756,39.4693,喀什地区,吾办,颗粒物(PM10),93,110,124,50,57,105,105,115,114,10,13,10,9,0.3,0.3
2026-05-31T2200,4027A,75.9485,39.4688,喀什地区,老干局,颗粒物(PM10),95,112,130,45,41,102,102,116,112,9,12,4,4,0.2,0.3
2026-05-31T2200,1824A,114.3389,34.778,开封市,肿瘤医院,颗粒物(PM10),103,126,82,36,32,98,98,171,144,37,26,8,9,0.7,0.6
2026-05-31T2200,1826A,114.2884,34.7966,开封市,世纪星幼儿园,颗粒物(PM10),92,108,76,32,27,103,103,175,152,24,13,6,7,0.6,0.5
2026-05-31T2200,3147A,114.3434,34.8101,开封市,龙亭公园,颗粒物(PM10),110,144,87,32,25,108,108,188,166,31,14,7,8,0.8,0.7
2026-05-31T2200,3210A,114.3645,34.7955,开封市,汴京公园,颗粒物(PM10),81,93,65,30,27,106,106,186,160,38,26,8,10,0.5,0.5
2026-05-31T2200,3473A,114.2485,34.8306,开封市,技师学院,颗粒物(PM10),97,115,77,33,24,120,120,181,166,30,24,9,9,0.5,0.5
2026-05-31T2200,3592A,114.4518,34.7503,开封市,祥符区生态环境局,颗粒物(PM10),85,99,83,26,31,122,122,184,158,31,34,10,11,0.6,0.7
2026-05-31T2200,1951A,84.886,45.6029,克拉玛依市,长征新村,,31,20,30,9,12,98,98,121,119,15,12,4,3,0.4,0.3
2026-05-31T2200,1952A,84.8894,45.5827,克拉玛依市,南林小区,细颗粒物(PM2.5),101,NA,31,61,10,38,38,115,104,48,15,5,4,0.8,0.2
2026-05-31T2200,1954A,84.896,44.3328,克拉玛依市,独山子区,,41,37,39,11,7,130,130,140,140,9,7,9,7,0.3,0.3
2026-05-31T2200,1955A,85.6888,46.0909,克拉玛依市,乌尔禾区商贸楼,,32,32,31,16,11,90,90,113,108,10,10,6,6,0.1,0.1
2026-05-31T2200,3612A,85.1045,45.6895,克拉玛依市,白碱滩区新站,,35,23,19,22,5,109,109,128,127,8,9,10,10,0.2,0.1
2026-05-31T2200,2697A,76.1457,39.7143,克孜勒苏柯尔克孜自治州,市人民政府,颗粒物(PM10),105,132,167,54,60,108,108,115,115,3,7,6,8,0.1,0.1
2026-05-31T2200,3665A,76.1654,39.7157,克孜勒苏柯尔克孜自治州,克州文化中心,颗粒物(PM10),103,126,178,60,66,119,119,120,120,6,9,4,8,0.3,0.2
2026-05-31T2200,1450A,102.8203,24.889,昆明市,呈贡新区,,31,31,18,16,12,50,50,87,78,19,11,4,4,0.6,0.6
2026-05-31T2200,1452A,102.7253,25.0904,昆明市,龙泉镇,,24,24,24,7,14,53,53,75,70,16,16,5,5,0.3,0.4
2026-05-31T2200,1453A,102.7267,25.0378,昆明市,东风东路,,20,12,22,9,15,62,62,78,73,17,22,2,2,0.3,0.4
2026-05-31T2200,1454A,102.6744,25.0671,昆明市,金鼎山,,21,21,28,13,16,52,52,76,71,18,15,4,4,0.5,0.6
2026-05-31T2200,1455A,102.6643,25.0401,昆明市,碧鸡广场,,18,18,23,8,14,45,45,72,65,22,16,2,3,0.5,0.6
2026-05-31T2200,3179A,102.7491,25.012,昆明市,官渡区博物馆,,20,13,20,6,11,62,62,81,75,12,16,4,5,0.4,0.6
2026-05-31T2200,3375A,102.8016,24.8336,昆明市,青年创业园,,28,28,20,15,11,36,36,84,72,22,12,10,7,0.5,0.5
2026-05-31T2200,3550A,102.8,24.9787,昆明市,昆明学院,,19,16,24,7,10,58,58,78,73,9,14,6,6,0.6,0.6
2026-05-31T2200,3551A,102.5969,24.6738,昆明市,晋宁区生态环境分局,,36,36,23,12,16,57,57,78,73,8,8,4,4,0.4,0.5
2026-05-31T2200,3552A,102.6673,24.9861,昆明市,云天化总部,,22,NA,16,15,9,69,69,82,77,7,13,4,5,0.4,0.5
2026-05-31T2200,1456A,91.132,29.6515,拉萨市,八廓街,NA,NA,11,15,8,8,118,118,149,146,19,7,NA,5,0.3,0.2
2026-05-31T2200,1457A,91.1221,29.6748,拉萨市,市环保局,,33,13,17,3,10,104,104,149,144,32,9,7,6,0.4,0.2
2026-05-31T2200,1458A,91.0874,29.6476,拉萨市,区监测站,,34,NA,10,10,6,108,108,149,145,37,10,5,5,0.2,0.2
2026-05-31T2200,1459A,91.1774,29.6541,拉萨市,西藏大学,,40,10,15,3,10,127,127,145,144,17,10,4,5,0.3,0.2
2026-05-31T2200,1460A,90.9798,29.6586,拉萨市,区辐射站,,35,17,11,7,7,110,110,140,136,30,10,5,5,0.3,0.3
2026-05-31T2200,1461A,91.0831,29.6292,拉萨市,拉萨火车站,,41,NA,10,8,6,131,131,152,151,14,6,4,4,0.3,0.3
2026-05-31T2200,2520A,109.2203,23.7252,来宾市,来宾技工学校,,33,29,25,15,14,103,103,140,131,10,11,6,10,0.7,0.7
2026-05-31T2200,3535A,109.1781,23.7293,来宾市,兴宾区政府,,42,42,25,26,13,96,96,139,132,21,12,30,10,0.8,0.7
2026-05-31T2200,4002A,109.2312,23.7428,来宾市,中南小学,,33,27,26,19,14,103,103,150,142,16,16,5,8,0.5,0.6
2026-05-31T2200,1479A,103.8309,36.0467,兰州市,铁路设计院,颗粒物(PM10),69,76,132,25,55,102,102,131,128,30,15,7,7,0.6,0.6
2026-05-31T2200,3241A,103.7439,36.0841,兰州市,百合公园,,46,46,116,19,47,92,92,128,124,26,15,8,8,0.5,1.1
2026-05-31T2200,3242A,103.9613,35.9985,兰州市,和平,,50,50,135,19,47,99,99,138,134,10,6,10,11,0.3,0.3
2026-05-31T2200,4236A,103.629272,36.093822,兰州市,庄浪东路808号,颗粒物(PM10),59,62,127,22,50,81,81,124,118,30,16,7,8,0.3,0.2
2026-05-31T2200,4237A,103.7251,36.104344,兰州市,安宁西路88号,颗粒物(PM10),52,52,128,22,45,98,98,141,136,29,7,8,9,0.3,0.2
2026-05-31T2200,4238A,103.846982,36.067567,兰州市,北滨河东路1号,,41,41,122,22,50,96,96,128,125,32,14,13,12,0.4,0.4
2026-05-31T2200,1067A,116.6712,39.5109,廊坊市,药材公司,颗粒物(PM10),81,93,61,41,29,113,113,202,180,34,17,3,6,0.6,0.5
2026-05-31T2200,1068A,116.7215,39.5592,廊坊市,开发区,颗粒物(PM10),68,74,61,38,29,114,114,220,200,30,13,3,3,0.7,0.5
2026-05-31T2200,1070A,116.7246,39.5273,廊坊市,北华航天学院,颗粒物(PM10),78,89,62,41,24,126,126,218,193,33,14,2,4,0.7,0.4
2026-05-31T2200,2919A,116.7022,39.5454,廊坊市,河北工业大学,颗粒物(PM10),73,82,63,39,26,148,148,221,205,26,16,3,5,0.7,0.5
2026-05-31T2200,2536A,103.7629,29.5844,乐山市,牛耳桥,细颗粒物(PM2.5),80,68,55,50,34,91,91,143,128,29,16,9,7,0.5,0.4
2026-05-31T2200,2537A,103.7501,29.6002,乐山市,市第三水厂,细颗粒物(PM2.5),80,64,54,50,36,92,92,134,122,24,16,9,6,0.8,0.8
2026-05-31T2200,2538A,103.7571,29.5664,乐山市,市监测站,细颗粒物(PM2.5),64,64,54,42,32,106,106,142,131,18,12,5,5,0.9,0.8
2026-05-31T2200,3361A,103.7313,29.563,乐山市,理工大学,细颗粒物(PM2.5),62,60,54,41,34,109,109,147,136,17,14,3,4,0.6,0.6
2026-05-31T2200,2599A,100.2497,26.8802,丽江市,丽江古城,,18,18,16,12,12,52,52,68,63,10,8,8,7,0.5,0.5
2026-05-31T2200,2600A,100.2203,26.8906,丽江市,市中心,,18,10,13,9,9,55,55,64,61,7,7,5,5,0.5,0.5
2026-05-31T2200,1267A,119.9141,28.4513,丽水市,监测站大楼,,40,40,33,16,16,114,114,139,119,14,11,4,4,0.2,0.2
2026-05-31T2200,1268A,119.93,28.4589,丽水市,莲都小学,,45,29,32,14,16,143,143,142,122,10,11,/,/,/,/
2026-05-31T2200,1269A,119.8794,28.4232,丽水市,余庄前,,26,26,28,16,16,55,55,133,84,17,13,4,4,0.4,0.4
2026-05-31T2200,1173A,119.1759,34.5885,连云港市,市环境监测站,,39,39,45,17,28,102,102,188,169,13,15,8,10,0.4,0.5
2026-05-31T2200,3000A,119.3577,34.6971,连云港市,德源药业,,44,44,49,7,25,99,99,177,154,12,16,5,7,0.6,0.7
2026-05-31T2200,3007A,119.178,34.8442,连云港市,新城一中,,46,46,50,12,31,97,97,178,148,26,22,4,5,0.5,0.6
2026-05-31T2200,3008A,119.3607,34.7519,连云港市,胡沟管理处,NA,NA,24,26,3,13,NA,NA,188,180,11,13,13,13,0.5,0.5
2026-05-31T2200,3009A,119.1478,34.5913,连云港市,矿山设计院,颗粒物(PM10),53,53,42,19,19,102,102,183,169,12,10,4,5,0.2,0.3
2026-05-31T2200,3434A,119.2414,34.6539,连云港市,工贸学校,NA,NA,NA,47,NA,30,NA,NA,187,178,NA,13,NA,6,NA,0.5
2026-05-31T2200,3664A,119.4171,34.734,连云港市,连云街道,,37,22,44,11,25,116,116,184,158,8,10,8,10,0.5,0.5
2026-05-31T2200,2573A,102.2629,27.8981,凉山彝族自治州,西昌市政府,,23,19,18,13,13,72,72,88,82,4,8,6,10,0.5,0.6
2026-05-31T2200,2574A,102.2686,27.885,凉山彝族自治州,凉山州政府,,21,19,20,12,13,67,67,81,75,4,8,4,7,0.6,0.7
2026-05-31T2200,4229A,102.2342,27.8859,凉山彝族自治州,凯乐南路30号,,30,29,21,21,15,67,67,75,74,11,14,7,10,0.7,0.8
2026-05-31T2200,2212A,123.1978,41.2036,辽阳市,宏伟区,臭氧1小时(O3_1h),90,42,115,21,25,192,192,191,189,8,10,7,8,0.6,0.6
2026-05-31T2200,2213A,123.1684,41.2497,辽阳市,新华园,臭氧1小时(O3_1h),93,37,73,29,22,194,194,195,191,9,12,10,9,0.5,0.5
2026-05-31T2200,2214A,123.2355,41.2663,辽阳市,滨河路,NA,NA,NA,72,25,22,176,176,180,174,9,13,8,9,0.4,0.4
2026-05-31T2200,4083A,123.153,41.2874,辽阳市,铁西路150号,臭氧1小时(O3_1h),104,49,79,27,21,208,208,179,179,9,12,8,9,0.4,0.4
2026-05-31T2200,2227A,125.1359,42.8845,辽源市,环保局,,50,35,38,10,11,159,159,187,177,8,31,8,8,0.5,0.6
2026-05-31T2200,4085A,125.0998,42.9134,辽源市,安宁大街333号,,47,45,53,10,13,148,148,187,174,17,42,7,5,0.5,0.5
2026-05-31T2200,1625A,115.9789,36.4372,聊城市,区政府,颗粒物(PM10),85,99,78,25,23,161,161,186,179,9,10,8,10,0.4,0.4
2026-05-31T2200,3200A,115.9772,36.4986,聊城市,监控中心,颗粒物(PM10),90,105,88,24,20,168,168,185,179,13,12,8,11,0.3,0.3
2026-05-31T2200,3513A,116.0443,36.436,聊城市,九州社区,颗粒物(PM10),76,86,76,33,22,149,149,190,177,20,17,7,7,0.4,0.5
2026-05-31T2200,4018A,116.0564,36.4609,聊城市,星美广场,颗粒物(PM10),80,92,73,24,23,163,163,200,188,13,11,12,12,0.2,0.3
2026-05-31T2200,4113A,116.0091,36.4495,聊城市,利民路,臭氧1小时(O3_1h),64,67,54,26,24,171,171,199,192,14,12,9,12,0.3,0.3
2026-05-31T2200,2632A,94.3683,29.6373,林芝市,林芝监测站,NA,NA,17,11,14,8,86,86,101,99,3,4,5,4,NA,0.6
2026-05-31T2200,2633A,94.3616,29.6634,林芝市,林芝人民医院,,29,16,14,11,10,92,92,108,106,4,5,3,3,0.2,0.3
2026-05-31T2200,2603A,100.0779,23.8981,临沧市,市环保局,,30,22,19,21,12,42,42,58,53,11,8,7,7,0.7,0.6
2026-05-31T2200,2604A,100.0894,23.882,临沧市,市气象局,,23,20,17,16,13,47,47,68,59,7,8,6,7,0.9,0.7
2026-05-31T2200,1733A,111.5552,36.0791,临汾市,临钢医院,颗粒物(PM10),67,73,56,23,19,113,113,175,165,25,18,10,9,1.1,0.8
2026-05-31T2200,1734A,111.4984,36.0734,临汾市,技工学校,颗粒物(PM10),67,73,58,38,28,114,114,175,165,24,20,15,12,1.1,0.9
2026-05-31T2200,1736A,111.5017,36.0857,临汾市,市委,颗粒物(PM10),67,73,69,29,22,118,118,177,168,29,24,16,11,1.0,0.8
2026-05-31T2200,3018A,111.5048,36.1015,临汾市,唐尧大酒店,颗粒物(PM10),70,77,70,27,23,120,120,176,168,22,20,16,10,1.0,0.8
2026-05-31T2200,4244A,111.4879,36.053,临汾市,启星学校,颗粒物(PM10),61,65,56,38,28,108,108,169,159,27,23,12,9,1.1,0.8
2026-05-31T2200,4271A,103.2464,35.6123,临夏回族自治州,滨河东路1号,颗粒物(PM10),61,65,110,27,35,53,53,92,87,29,17,9,11,0.3,0.3
2026-05-31T2200,4310A,103.207136,35.599807,临夏回族自治州,新华街21号,颗粒物(PM10),52,52,116,26,47,78,78,97,95,8,8,12,11,0.7,0.5
2026-05-31T2200,1618A,118.3429,35.0532,临沂市,沂河小区,颗粒物(PM10),62,66,66,20,28,150,150,195,182,23,22,17,16,0.2,0.3
2026-05-31T2200,1619A,118.2962,35.0568,临沂市,鲁南制药厂,颗粒物(PM10),55,56,66,24,27,156,156,206,193,26,24,13,16,0.2,0.4
2026-05-31T2200,1620A,118.2793,34.9976,临沂市,新光毛纺厂,颗粒物(PM10),56,58,69,21,30,148,148,200,185,28,24,11,16,0.3,0.4
2026-05-31T2200,1621A,118.3955,35.0889,临沂市,河东保险公司,颗粒物(PM10),55,56,55,20,26,150,150,203,192,25,17,17,14,0.2,0.2
2026-05-31T2200,3370A,118.3563,35.0215,临沂市,十里堡居委,颗粒物(PM10),62,66,63,21,25,148,148,203,186,25,21,16,16,0.4,0.5
2026-05-31T2200,3496A,118.359,35.1067,临沂市,南坊新区,颗粒物(PM10),55,56,63,19,27,150,150,193,182,19,17,14,14,0.3,0.4
2026-05-31T2200,3860A,118.3915,35.0297,临沂市,皇山花园小区,颗粒物(PM10),58,61,65,22,26,153,153,192,174,21,23,27,16,0.2,0.5
2026-05-31T2200,1870A,109.4854,24.3898,柳州市,柳东小学,,31,24,18,19,15,97,97,131,130,12,11,34,11,0.7,0.7
2026-05-31T2200,1871A,109.4109,24.3304,柳州市,环保监测站,,33,26,23,23,16,76,76,136,126,24,15,6,11,0.9,0.8
2026-05-31T2200,1872A,109.3886,24.3408,柳州市,河西水厂,颗粒物(PM10),59,62,28,20,20,89,89,154,142,16,9,6,9,0.8,0.9
2026-05-31T2200,1873A,109.4263,24.2951,柳州市,市四中,,28,26,25,19,13,85,85,130,122,13,11,6,10,0.9,0.8
2026-05-31T2200,1874A,109.396,24.3658,柳州市,市九中,,37,37,32,19,17,84,84,136,128,12,15,5,12,0.7,0.8
2026-05-31T2200,1875A,109.4912,24.3164,柳州市,古亭山,,33,NA,22,23,14,50,50,118,104,28,13,3,4,0.7,0.8
2026-05-31T2200,3402A,109.5422,24.3994,柳州市,市二中,,35,NA,22,24,14,67,67,137,127,31,12,14,6,0.7,0.6
2026-05-31T2200,2307A,116.5078,31.7369,六安市,监测大楼,细颗粒物(PM2.5),88,59,38,54,29,157,157,176,170,17,11,5,4,0.5,0.4
2026-05-31T2200,2308A,116.4738,31.7642,六安市,皖西学院,臭氧1小时(O3_1h),72,69,41,44,25,177,177,181,180,13,8,7,6,0.4,0.3
2026-05-31T2200,2309A,116.4997,31.7904,六安市,朝阳厂,细颗粒物(PM2.5),90,59,34,55,30,168,168,162,160,18,12,8,7,0.4,0.3
2026-05-31T2200,2310A,116.5566,31.7885,六安市,开发区,细颗粒物(PM2.5),76,66,43,48,30,178,178,183,178,16,16,8,7,0.4,0.3
2026-05-31T2200,2577A,104.8293,26.592,六盘水市,黄土坡,,38,31,29,26,19,102,102,108,107,13,10,4,4,0.4,0.4
2026-05-31T2200,2579A,104.8481,26.5898,六盘水市,民中,,38,29,30,26,20,96,96,104,102,16,14,2,2,0.4,0.4
2026-05-31T2200,2580A,104.9541,26.5506,六盘水市,双水,,31,27,28,16,16,98,98,104,104,6,8,4,4,0.3,0.3
2026-05-31T2200,4151A,104.8899,26.5685,六盘水市,钟山大道中段564号,,47,47,40,24,20,96,96,105,105,12,11,7,4,0.8,0.7
2026-05-31T2200,2336A,117.022,25.1031,龙岩市,龙岩市监测站,,32,22,30,22,24,40,40,97,77,12,8,6,8,0.5,0.5
2026-05-31T2200,2337A,117.0257,25.0662,龙岩市,闽西职业技术学院,,32,27,41,22,24,45,45,91,74,10,8,4,7,0.7,0.7
2026-05-31T2200,2338A,117.0195,25.0306,龙岩市,龙岩学院,,32,28,40,22,24,30,30,94,75,8,7,3,3,/,/
2026-05-31T2200,2885A,104.9344,33.3827,陇南市,滨江中学,颗粒物(PM10),69,76,58,27,21,38,38,75,67,26,12,3,4,0.6,0.6
2026-05-31T2200,3247A,104.9551,33.3709,陇南市,市总工会,,42,42,40,18,20,64,64,86,75,9,11,7,7,0.5,0.6
2026-05-31T2200,2488A,111.9984,27.7346,娄底市,市监测站,,47,47,50,32,29,84,84,108,104,10,14,10,7,0.7,0.7
2026-05-31T2200,2491A,111.9888,27.7035,娄底市,市政府,细颗粒物(PM2.5),84,NA,43,52,32,75,75,118,112,15,8,3,4,0.7,0.5
2026-05-31T2200,4127A,111.9812,27.7591,娄底市,涟钢职大,细颗粒物(PM2.5),66,NA,46,43,26,93,93,130,121,10,16,7,10,0.5,0.7
2026-05-31T2200,4128A,112.0303,27.7457,娄底市,娄底体校,细颗粒物(PM2.5),70,65,44,45,29,80,80,136,122,10,9,2,3,0.6,0.5
2026-05-31T2200,1894A,105.4427,28.9063,泸州市,小市上码头,,41,41,34,20,16,91,91,145,124,14,13,7,8,0.4,0.4
2026-05-31T2200,1895A,105.4241,28.8573,泸州市,兰田宪桥,,40,40,44,22,22,87,87,153,130,17,16,4,5,0.5,0.5
2026-05-31T2200,1896A,105.4378,28.8833,泸州市,市环监站,,31,31,29,16,15,90,90,141,120,15,17,8,10,0.7,0.7
2026-05-31T2200,4272A,105.3689,28.7783,泸州市,纳溪中医医院,细颗粒物(PM2.5),52,48,42,36,24,88,88,153,133,14,13,7,6,0.6,0.6
2026-05-31T2200,2183A,111.1447,37.5212,吕梁市,环保局,颗粒物(PM10),124,181,79,49,20,52,52,158,129,56,23,7,9,0.5,0.4
2026-05-31T2200,2185A,111.1285,37.5338,吕梁市,自来水公司,颗粒物(PM10),95,113,86,39,25,90,90,154,134,31,27,3,4,0.6,0.4
2026-05-31T2200,2867A,111.1225,37.5093,吕梁市,马茂庄小学,颗粒物(PM10),110,145,87,42,23,65,65,162,134,46,30,5,6,0.5,0.8
2026-05-31T2200,1812A,112.3934,34.6517,洛阳市,市委党校,,47,47,37,29,18,83,83,138,123,26,16,8,8,0.5,0.4
2026-05-31T2200,1815A,112.494,34.6883,洛阳市,河南林校,,49,49,40,22,14,89,89,147,131,25,17,10,11,0.6,0.5
2026-05-31T2200,1816A,112.3843,34.623,洛阳市,开发区管委会,,42,42,35,26,18,67,67,144,122,28,14,9,9,0.5,0.4
2026-05-31T2200,1817A,112.4263,34.6249,洛阳市,市委新办公区,,49,49,37,30,18,81,81,138,121,19,14,11,10,0.2,0.1
2026-05-31T2200,3340A,112.6005,34.6323,洛阳市,伊滨,颗粒物(PM10),58,61,45,22,18,116,116,143,133,12,13,13,11,0.5,0.5
2026-05-31T2200,3341A,112.495,34.6338,洛阳市,中移产业园,颗粒物(PM10),60,63,38,29,19,98,98,154,141,19,12,15,10,0.6,0.5
2026-05-31T2200,3593A,112.5736,34.8993,洛阳市,吉利监测站,,43,43,37,15,13,70,70,149,130,23,9,8,9,0.3,0.2
2026-05-31T2200,3635A,112.3678,34.6623,洛阳市,河科大西苑校区,,41,41,35,25,19,97,97,145,132,23,18,9,10,0.7,0.6
2026-05-31T2200,3636A,112.4387,34.678,洛阳市,英才小学,,40,40,42,22,19,90,90,140,126,16,18,8,9,0.5,0.5
2026-05-31T2200,4214A,112.460027,34.694929,洛阳市,春都路1号院,,42,42,42,25,25,90,90,144,130,18,19,6,8,0.2,0.4
2026-05-31T2200,2399A,114.051,33.5721,漯河市,三五一五工厂,颗粒物(PM10),82,94,60,24,19,127,127,173,154,20,17,5,6,0.4,0.4
2026-05-31T2200,2400A,114.0055,33.5698,漯河市,漯河大学,颗粒物(PM10),77,87,60,39,23,111,111,169,148,26,18,5,6,0.4,0.4
2026-05-31T2200,2401A,114.0134,33.5826,漯河市,市水利局,颗粒物(PM10),72,80,58,31,22,117,117,165,147,21,16,4,6,0.3,0.3
2026-05-31T2200,2402A,114.0261,33.5697,漯河市,市广电局,颗粒物(PM10),69,76,57,32,21,120,120,171,152,23,16,5,6,0.4,0.4
2026-05-31T2200,3478A,113.9691,33.568,漯河市,市图书馆,颗粒物(PM10),76,86,61,29,21,114,114,161,146,23,19,6,8,0.5,0.4
2026-05-31T2200,4250A,114.089259,33.588274,漯河市,韶山路11号,颗粒物(PM10),68,75,56,24,22,118,118,164,146,17,13,8,8,0.5,0.4
2026-05-31T2200,1798A,118.5084,31.6838,马鞍山市,湖东路四小,颗粒物(PM10),54,55,62,27,32,133,133,179,166,26,19,22,11,0.4,0.5
2026-05-31T2200,1799A,118.5019,31.6449,马鞍山市,开发区,细颗粒物(PM2.5),94,107,78,57,43,114,114,182,163,30,22,21,11,0.7,0.7
2026-05-31T2200,3633A,118.4914,31.681,马鞍山市,雨山,颗粒物(PM10),58,61,59,28,32,135,135,181,169,24,19,21,10,0.3,0.4
2026-05-31T2200,4191A,118.527362,31.722269,马鞍山市,慈湖高新区,,44,36,57,18,31,138,138,183,169,25,24,7,9,0.3,0.4
2026-05-31T2200,1686A,111.0285,21.469,茂名市,电白南海,,26,22,35,9,22,81,81,116,92,6,11,5,10,0.7,0.9
2026-05-31T2200,1687A,110.9294,21.6533,茂名市,茂石化七小,,40,31,35,28,24,60,60,108,86,13,12,16,12,0.5,0.5
2026-05-31T2200,1688A,110.9108,21.6688,茂名市,健康路,,36,27,30,25,23,62,62,112,92,12,12,12,16,0.7,0.7
2026-05-31T2200,1689A,110.8592,21.6826,茂名市,高岭,,31,31,38,20,22,62,62,105,89,10,10,5,12,/,/
2026-05-31T2200,3450A,111.0101,21.5165,茂名市,电白水东,,26,NA,27,10,21,83,83,114,94,5,10,2,7,/,/
2026-05-31T2200,2540A,103.8414,30.0871,眉山市,气象局,细颗粒物(PM2.5),80,55,57,50,38,85,85,162,141,35,25,8,9,0.7,0.8
2026-05-31T2200,3148A,103.829,30.0563,眉山市,区人社局,颗粒物(PM10),65,71,67,27,20,93,93,159,143,32,25,8,9,0.7,0.7
2026-05-31T2200,4148A,103.8836,30.0695,眉山市,眉职院,颗粒物(PM10),64,69,58,34,26,98,98,160,143,20,18,7,9,0.7,0.8
2026-05-31T2200,1690A,116.1248,24.3307,梅州市,梅江月梅,NA,NA,43,39,NA,38,41,41,101,80,19,12,/,/,/,/
2026-05-31T2200,1691A,116.0798,24.2719,梅州市,梅县新城,,40,36,37,28,26,49,49,101,84,15,11,8,9,0.6,0.6
2026-05-31T2200,3315A,116.1234,24.2994,梅州市,梅龙,,35,27,35,24,26,73,73,110,96,9,9,7,6,0.7,0.7
2026-05-31T2200,1878A,104.7775,31.4741,绵阳市,富乐山,细颗粒物(PM2.5),64,48,37,42,23,123,123,140,138,17,7,11,10,0.8,0.7
2026-05-31T2200,1880A,104.6698,31.4668,绵阳市,高新区自来水公司,细颗粒物(PM2.5),107,101,46,67,24,124,124,138,136,21,9,12,10,0.7,0.6
2026-05-31T2200,3491A,104.6899,31.5324,绵阳市,西科大附属小学,颗粒物(PM10),63,67,46,30,26,76,76,143,134,37,14,6,6,0.8,0.7
2026-05-31T2200,3492A,104.5647,31.5343,绵阳市,安州区旅游局,颗粒物(PM10),63,67,50,41,24,131,131,161,158,13,9,4,5,0.6,0.5
2026-05-31T2200,4146A,104.7092,31.4972,绵阳市,科技城新区公安局,细颗粒物(PM2.5),76,56,45,48,22,136,136,148,148,20,11,9,9,0.7,0.6
2026-05-31T2200,4226A,104.765114,31.453094,绵阳市,绵阳市气象局,细颗粒物(PM2.5),80,69,40,50,22,134,134,136,136,19,12,10,9,0.6,0.5
2026-05-31T2200,1784A,129.61,44.561,牡丹江市,环保大楼,,37,33,24,12,9,116,116,153,136,12,16,5,5,0.2,0.2
2026-05-31T2200,1787A,129.6364,44.6075,牡丹江市,机车工厂,,39,39,32,20,16,106,106,144,128,12,17,7,6,0.2,0.3
2026-05-31T2200,1788A,129.6386,44.5462,牡丹江市,第一中学,,37,34,20,14,10,118,118,144,128,8,13,7,6,0.4,0.3
2026-05-31T2200,4287A,129.5992,44.5964,牡丹江市,东晓云街98号,,50,50,32,19,14,116,116,148,130,8,13,5,5,0.2,0.2
2026-05-31T2200,2531A,105.0703,29.61,内江市,市监测站,,49,43,34,34,21,82,82,121,115,21,15,12,11,0.7,0.6
2026-05-31T2200,2533A,105.0657,29.5807,内江市,内江二中,,31,31,28,20,22,91,91,125,119,30,14,10,10,0.4,0.4
2026-05-31T2200,2534A,105.0407,29.5828,内江市,内江日报社,,32,26,28,22,23,90,90,127,120,30,19,13,14,0.6,0.5
2026-05-31T2200,4147A,105.0433,29.6105,内江市,玉峰路西段888号,,38,38,31,21,22,92,92,119,113,16,15,11,11,0.6,0.5
2026-05-31T2200,2628A,92.0653,31.4846,那曲市,那曲监测站,,38,22,26,15,14,120,120,143,141,11,12,6,6,0.5,0.5
2026-05-31T2200,4243A,92.0515,31.4787,那曲市,那曲市委宣传部,,37,21,19,12,11,117,117,142,140,8,13,6,6,0.4,0.5
2026-05-31T2200,1291A,115.8887,28.7006,南昌市,省林业公司,细颗粒物(PM2.5),84,61,60,52,43,113,113,161,146,10,10,5,6,0.8,0.7
2026-05-31T2200,1292A,115.813,28.7443,南昌市,林科所,细颗粒物(PM2.5),68,53,54,44,42,118,118,156,136,12,5,7,9,0.7,0.7
2026-05-31T2200,1294A,115.8518,28.687,南昌市,建工学校,细颗粒物(PM2.5),76,65,60,48,44,121,121,159,145,9,8,8,9,0.8,0.8
2026-05-31T2200,1295A,115.8926,28.6425,南昌市,象湖,细颗粒物(PM2.5),90,66,58,55,45,112,112,162,145,18,14,10,9,0.9,0.8
2026-05-31T2200,3046A,115.9084,28.6062,南昌市,机电学校,细颗粒物(PM2.5),84,62,71,52,46,111,111,176,150,20,16,6,7,0.7,0.7
2026-05-31T2200,3690A,115.9718,28.7032,南昌市,外国语学校,细颗粒物(PM2.5),88,65,64,54,47,114,114,142,133,11,14,11,12,0.8,0.8
2026-05-31T2200,4106A,115.7923,28.6873,南昌市,工业二路,细颗粒物(PM2.5),107,77,71,67,50,90,90,159,140,17,8,6,6,0.9,0.8
2026-05-31T2200,4192A,115.931587,28.686774,南昌市,南京东路235号,细颗粒物(PM2.5),84,58,62,52,44,133,133,162,151,13,14,6,6,1.0,1
2026-05-31T2200,1906A,106.0791,30.8022,南充市,南充市委,,35,35,29,22,17,45,45,103,95,31,16,5,6,0.4,0.3
2026-05-31T2200,1907A,106.1038,30.8215,南充市,南充炼油厂,,43,43,31,17,17,73,73,105,102,20,12,6,6,0.3,0.4
2026-05-31T2200,4227A,106.108336,30.788436,南充市,梨树横街98号,,37,37,28,22,18,61,61,106,100,30,13,8,8,0.4,0.3
2026-05-31T2200,4304A,106.1172,30.843,南充市,清泉寺北路188号,,31,31,31,17,17,90,90,110,108,12,9,7,7,0.4,0.4
2026-05-31T2200,4305A,106.067,30.7616,南充市,同庆路1号,,38,27,28,26,17,67,67,110,103,20,14,7,7,0.4,0.3
2026-05-31T2200,1151A,118.8033,32.1085,南京市,迈皋桥,臭氧1小时(O3_1h),55,33,38,12,23,164,164,217,205,10,15,9,7,0.3,0.3
2026-05-31T2200,1152A,118.7487,32.057,南京市,草场门,,50,31,45,14,25,157,157,216,203,18,20,6,7,0.4,0.4
2026-05-31T2200,1154A,118.770105,32.004342,南京市,中华门,,48,48,53,15,27,129,129,195,182,11,10,6,6,0.3,0.3
2026-05-31T2200,1155A,118.8059,32.0329,南京市,瑞金路,,44,39,49,11,25,140,140,199,183,18,18,4,4,0.3,0.3
2026-05-31T2200,1156A,118.7946,32.0774,南京市,玄武湖,,47,29,43,10,19,148,148,194,184,14,15,10,8,0.3,0.3
2026-05-31T2200,1157A,118.6415,32.0964,南京市,浦口,,43,42,48,14,24,135,135,194,183,26,24,7,7,0.3,0.4
2026-05-31T2200,1158A,118.730129,32.000956,南京市,奥体中心,,48,48,56,13,24,140,140,201,190,23,25,8,8,0.1,0.1
2026-05-31T2200,1159A,118.9072,32.1047,南京市,仙林大学城,,46,46,54,13,27,145,145,205,191,14,15,6,7,0.5,0.6
2026-05-31T2200,3422A,118.8443,31.919,南京市,江宁彩虹桥,,42,42,57,19,29,130,130,193,178,19,16,6,6,0.5,0.5
2026-05-31T2200,3427A,118.8497,32.3599,南京市,六合雄州,,39,39,50,10,25,120,120,178,162,37,37,4,4,0.5,0.5
2026-05-31T2200,4086A,118.7641,32.0841,南京市,新模范马路66号,臭氧1小时(O3_1h),59,39,47,8,20,167,167,223,211,5,8,4,4,0.4,0.4
2026-05-31T2200,4249A,118.8707617,31.34017673,南京市,汶溪路181号,颗粒物(PM10),51,51,57,15,24,138,138,190,174,28,24,6,8,0.4,0.1
2026-05-31T2200,4312A,119.019,31.6512,南京市,中山西路1号,NA,NA,51,59,23,31,NA,NA,167,146,31,28,4,5,0.4,0.3
2026-05-31T2200,1401A,108.3098,22.788,南宁市,二十一中,,45,35,36,31,24,123,123,138,129,12,15,2,4,0.9,0.7
2026-05-31T2200,1402A,108.3135,22.8529,南宁市,北湖,,36,36,35,23,28,106,106,134,130,9,18,3,10,1.2,0.9
2026-05-31T2200,1403A,108.3205,22.8222,南宁市,市监测站,,41,41,38,25,24,125,125,160,149,8,12,4,7,0.9,0.8
2026-05-31T2200,1404A,108.3828,22.8038,南宁市,大自然花园,,39,30,30,27,19,109,109,146,134,11,13,4,5,1.1,1
2026-05-31T2200,1406A,108.2397,22.8462,南宁市,区农职院,,38,38,41,21,22,107,107,135,128,9,10,4,9,0.8,0.8
2026-05-31T2200,1407A,108.3285,22.7356,南宁市,英华嘉园,,43,41,40,30,23,137,137,147,138,16,16,8,7,1.0,0.8
2026-05-31T2200,3401A,108.4829,22.762,南宁市,红星社区,,40,38,30,28,17,112,112,141,131,9,12,6,6,0.6,0.5
2026-05-31T2200,4132A,108.2927,23.1477,南宁市,起凤路9号,颗粒物(PM10),53,53,42,35,28,99,99,142,135,23,22,8,6,0.9,0.9
2026-05-31T2200,4221A,108.2177,22.7774,南宁市,乐贤路16号,,42,37,39,29,24,106,106,140,128,16,17,5,11,0.8,0.7
2026-05-31T2200,2332A,118.1682,26.6371,南平市,南平市监测站,,41,41,44,28,28,48,48,112,83,13,11,4,5,0.7,0.6
2026-05-31T2200,2334A,118.1757,26.6276,南平市,南平七中,,38,38,43,25,26,43,43,109,84,16,12,2,3,0.7,0.6
2026-05-31T2200,1168A,120.9056,31.9669,南通市,狼山街道,,47,28,26,17,13,150,150,159,159,9,22,5,5,0.5,0.5
2026-05-31T2200,1170A,120.8635,32.0231,南通市,城中,,45,42,38,18,12,144,144,153,153,11,26,6,7,0.5,0.5
2026-05-31T2200,1171A,120.9376,31.9301,南通市,星湖花园,,42,36,32,21,13,132,132,151,150,12,20,4,5,0.5,0.5
2026-05-31T2200,1172A,120.8053,32.046,南通市,紫琅学院,,45,26,30,17,13,141,141,144,144,7,34,6,7,0.7,0.7
2026-05-31T2200,3291A,121.0631,32.0644,南通市,通州监测站,,48,48,37,28,23,138,138,157,156,12,19,5,6,0.6,0.5
2026-05-31T2200,3432A,120.9348,31.9874,南通市,环境教育馆,,45,39,40,12,18,141,141,152,151,12,28,6,6,0.5,0.5
2026-05-31T2200,4091A,120.8692,31.9885,南通市,洪江路,,47,24,28,20,14,148,148,157,157,7,26,4,4,0.6,0.7
2026-05-31T2200,2404A,112.5338,33.0086,南阳市,瓦房庄,细颗粒物(PM2.5),119,123,134,80,112,160,160,210,207,23,23,7,9,0.8,0.9
2026-05-31T2200,2405A,112.5002,32.9734,南阳市,汉画馆,细颗粒物(PM2.5),136,173,142,99,104,125,125,195,186,40,31,7,9,0.6,0.6
2026-05-31T2200,2406A,112.5778,33.0144,南阳市,气象站,细颗粒物(PM2.5),119,156,149,80,106,146,146,188,185,25,28,9,11,0.5,0.6
2026-05-31T2200,2407A,112.548,32.9687,南阳市,理工学院,细颗粒物(PM2.5),134,146,136,97,109,143,143,204,199,32,34,9,10,0.6,0.6
2026-05-31T2200,4008A,112.5233,32.9921,南阳市,卧龙区政府,细颗粒物(PM2.5),127,147,144,89,103,140,140,203,196,27,24,6,9,0.7,0.7
2026-05-31T2200,1234A,121.8352,29.9111,宁波市,区环保大楼,,40,40,29,17,8,98,98,149,135,51,26,8,8,0.4,0.4
2026-05-31T2200,1235A,121.5595,29.8208,宁波市,万里学院,,44,26,31,8,9,139,139,173,163,13,14,6,7,0.5,0.5
2026-05-31T2200,1236A,121.713,29.9564,宁波市,龙赛医院,,45,45,33,16,9,109,109,166,142,31,22,10,11,0.4,0.5
2026-05-31T2200,1240A,121.5855,29.8635,宁波市,太古小学,,38,31,30,10,10,120,120,168,158,19,14,5,5,0.1,0.1
2026-05-31T2200,1241A,121.5239,29.8673,宁波市,市环境监测中心,,39,35,36,10,11,123,123,171,160,19,17,10,11,0.4,0.4
2026-05-31T2200,2871A,121.6156,29.9015,宁波市,万里国际学校,,38,38,31,13,9,118,118,177,161,23,17,9,7,0.2,0.2
2026-05-31T2200,3710A,121.5593,29.8976,宁波市,白沙活动中心,,38,27,26,13,10,119,119,176,164,22,18,8,8,0.4,0.4
2026-05-31T2200,4095A,121.8962,29.7529,宁波市,中科路88号,NA,NA,35,27,16,11,78,78,174,142,37,18,NA,7,0.3,0.3
2026-05-31T2200,2341A,119.5387,26.6611,宁德市,宁德市监测站,,30,NA,26,8,12,93,93,160,126,12,13,4,6,0.4,0.5
2026-05-31T2200,3209A,119.5231,26.6562,宁德市,宁德一中,,29,10,20,7,15,92,92,165,131,6,8,7,9,0.5,0.6
2026-05-31T2200,2618A,98.859,25.8541,怒江傈僳族自治州,州监测站,,28,26,22,19,12,38,38,69,62,13,11,5,4,0.4,0.4
2026-05-31T2200,2619A,98.8607,25.8168,怒江傈僳族自治州,泸水一中,,28,20,25,19,15,36,36,62,58,12,11,4,4,0.6,0.6
2026-05-31T2200,1888A,101.6891,26.571,攀枝花市,弄弄坪,,24,21,29,3,10,76,76,88,80,8,10,1,4,0.3,0.6
2026-05-31T2200,1889A,101.577,26.5914,攀枝花市,河门口,,24,16,26,6,14,76,76,102,85,8,11,10,11,0.6,0.9
2026-05-31T2200,1891A,101.7365,26.4986,攀枝花市,仁和,,22,10,14,3,14,68,68,74,74,7,8,5,6,0.3,0.5
2026-05-31T2200,2835A,101.7222,26.567,攀枝花市,四十中小,,33,33,26,3,11,70,70,81,74,7,11,7,12,0.5,1.1
2026-05-31T2200,1604A,122.0303,41.1489,盘锦市,开发区,臭氧1小时(O3_1h),103,48,56,33,31,206,206,228,227,10,10,8,9,0.3,0.4
2026-05-31T2200,1605A,122.0486,41.0883,盘锦市,兴隆台,臭氧1小时(O3_1h),67,43,60,27,34,173,173,204,201,21,15,8,9,0.6,0.6
2026-05-31T2200,1606A,121.8297,41.1026,盘锦市,新生街道,臭氧1小时(O3_1h),84,52,51,34,36,187,187,210,210,12,11,8,9,0.5,0.6
2026-05-31T2200,1832A,113.3257,33.7423,平顶山市,新华旅馆,颗粒物(PM10),76,86,74,45,38,112,112,166,150,22,15,3,4,0.6,0.5
2026-05-31T2200,1833A,113.2917,33.737,平顶山市,规划设计院,细颗粒物(PM2.5),76,81,86,48,40,112,112,162,149,15,13,8,9,0.6,0.5
2026-05-31T2200,1834A,113.182,33.7738,平顶山市,平顶山工学院,"颗粒物(PM10),细颗粒物(PM2.5)",58,60,59,39,37,143,143,165,160,12,13,5,6,0.4,0.4
2026-05-31T2200,3594A,112.8736,33.9068,平顶山市,石龙区,颗粒物(PM10),65,71,59,37,26,135,135,149,144,12,19,9,10,0.3,0.3
2026-05-31T2200,4116A,113.284,33.7139,平顶山市,姚电大道23号,颗粒物(PM10),95,112,87,41,41,107,107,167,156,28,15,7,8,0.6,0.5
2026-05-31T2200,2656A,106.6633,35.5338,平凉市,聚贤嘉苑,颗粒物(PM10),83,95,77,37,23,80,80,124,119,35,18,10,9,0.5,0.6
2026-05-31T2200,2657A,106.7021,35.5307,平凉市,博物馆,颗粒物(PM10),68,74,69,28,25,100,100,128,125,20,21,10,11,0.4,0.6
2026-05-31T2200,2348A,113.8384,27.6436,萍乡市,中医院,细颗粒物(PM2.5),56,54,63,38,37,72,72,122,112,25,15,8,10,1.0,0.9
2026-05-31T2200,2350A,113.8677,27.6438,萍乡市,市环保局,细颗粒物(PM2.5),66,49,56,43,44,83,83,121,113,15,10,11,11,1.0,1.1
2026-05-31T2200,2351A,113.8663,27.6202,萍乡市,安源区政府,细颗粒物(PM2.5),70,63,60,45,39,64,64,120,109,20,11,14,8,0.8,0.6
2026-05-31T2200,4107A,113.8686,27.6668,萍乡市,联洪村委会,细颗粒物(PM2.5),54,51,66,37,40,67,67,115,108,19,13,7,11,0.9,0.9
2026-05-31T2200,2319A,119.0142,25.4324,莆田市,荔城区仓后路,,31,25,33,13,13,98,98,152,124,17,9,/,/,/,/
2026-05-31T2200,2320A,119.0016,25.4553,莆田市,莆田市监测站,,36,21,28,15,13,115,115,155,129,3,4,4,4,0.5,0.6
2026-05-31T2200,2321A,119.112,25.4561,莆田市,涵江区六中,,35,21,30,8,10,112,112,151,127,8,9,/,/,0.5,0.6
2026-05-31T2200,2322A,119.1014,25.3215,莆田市,秀屿区政府,,37,17,32,8,12,116,116,150,128,7,9,5,6,0.4,0.5
2026-05-31T2200,2392A,115.0312,35.7636,濮阳市,环保局,颗粒物(PM10),55,57,62,16,17,159,159,184,182,10,11,6,6,0.8,0.7
2026-05-31T2200,3021A,115,35.7667,濮阳市,濮水河管理处,颗粒物(PM10),63,67,53,23,20,135,135,168,164,16,16,5,5,0.6,0.5
2026-05-31T2200,4118A,115.0552,35.7816,濮阳市,中原东路68号,颗粒物(PM10),66,72,65,19,16,160,160,186,184,13,13,5,6,0.8,0.8
2026-05-31T2200,4216A,115.0923632,35.76857718,濮阳市,任丘路479号,颗粒物(PM10),72,80,69,32,23,155,155,188,184,14,13,3,5,0.3,0.4
2026-05-31T2200,2601A,100.9801,22.7634,普洱市,市环保局,,36,36,31,21,14,21,21,70,56,10,7,5,5,0.7,0.7
2026-05-31T2200,2602A,100.9763,22.8237,普洱市,普洱第二中学,,39,39,28,24,10,17,17,73,56,17,11,5,6,0.7,0.6
2026-05-31T2200,3345A,131.0413,45.7795,七台河市,中波台,,35,35,33,18,14,109,109,132,120,7,15,4,4,0.5,0.5
2026-05-31T2200,3637A,131.0136,45.7688,七台河市,人民广场,,40,40,28,6,8,115,115,140,131,8,13,5,5,0.4,0.4
2026-05-31T2200,3684A,130.8639,45.8144,七台河市,新建矿广场,颗粒物(PM10),60,63,25,18,9,103,103,140,123,13,15,7,6,0.2,0.1
2026-05-31T2200,1779A,123.9307,47.3641,齐齐哈尔市,安居小区,颗粒物(PM10),52,52,77,9,16,74,74,149,103,2,8,3,4,0.2,0.4
2026-05-31T2200,1780A,123.9497,47.3389,齐齐哈尔市,中心广场,颗粒物(PM10),70,78,87,7,16,72,72,146,101,8,15,3,4,0.5,0.6
2026-05-31T2200,1781A,123.9483,47.3229,齐齐哈尔市,农牧车辆厂,颗粒物(PM10),51,51,80,7,15,77,77,160,109,4,9,8,9,0.3,0.3
2026-05-31T2200,1783A,123.9442,47.2994,齐齐哈尔市,市环境监测站,颗粒物(PM10),55,57,87,11,13,78,78,156,107,3,9,3,4,0.4,0.5
2026-05-31T2200,3662A,123.6341,47.2079,齐齐哈尔市,富区青少年活动中心,颗粒物(PM10),60,63,96,10,18,64,64,160,92,17,14,13,7,0.8,0.4
2026-05-31T2200,2591A,107.9765,26.5724,黔东南苗族侗族自治州,市环境监测站,,33,33,24,19,16,33,33,90,73,18,10,2,2,0.6,0.5
2026-05-31T2200,2881A,107.8909,26.531,黔东南苗族侗族自治州,凯里学院,,31,31,21,19,16,52,52,91,82,6,6,2,2,0.5,0.5
2026-05-31T2200,2593A,107.5223,26.2371,黔南布依族苗族自治州,小围寨,,20,17,22,14,17,53,53,89,80,6,6,6,5,0.8,0.8
2026-05-31T2200,3538A,107.5175,26.2977,黔南布依族苗族自治州,沙坝,,19,19,30,11,17,48,48,87,78,6,6,3,3,0.9,0.9
2026-05-31T2200,2589A,104.9022,25.0943,黔西南布依族苗族自治州,场坝街,,35,35,25,15,14,86,86,87,86,8,7,7,17,0.4,0.4
2026-05-31T2200,2590A,104.8812,25.0994,黔西南布依族苗族自治州,坪东大道,,38,38,22,11,14,81,81,82,82,5,8,7,7,0.4,0.3
2026-05-31T2200,2502A,108.6238,21.9667,钦州市,市环保站,,38,36,31,26,15,102,102,130,125,9,10,4,2,0.8,0.7
2026-05-31T2200,2503A,108.655,21.9481,钦州市,沙埠小学,,40,40,36,28,18,102,102,134,129,12,13,4,3,0.7,0.7
2026-05-31T2200,2504A,108.5989,21.7435,钦州市,港区一小,,46,46,41,24,22,109,109,139,132,14,15,2,5,0.7,0.7
2026-05-31T2200,3404A,108.5959,21.9634,钦州市,北职校,,48,36,29,33,18,91,91,132,126,12,10,8,3,0.8,0.7
2026-05-31T2200,1046A,119.5247,39.9346,秦皇岛市,建设大厦,臭氧1小时(O3_1h),87,60,75,27,28,189,189,233,230,3,12,7,11,0.4,0.6
2026-05-31T2200,3132A,119.5979,39.938,秦皇岛市,文明里,臭氧1小时(O3_1h),95,77,79,33,31,196,196,241,231,15,21,6,9,0.2,0.5
2026-05-31T2200,4066A,119.7458,39.9952,秦皇岛市,南园路157号,臭氧1小时(O3_1h),89,76,83,30,32,191,191,226,221,12,21,8,11,0.3,0.5
2026-05-31T2200,4067A,119.5131,39.8858,秦皇岛市,翠岛大街1号,臭氧1小时(O3_1h),101,53,63,27,30,201,201,236,233,8,18,11,14,0.3,0.5
2026-05-31T2200,4198A,119.509013,39.825305,秦皇岛市,北戴河轮滑馆,臭氧1小时(O3_1h),89,67,72,25,27,191,191,227,221,7,14,8,9,0.4,0.5
2026-05-31T2200,1310A,120.404,36.0625,青岛市,市南区东部子站,,38,19,46,3,28,119,119,206,186,6,17,6,9,0.3,0.5
2026-05-31T2200,1311A,120.362344,36.10282,青岛市,四方区子站,,41,22,43,3,26,131,131,219,196,6,16,7,10,0.5,0.7
2026-05-31T2200,1312A,120.294373,36.054183,青岛市,市南区西部子站,,36,27,52,3,27,115,115,189,181,12,23,5,7,0.6,0.9
2026-05-31T2200,1313A,120.4581,36.0858,青岛市,崂山区子站,,41,19,42,3,27,131,131,224,206,8,18,7,9,0.3,0.3
2026-05-31T2200,1315A,120.3945,36.3083,青岛市,城阳区子站,,43,22,49,8,24,136,136,223,191,14,22,7,10,0.3,0.5
2026-05-31T2200,3642A,120.3454,36.0735,青岛市,市北区南部,,42,36,48,3,27,134,134,229,206,2,12,3,6,0.6,0.8
2026-05-31T2200,3643A,120.3897,36.18,青岛市,李沧区北部,,40,24,44,3,24,126,126,207,179,8,17,10,13,0.4,0.6
2026-05-31T2200,4110A,120.5222,36.4089,青岛市,盟旺路653号,,44,21,41,7,20,139,139,216,192,5,11,6,8,0.5,0.6
2026-05-31T2200,4290A,120.196923,35.954556,青岛市,珠江路669号,,42,22,45,3,25,134,134,222,200,7,15,4,7,0.5,0.7
2026-05-31T2200,4291A,120.0424,35.8656,青岛市,黄岛区人民政府广场,,39,29,57,3,33,123,123,199,183,8,21,9,11,0.4,0.8
2026-05-31T2200,1703A,113.0218,23.7086,清远市,凤城街办,,40,23,26,7,16,126,126,142,140,14,10,/,/,/,/
2026-05-31T2200,3025A,113.0479,23.6343,清远市,技师学院,,40,26,26,17,17,128,128,150,148,13,11,4,5,0.5,0.6
2026-05-31T2200,3318A,112.9898,23.7403,清远市,清新太和,,48,42,27,25,17,151,151,138,138,14,9,8,8,0.6,0.5
2026-05-31T2200,3455A,113.076,23.72,清远市,清城东城,,41,36,25,23,19,131,131,148,146,11,9,/,/,/,/
2026-05-31T2200,2661A,107.6325,35.7357,庆阳市,庆阳五中,颗粒物(PM10),84,97,48,36,18,103,103,126,115,14,12,4,5,0.3,0.4
2026-05-31T2200,2662A,107.6361,35.7067,庆阳市,市环保局,颗粒物(PM10),83,96,49,30,17,111,111,141,129,13,13,4,7,0.3,0.4
2026-05-31T2200,1916A,103.7897,25.5036,曲靖市,环境监测站,,27,27,26,8,17,78,78,89,87,9,9,5,5,0.4,0.4
2026-05-31T2200,1917A,103.8013,25.5357,曲靖市,烟厂办公区,,25,24,25,8,14,77,77,89,88,9,11,4,4,0.4,0.5
2026-05-31T2200,3376A,103.7926,25.4651,曲靖市,南苑二区,,24,11,21,8,14,76,76,86,85,6,8,4,4,0.5,0.6
2026-05-31T2200,3377A,103.7442,25.5259,曲靖市,曲靖师范学院,,31,31,25,15,19,75,75,87,86,11,11,4,4,0.4,0.5
2026-05-31T2200,1264A,118.8694,28.94,衢州市,环保大楼,,49,49,47,29,29,107,107,183,162,30,20,/,/,/,/
2026-05-31T2200,1266A,118.8622,28.9809,衢州市,衢州学院,颗粒物(PM10),53,54,44,31,27,99,99,168,148,33,20,7,8,0.5,0.5
2026-05-31T2200,4097A,118.9646,28.9832,衢州市,衢州三中,,50,50,49,29,30,91,91,182,151,36,23,5,6,0.5,0.4
2026-05-31T2200,1611A,118.5818,24.9116,泉州市,涂山街,,34,31,32,16,15,107,107,176,143,14,11,6,4,0.5,0.5
2026-05-31T2200,1612A,118.597,24.8976,泉州市,津头埔,,33,33,34,16,14,104,104,178,141,15,9,4,3,0.5,0.5
2026-05-31T2200,1613A,118.6669,24.9422,泉州市,万安,,33,33,36,15,14,105,105,176,141,12,11,6,5,0.4,0.4
2026-05-31T2200,4105A,118.6355,24.9148,泉州市,霞新路6号,颗粒物(PM10),58,61,32,34,17,107,107,178,142,17,12,/,/,0.5,0.4
2026-05-31T2200,2626A,88.8873,29.2723,日喀则市,日喀则监测站,,39,16,10,10,5,124,124,140,136,4,5,5,5,0.4,0.5
2026-05-31T2200,3726A,88.8775,29.2425,日喀则市,林业技术推广中心,,37,26,10,3,2,116,116,132,128,3,2,5,6,0.3,0.3
2026-05-31T2200,1659A,119.4711,35.421,日照市,监测站,颗粒物(PM10),53,53,53,6,25,109,109,203,163,18,25,9,11,0.4,0.7
2026-05-31T2200,1660A,119.523,35.4216,日照市,市政府广场,,36,36,55,3,25,106,106,205,168,23,27,5,9,0.6,0.9
2026-05-31T2200,1661A,119.5511,35.4113,日照市,港务局,,37,34,68,3,27,116,116,199,170,12,29,6,11,0.6,1
2026-05-31T2200,3507A,119.5326,35.4627,日照市,职业技术学院,,38,31,57,3,27,120,120,211,174,16,29,7,11,0.5,0.8
2026-05-31T2200,3604A,119.3267,35.1043,日照市,岚山环保分局,,44,44,60,3,25,109,109,197,161,14,26,10,12,0.6,0.7
2026-05-31T2200,1835A,111.1922,34.7752,三门峡市,市政府,,50,50,36,28,15,52,52,135,118,47,20,11,13,0.4,0.3
2026-05-31T2200,1836A,111.1588,34.794,三门峡市,开发区,,50,50,38,27,18,90,90,134,127,16,13,8,9,0.4,0.4
2026-05-31T2200,3039A,111.1911,34.7829,三门峡市,三门峡市第一小学,颗粒物(PM10),51,51,38,27,17,75,75,137,125,44,18,10,12,0.3,0.3
2026-05-31T2200,3598A,111.1031,34.719,三门峡市,富达温泉假日酒店,颗粒物(PM10),62,66,50,36,21,116,116,134,131,26,22,12,14,0.6,0.6
2026-05-31T2200,2324A,117.621,26.2626,三明市,三钢,,42,40,41,29,28,44,44,113,87,16,10,4,5,0.7,0.6
2026-05-31T2200,2325A,117.6352,26.2714,三明市,三明二中,,42,42,40,28,30,47,47,108,86,12,8,2,3,0.8,0.6
2026-05-31T2200,2326A,117.6028,26.2377,三明市,三元区政府,,45,40,39,31,28,38,38,112,88,17,9,4,5,0.8,0.8
2026-05-31T2200,1877A,109.4962,18.2682,三亚市,河西子站,,21,12,18,10,10,67,67,59,59,1,5,4,4,0.5,0.5
2026-05-31T2200,3540A,109.7348,18.3443,三亚市,君悦子站,NA,NA,NA,18,14,9,NA,NA,53,45,13,10,1,2,0.4,0.4
2026-05-31T2200,4135A,109.1714,18.3739,三亚市,城东小学站,,21,21,24,14,12,44,44,66,64,7,7,/,/,/,/
2026-05-31T2200,2624A,91.7592,29.234,山南市,山南监测站,,41,8,9,3,3,130,130,144,143,1,3,6,7,0.2,0.2
2026-05-31T2200,2625A,91.7701,29.2436,山南市,山南人民医院,,44,16,13,10,5,138,138,149,148,2,2,4,5,0.2,0.2
2026-05-31T2200,1674A,116.6795,23.3666,汕头市,金平子站,,42,28,34,10,17,133,133,182,165,7,10,4,4,0.5,0.6
2026-05-31T2200,1675A,116.7248,23.3632,汕头市,龙湖子站,,40,30,37,12,18,125,125,166,150,4,8,6,7,/,/
2026-05-31T2200,1676A,116.7257,23.2774,汕头市,濠江子站,,39,24,38,11,17,123,123,162,148,7,10,8,8,/,/
2026-05-31T2200,1677A,116.7518,23.4712,汕头市,澄海子站,,45,23,41,13,21,141,141,183,169,7,10,5,6,0.6,0.6
2026-05-31T2200,1678A,116.6088,23.2539,汕头市,潮阳子站,,42,28,33,12,19,132,132,177,162,6,8,6,7,0.5,0.6
2026-05-31T2200,3444A,116.4539,23.2684,汕头市,潮南峡山,,36,29,35,12,20,115,115,189,166,15,10,7,7,1.3,0.8
2026-05-31T2200,3624A,116.4069,23.2533,汕头市,潮南子站,,38,28,46,11,22,121,121,174,158,6,10,6,7,/,/
2026-05-31T2200,1693A,115.3653,22.7751,汕尾市,市环保局,臭氧1小时(O3_1h),67,30,39,14,20,173,173,173,173,8,10,6,6,0.5,0.5
