timepoint,stationcode,longitude,latitude,area,positionname,primarypollutant,aqi,pm10,pm10_24h,pm2_5,pm2_5_24h,o3,o3_24h,o3_8h,o3_8h_24h,no2,no2_24h,so2,so2_24h,co,co_24h
2025-04-30T1100,2566A,102.1879,31.914,阿坝藏族羌族自治州,州农科所,,31,31,25,9,9,78,,40,40,4,6,10,10,0.5,0.5
2025-04-30T1100,2568A,102.2502,31.8896,阿坝藏族羌族自治州,马师校,,26,11,21,8,13,81,,26,26,7,11,5,5,0.5,0.5
2025-04-30T1100,3994A,102.2165,31.9024,阿坝藏族羌族自治州,马尔康中学西区,,,26,24,,14,88,,33,33,3,8,,4,0.2,0.3
2025-04-30T1100,2695A,80.292,41.1694,阿克苏地区,电视台,颗粒物(PM10),93,136,160,37,45,58,,57,48,18,17,8,8,0.8,0.8
2025-04-30T1100,2696A,80.2613,41.1551,阿克苏地区,艺术中心,颗粒物(PM10),98,146,182,39,50,51,,26,26,16,30,4,4,0.5,0.6
2025-04-30T1100,2204A,105.6467,38.8363,阿拉善盟,西城区西花园,颗粒物(PM10),500,716,325,85,95,114,,118,116,,7,6,6,0.6,0.6
2025-04-30T1100,2205A,105.6985,38.8411,阿拉善盟,蒙二幼,颗粒物(PM10),500,800,437,97,119,97,,101,99,5,6,7,7,0.6,0.6
2025-04-30T1100,2206A,105.724,38.8516,阿拉善盟,环保局新楼,颗粒物(PM10),302,421,396,108,129,100,,106,103,3,3,8,7,0.4,0.4
2025-04-30T1100,2708A,88.1264,47.8517,阿勒泰地区,市站,,,34,32,6,6,,,82,75,27,6,,3,0.5,0.5
2025-04-30T1100,2630A,80.1161,32.5,阿里地区,阿里监测站,,27,27,17,9,8,72,,79,75,16,10,12,8,0.4,0.4
2025-04-30T1100,3192A,80.0903,32.5028,阿里地区,阿里藏医院,,35,35,23,8,8,75,,80,76,14,6,17,8,0.4,0.4
2025-04-30T1100,2642A,109.0318,32.6537,安康市,香溪洞,,42,42,40,24,24,92,,48,48,8,12,10,14,0.6,0.6
2025-04-30T1100,2644A,109.0072,32.6975,安康市,汉滨区检察院,,43,43,50,26,23,78,,33,33,14,16,17,18,0.5,0.5
2025-04-30T1100,4054A,109.0325,32.6913,安康市,市邮政管理局,,45,45,62,21,24,90,,34,34,11,19,11,22,0.4,0.5
2025-04-30T1100,2291A,117.0809,30.5177,安庆市,环科院,颗粒物(PM10),62,73,54,39,27,130,,97,97,14,31,4,3,0.8,0.7
2025-04-30T1100,2292A,117.0331,30.5119,安庆市,马山宾馆,细颗粒物(PM2.5),67,62,52,48,28,129,,72,72,20,38,8,5,0.8,0.5
2025-04-30T1100,2294A,116.9896,30.6145,安庆市,安庆大学,颗粒物(PM10),58,66,57,32,33,128,,78,78,14,28,9,8,0.6,0.5
2025-04-30T1100,3173A,117.0598,30.5351,安庆市,市人大,颗粒物(PM10),58,65,54,38,25,143,,98,98,14,23,9,8,0.6,0.5
2025-04-30T1100,3122A,105.9606,26.2611,安顺市,伍家关,,,,23,,12,,,83,79,,7,,4,,0.4
2025-04-30T1100,3123A,105.9408,26.2431,安顺市,凤凰山,,,11,21,7,12,83,,84,79,10,7,,6,0.4,0.5
2025-04-30T1100,3124A,105.9439,26.2564,安顺市,金钟山,,27,12,21,7,12,85,,81,79,8,7,4,5,0.4,0.5
2025-04-30T1100,3125A,105.8983,26.2481,安顺市,娄家坡,,26,13,20,7,13,83,,82,77,10,8,5,6,0.3,0.4
2025-04-30T1100,1818A,114.4839,36.0621,安阳市,棉研所,,,,,,,,,,,,,,,,
2025-04-30T1100,1819A,114.3551,36.1017,安阳市,红庙街,颗粒物(PM10),96,142,85,41,22,102,,42,42,22,20,12,9,0.9,0.5
2025-04-30T1100,1820A,114.361,36.0681,安阳市,银杏小区,颗粒物(PM10),91,132,88,39,28,62,,37,29,50,36,9,12,0.6,0.4
2025-04-30T1100,3141A,114.3922,36.0878,安阳市,信访局,,,,90,18,27,,,30,9,48,30,7,8,0.6,0.3
2025-04-30T1100,3669A,114.4705,36.0637,安阳市,左辅环卫站,颗粒物(PM10),77,104,83,23,26,70,,38,38,21,25,7,7,0.6,0.5
2025-04-30T1100,3703A,114.2917,36.0949,安阳市,安钢职工学校,颗粒物(PM10),108,166,90,43,24,105,,60,60,24,20,4,6,0.7,0.5
2025-04-30T1100,1748A,123.044,41.1196,鞍山市,深沟寺,颗粒物(PM10),52,53,64,32,35,118,,119,117,12,11,6,6,0.6,0.5
2025-04-30T1100,1749A,123.011,41.0931,鞍山市,太阳城,颗粒物(PM10),56,62,68,36,35,112,,99,97,10,10,6,7,0.8,0.7
2025-04-30T1100,1750A,123.0485,41.1442,鞍山市,太平,颗粒物(PM10),62,74,81,35,31,105,,105,102,14,12,8,9,0.7,0.6
2025-04-30T1100,1751A,122.9642,41.0971,鞍山市,铁西三道街,,,80,82,38,35,117,,114,105,19,16,4,5,,0.5
2025-04-30T1100,1753A,123.022,41.0821,鞍山市,明达新区,颗粒物(PM10),54,57,64,23,21,123,,115,113,9,9,7,7,0.3,0.3
2025-04-30T1100,1754A,123.1289,41.0228,鞍山市,千山,,,,42,,19,,,136,,,10,,5,,0.5
2025-04-30T1100,4201A,122.9446,41.0826,鞍山市,兴盛南路290号,颗粒物(PM10),60,69,93,36,38,121,,105,103,14,18,8,8,0.6,0.6
2025-04-30T1100,2195A,107.4212,40.761,巴彦淖尔市,附二中,颗粒物(PM10),57,64,159,20,48,85,,86,86,3,11,5,5,0.6,0.5
2025-04-30T1100,2196A,107.37,40.7372,巴彦淖尔市,市环保大楼,颗粒物(PM10),61,72,152,39,53,103,,90,90,6,12,3,3,0.6,0.7
2025-04-30T1100,1956A,86.1472,41.7538,巴音郭楞蒙古自治州,孔雀公园,颗粒物(PM10),113,175,233,26,53,31,,10,10,47,41,9,7,0.5,0.5
2025-04-30T1100,1957A,86.1972,41.7166,巴音郭楞蒙古自治州,棉纺厂,颗粒物(PM10),175,300,279,75,57,46,,22,22,30,29,4,3,0.4,0.4
2025-04-30T1100,1958A,86.2357,41.7173,巴音郭楞蒙古自治州,经济开发区,颗粒物(PM10),120,190,214,42,43,59,,49,49,18,15,7,7,0.3,0.2
2025-04-30T1100,2914A,106.7677,31.8794,巴中市,苏山坪,,32,32,37,19,21,77,,47,47,14,18,6,4,0.7,0.7
2025-04-30T1100,3181A,106.7768,31.8526,巴中市,市五中,,35,35,43,20,23,70,,24,24,9,17,8,12,0.4,0.5
2025-04-30T1100,3183A,106.7418,31.8654,巴中市,圣泉水务公司,,32,32,35,18,18,72,,29,29,13,23,9,7,0.4,0.5
2025-04-30T1100,3616A,106.7616,31.8344,巴中市,市中心医院,,38,31,35,26,22,69,,22,22,7,14,6,4,0.4,0.4
2025-04-30T1100,2235A,122.7911,45.6077,白城市,洮北区环保局,,26,16,42,7,11,82,,71,71,8,10,3,3,0.2,0.2
2025-04-30T1100,2236A,122.8738,45.5725,白城市,市环保局,,,29,41,,12,89,,74,74,,4,4,5,0.2,0.4
2025-04-30T1100,2231A,126.4219,41.9171,白山市,喜丰,,,53,59,20,25,142,,71,71,12,18,,15,0.7,0.8
2025-04-30T1100,2232A,126.4077,41.9419,白山市,环保局,,45,45,41,22,18,132,,78,78,19,16,14,11,0.7,0.6
2025-04-30T1100,2647A,104.1724,36.5446,白银市,第三小学,颗粒物(PM10),162,273,307,45,81,98,,82,79,7,15,9,14,0.7,0.7
2025-04-30T1100,2648A,104.1465,36.5482,白银市,动力公司,颗粒物(PM10),158,265,269,103,89,106,,78,76,5,14,7,11,0.5,0.6
2025-04-30T1100,2512A,106.6103,23.9011,百色市,市监测站,细颗粒物(PM2.5),59,61,56,42,36,73,,47,46,18,19,12,12,1.0,0.9
2025-04-30T1100,2513A,106.6538,23.8859,百色市,市中心血站,细颗粒物(PM2.5),84,100,67,62,44,65,,53,43,23,19,15,15,1.2,1
2025-04-30T1100,3406A,106.6085,23.8798,百色市,祈福高中,细颗粒物(PM2.5),77,82,75,56,38,71,,26,26,19,29,13,11,1.0,0.8
2025-04-30T1100,2270A,117.396,32.939,蚌埠市,工人疗养院,颗粒物(PM10),64,78,71,24,24,152,,128,128,10,15,6,6,0.5,0.6
2025-04-30T1100,2271A,117.3605,32.9427,蚌埠市,百货大楼,颗粒物(PM10),63,75,71,26,29,147,,115,115,14,22,7,8,0.5,0.6
2025-04-30T1100,2273A,117.4185,32.8911,蚌埠市,蚌埠学院,颗粒物(PM10),63,75,66,24,27,146,,107,107,7,19,5,6,0.5,0.6
2025-04-30T1100,2274A,117.3533,32.9673,蚌埠市,淮上区政府,颗粒物(PM10),62,73,65,28,27,151,,119,119,12,19,7,7,0.4,0.4
2025-04-30T1100,2275A,117.3145,32.8977,蚌埠市,高新区,颗粒物(PM10),62,73,79,27,30,145,,105,105,9,24,6,7,0.5,0.5
2025-04-30T1100,3715A,117.3092,32.9314,蚌埠市,蚌埠田家炳中学,颗粒物(PM10),66,81,73,25,28,151,,108,108,10,22,7,11,0.4,0.4
2025-04-30T1100,1585A,109.8756,40.6532,包头市,市环境监测站,颗粒物(PM10),79,108,98,27,40,96,,61,61,9,17,8,8,0.4,0.4
2025-04-30T1100,1587A,109.9991,40.5842,包头市,包头八中,颗粒物(PM10),91,131,93,17,27,102,,59,59,8,23,12,12,0.4,0.3
2025-04-30T1100,1588A,109.8538,40.6821,包头市,青山宾馆,颗粒物(PM10),55,60,76,19,26,97,,70,70,9,14,10,10,0.4,0.4
2025-04-30T1100,1589A,109.8642,40.6288,包头市,惠龙物流,颗粒物(PM10),64,78,88,28,32,100,,63,63,11,17,8,9,0.3,0.3
2025-04-30T1100,1590A,110.0377,40.5546,包头市,东河鸿龙湾,颗粒物(PM10),98,145,91,8,15,100,,46,46,9,24,7,8,0.3,0.4
2025-04-30T1100,3283A,109.9154,40.5685,包头市,滨河大厦,颗粒物(PM10),78,106,83,20,26,100,,53,53,6,21,9,12,0.4,0.5
2025-04-30T1100,3419A,109.9447,40.6261,包头市,包头市委党校,颗粒物(PM10),120,190,86,37,19,100,,55,55,5,15,6,8,0.3,0.3
2025-04-30T1100,3683A,109.8331,40.6576,包头市,昆区政府,颗粒物(PM10),72,93,93,13,40,102,,72,72,9,16,6,8,0.4,0.4
2025-04-30T1100,1930A,107.185,34.3063,宝鸡市,庙沟村,,44,44,61,19,31,114,,100,100,2,5,7,7,0.5,0.4
2025-04-30T1100,1931A,107.0708,34.3017,宝鸡市,竹园沟,,,,74,,24,,,94,88,5,8,8,8,,0.3
2025-04-30T1100,1932A,107.1906,34.3672,宝鸡市,三陆医院,颗粒物(PM10),63,76,83,26,37,95,,31,31,14,33,5,7,0.3,0.3
2025-04-30T1100,1933A,107.1431,34.3547,宝鸡市,监测站,颗粒物(PM10),62,74,85,21,33,92,,44,44,9,20,5,5,0.2,0.3
2025-04-30T1100,1934A,107.1186,34.3739,宝鸡市,技工学校,颗粒物(PM10),69,87,78,25,32,98,,83,83,9,12,6,8,0.4,0.4
2025-04-30T1100,1935A,107.3906,34.3528,宝鸡市,陈仓区环保局家属楼,,,91,90,25,32,94,,44,44,,24,8,9,,0.5
2025-04-30T1100,1936A,107.2058,34.3497,宝鸡市,文理学院,颗粒物(PM10),59,68,76,29,41,101,,51,51,10,19,6,6,0.4,0.4
2025-04-30T1100,1937A,107.2386,34.3622,宝鸡市,三迪小学,颗粒物(PM10),69,88,89,31,37,98,,36,36,12,26,5,6,0.5,0.5
2025-04-30T1100,1051A,115.493,38.8632,保定市,游泳馆,颗粒物(PM10),58,66,86,37,34,112,,67,67,22,25,9,10,0.2,0.2
2025-04-30T1100,1052A,115.5213,38.8959,保定市,华电二区,颗粒物(PM10),51,52,72,25,30,117,,59,59,17,22,3,4,0.2,0.3
2025-04-30T1100,1053A,115.4713,38.9108,保定市,接待中心,,50,50,78,31,30,109,,62,62,20,21,4,5,0.6,0.7
2025-04-30T1100,1054A,115.4612,38.8416,保定市,地表水厂,颗粒物(PM10),52,54,94,14,28,118,,64,64,19,29,4,6,0.2,0.3
2025-04-30T1100,3581A,115.31981,38.95208,保定市,满城区生态环境分局,,,,96,,31,111,,53,53,,29,3,6,0.2,0.3
2025-04-30T1100,3582A,115.47694,38.76408,保定市,清苑区第二中学,颗粒物(PM10),70,90,109,32,32,126,,53,53,17,26,8,8,0.4,0.4
2025-04-30T1100,3583A,115.62909,39.02311,保定市,徐水物探局,颗粒物(PM10),61,72,107,36,32,85,,37,37,35,34,5,5,0.2,0.2
2025-04-30T1100,4004A,115.4202,38.8656,保定市,双鹰农机,,42,42,79,21,36,117,,67,67,13,22,5,7,0.1,0.2
2025-04-30T1100,4034A,115.5150,38.8590,保定市,植保所站,颗粒物(PM10),59,67,77,24,34,106,,58,58,20,21,3,2,0.6,0.7
2025-04-30T1100,2594A,99.1678,25.1081,保山市,市环境监测站,细颗粒物(PM2.5),64,62,42,46,33,88,,84,75,14,8,5,6,0.7,0.6
2025-04-30T1100,2595A,99.1711,25.1328,保山市,市环保局,,,60,43,31,22,,,96,85,14,6,9,8,0.5,0.5
2025-04-30T1100,1866A,109.2262,21.588,北海市,牛尾岭水库,,,45,35,17,21,91,,83,83,,10,7,7,0.7,0.6
2025-04-30T1100,1867A,109.1436,21.4086,北海市,海滩公园,颗粒物(PM10),52,53,42,22,16,124,,114,114,8,8,6,7,0.6,0.6
2025-04-30T1100,1868A,109.0981,21.4661,北海市,新市环保局,,48,48,38,24,20,101,,107,101,13,12,3,5,0.6,0.6
2025-04-30T1100,1869A,109.1778,21.5233,北海市,北海工业园,颗粒物(PM10),62,74,49,34,26,100,,101,94,12,12,8,9,0.5,0.8
2025-04-30T1100,3400A,109.1911,21.4415,北海市,龙潭自来水厂,,50,50,37,27,24,115,,110,105,9,9,8,9,0.5,0.6
2025-04-30T1100,1001A,116.3621,39.8784,北京市,万寿西宫,,35,19,65,7,26,112,,77,77,15,36,7,8,0.4,0.6
2025-04-30T1100,1002A,116.2202,40.2915,北京市,定陵,,,,,,,,,,,,,,,,
2025-04-30T1100,1003A,116.4174,39.9289,北京市,东四,,33,23,69,10,25,105,,68,68,12,35,3,4,0.3,0.5
2025-04-30T1100,1004A,116.4072,39.8863,北京市,天坛,,32,20,56,10,23,100,,48,48,18,36,4,3,0.4,0.7
2025-04-30T1100,1005A,116.462,39.9365,北京市,农展馆,,,25,69,12,25,,,51,51,15,41,7,9,0.3,0.8
2025-04-30T1100,1006A,116.3392,39.9295,北京市,官园,,30,23,66,3,21,94,,67,67,16,33,4,6,0.3,0.5
2025-04-30T1100,1007A,116.2878,39.9611,北京市,海淀万柳,,28,28,76,10,29,71,,22,22,20,45,5,7,0.5,0.7
2025-04-30T1100,1008A,116.6636,40.135,北京市,顺义新城,,31,22,76,11,30,99,,82,82,9,25,6,9,0.2,0.5
2025-04-30T1100,1009A,116.6275,40.3275,北京市,怀柔镇,,30,19,60,3,35,95,,65,65,10,25,3,6,0.3,0.6
2025-04-30T1100,1010A,116.2296,40.217,北京市,昌平镇,,35,35,48,9,15,71,,78,71,26,23,4,4,0.3,0.3
2025-04-30T1100,1011A,116.3966,39.9821,北京市,奥体中心,,28,21,64,10,25,89,,61,61,23,49,3,5,0.2,0.4
2025-04-30T1100,3281A,115.9718,40.4529,北京市,延庆夏都,,32,32,36,10,12,71,,38,38,26,23,5,3,0.3,0.3
2025-04-30T1100,3418A,116.8336,40.4095,北京市,密云新城,,31,13,67,6,30,98,,87,86,4,18,4,6,0.3,0.6
2025-04-30T1100,3671A,116.088,39.9726,北京市,门头沟三家店,,,,,,,,,,,,,,,,
2025-04-30T1100,3672A,116.1541,39.8204,北京市,丰台云岗,,36,36,65,9,25,91,,56,56,19,33,3,5,0.3,0.3
2025-04-30T1100,3673A,116.6804,39.9081,北京市,通州东关,,32,30,106,3,25,101,,46,46,18,58,8,8,0.3,0.5
2025-04-30T1100,3674A,115.9577,39.7603,北京市,房山燕山,,32,32,50,12,20,84,,70,70,18,17,5,6,0.2,0.3
2025-04-30T1100,3675A,116.4672,39.7733,北京市,大兴旧宫,,30,30,66,9,25,63,,38,38,11,42,3,2,0.2,0.3
2025-04-30T1100,3694A,115.986,40.4563,北京市,延庆石河营,,29,29,44,8,10,69,,37,37,20,18,3,3,0.4,0.3
2025-04-30T1100,3695A,116.6151,40.3053,北京市,怀柔新城,,29,19,53,6,20,91,,64,64,10,18,1,4,0.3,0.6
2025-04-30T1100,3696A,116.2545,39.8768,北京市,丰台小屯,,28,20,58,12,25,87,,46,46,22,60,2,4,0.4,0.5
2025-04-30T1100,3697A,116.84,40.3844,北京市,密云镇,,32,10,61,3,31,102,,67,67,2,30,6,8,0.2,0.6
2025-04-30T1100,4182A,116.1942,39.9158,北京市,八角北路9号,,31,27,72,11,24,98,,36,36,21,58,4,5,0.2,0.4
2025-04-30T1100,4194A,117.0790,40.1518,北京市,洳河巡河路,,38,21,69,18,38,120,,59,59,9,21,6,5,0.5,0.6
2025-04-30T1100,1761A,123.8275,41.3064,本溪市,大峪,颗粒物(PM10),55,60,72,26,30,125,,118,116,13,11,7,7,0.6,0.6
2025-04-30T1100,1762A,123.7567,41.3325,本溪市,溪湖,颗粒物(PM10),59,68,76,32,32,113,,123,116,17,14,9,8,0.9,0.8
2025-04-30T1100,1763A,123.7169,41.3094,本溪市,彩屯,颗粒物(PM10),65,80,89,38,40,103,,106,103,30,29,19,19,1.9,2
2025-04-30T1100,1764A,123.7669,41.2864,本溪市,东明,颗粒物(PM10),61,72,66,24,28,120,,132,125,12,10,7,7,0.7,0.6
2025-04-30T1100,1765A,123.7992,41.2664,本溪市,新立屯,颗粒物(PM10),55,60,64,30,33,128,,134,128,12,12,8,7,0.9,0.8
2025-04-30T1100,1766A,123.8142,41.3472,本溪市,威宁,,,76,77,28,32,112,,116,114,11,8,,6,,0.6
2025-04-30T1100,2587A,105.2864,27.3125,毕节市,八中,,26,18,14,8,8,82,,77,72,8,7,8,5,0.5,0.5
2025-04-30T1100,2588A,105.31,27.2944,毕节市,师专,,25,16,16,9,9,77,,77,72,12,9,12,9,0.5,0.5
2025-04-30T1100,4263A,105.3688,27.3598,毕节市,工业大道,,,16,14,11,9,72,,69,59,16,10,,6,0.5,0.6
2025-04-30T1100,1629A,118.0018,37.3617,滨州市,第二水厂,,,127,80,29,26,109,,93,93,,21,11,11,,0.7
2025-04-30T1100,1630A,117.9776,37.393,滨州市,北中新校,颗粒物(PM10),62,73,59,29,22,110,,98,98,20,21,16,12,0.7,0.6
2025-04-30T1100,3514A,117.9378,37.3956,滨州市,中海酒店,,,66,57,29,23,109,,103,97,17,17,,17,0.8,0.7
2025-04-30T1100,3515A,117.9378,37.3553,滨州市,开发区一中,颗粒物(PM10),69,88,75,19,22,104,,94,94,20,25,11,9,0.6,0.6
2025-04-30T1100,3516A,118.0917,37.694,滨州市,金海六路,颗粒物(PM10),73,95,71,22,18,98,,76,76,20,28,15,12,0.4,0.3
2025-04-30T1100,4028A,117.9956,37.3753,滨州市,滨州市西街道办事处,,,100,69,29,35,116,,103,103,16,18,10,9,,0.6
2025-04-30T1100,2311A,115.8072,33.8399,亳州市,污水处理厂,,,78,68,32,22,129,,114,114,,13,,5,0.5,0.5
2025-04-30T1100,2312A,115.7789,33.8518,亳州市,三国揽胜宫,颗粒物(PM10),64,78,62,28,22,139,,120,120,6,10,6,7,0.4,0.4
2025-04-30T1100,3332A,115.7633,33.8034,亳州市,亳州学院,颗粒物(PM10),61,71,60,27,21,136,,113,113,7,12,4,6,0.5,0.5
2025-04-30T1100,2693A,82.0485,44.8556,博尔塔拉蒙古自治州,市党校,颗粒物(PM10),137,224,81,37,27,85,,66,66,20,33,5,4,0.6,0.6
2025-04-30T1100,2694A,82.0806,44.8969,博尔塔拉蒙古自治州,市环保局,颗粒物(PM10),158,266,92,76,28,83,,66,66,13,19,2,3,0.5,0.7
2025-04-30T1100,1071A,116.8842,38.2991,沧州市,沧县城建局,颗粒物(PM10),60,69,78,36,32,108,,88,77,27,21,4,3,0.5,0.4
2025-04-30T1100,1072A,116.8584,38.3254,沧州市,电视转播站,,,109,82,56,42,79,,81,68,33,22,,8,,0.3
2025-04-30T1100,1073A,116.8709,38.3228,沧州市,市环保局,颗粒物(PM10),69,87,77,44,37,112,,87,80,25,21,9,8,0.5,0.4
2025-04-30T1100,3324A,116.8136,38.3004,沧州市,河北水利电力学院,颗粒物(PM10),73,95,80,28,27,103,,90,77,24,22,12,11,0.4,0.3
2025-04-30T1100,2622A,97.1806,31.1273,昌都市,昌都监测站,,31,17,12,3,10,98,,72,71,4,3,3,2,0.4,0.4
2025-04-30T1100,3719A,97.1714,31.1406,昌都市,昌都会议中心,,32,22,14,12,11,100,,72,72,4,4,3,3,0.2,0.2
2025-04-30T1100,2690A,88.1236,43.8886,昌吉回族自治州,天山天池,,32,,18,22,9,93,,76,76,4,5,5,6,0.5,0.5
2025-04-30T1100,2692A,87.2717,44.0297,昌吉回族自治州,新区政务中心,颗粒物(PM10),85,120,58,21,14,67,,39,39,15,23,10,8,0.3,0.4
2025-04-30T1100,3613A,87.3095,44.0142,昌吉回族自治州,亚心广场,颗粒物(PM10),91,132,65,29,22,56,,40,40,28,25,8,9,0.3,0.4
2025-04-30T1100,1119A,125.3325,43.9166,长春市,食品厂,,45,45,66,16,25,81,,47,47,21,23,9,9,0.4,0.4
2025-04-30T1100,1120A,125.2863,43.9027,长春市,客车厂,,39,39,60,15,24,85,,49,49,22,25,7,6,0.4,0.4
2025-04-30T1100,1121A,125.2841,43.8463,长春市,邮电学院,,41,41,59,16,22,86,,60,60,21,18,7,7,0.5,0.5
2025-04-30T1100,1122A,125.3716,43.8772,长春市,劳动公园,,50,,66,35,22,84,,53,53,20,18,8,8,0.5,0.4
2025-04-30T1100,1123A,125.3297,43.8805,长春市,园林处,,,58,59,,19,,,54,53,22,16,8,8,,0.5
2025-04-30T1100,1124A,125.4605,43.79,长春市,净月潭,颗粒物(PM10),56,62,62,31,24,116,,60,60,16,13,8,8,0.4,0.4
2025-04-30T1100,1125A,125.7194,43.515,长春市,甩湾子,,,,,,,,,,,,,,,,
2025-04-30T1100,1126A,125.3863,43.8447,长春市,经开区环卫处,颗粒物(PM10),55,59,70,18,20,86,,45,45,23,23,8,8,0.4,0.4
2025-04-30T1100,1127A,125.245,43.7783,长春市,高新区管委会,,42,42,57,20,20,87,,47,47,22,22,10,10,0.3,0.3
2025-04-30T1100,1128A,125.1761,43.8325,长春市,岱山公园,,,43,62,22,22,,,44,44,16,30,6,6,0.5,0.6
2025-04-30T1100,1335A,113.0833,28.2325,长沙市,经开区环保局,,,,62,15,29,88,,74,73,,17,4,6,0.4,0.6
2025-04-30T1100,1336A,112.8872,28.2189,长沙市,高开区环保局,,28,28,52,16,26,88,,79,79,6,6,4,6,0.7,0.9
2025-04-30T1100,1337A,113.0792,28.2053,长沙市,马坡岭,,28,17,60,14,30,89,,77,76,15,17,3,5,0.4,0.5
2025-04-30T1100,1338A,112.9394,28.19,长沙市,湖南师范大学,,30,20,54,14,23,95,,84,84,12,14,3,4,0.4,0.5
2025-04-30T1100,1339A,113.0178,28.1322,长沙市,雨花区环保局,,31,29,55,18,29,97,,81,81,8,11,3,5,0.2,0.4
2025-04-30T1100,1340A,112.9792,28.2597,长沙市,伍家岭,,28,19,60,12,25,89,,76,76,11,12,2,4,0.4,0.5
2025-04-30T1100,1341A,113.0014,28.1944,长沙市,火车新站,,31,18,57,17,29,99,,83,83,9,12,6,7,0.4,0.5
2025-04-30T1100,1342A,112.9844,28.1178,长沙市,天心区环保局,,31,25,55,18,27,97,,84,84,11,12,2,4,0.5,0.7
2025-04-30T1100,1343A,112.8908,28.1308,长沙市,湖南中医药大学,,29,28,51,8,30,92,,84,84,9,10,2,4,0.4,0.6
2025-04-30T1100,1344A,112.9581,28.3611,长沙市,沙坪,,32,32,50,11,26,81,,74,74,8,11,4,6,0.5,0.6
2025-04-30T1100,1727A,113.1147,36.1547,长治市,清华站,细颗粒物(PM2.5),125,158,59,95,19,113,,94,90,7,14,,7,,0.5
2025-04-30T1100,1730A,113.0886,36.2125,长治市,审计局,细颗粒物(PM2.5),134,165,50,102,16,117,,99,96,10,17,8,11,0.3,0.3
2025-04-30T1100,1731A,113.0844,36.1856,长治市,长治八中,颗粒物(PM10),140,229,64,82,20,,,93,89,11,19,8,9,0.4,0.5
2025-04-30T1100,2845A,113.1569,36.1911,长治市,德盛苑,细颗粒物(PM2.5),113,167,59,85,17,113,,108,104,9,12,5,6,0.5,0.5
2025-04-30T1100,3568A,113.06,36.0464,长治市,向阳小学,颗粒物(PM10),133,216,72,72,18,115,,102,98,12,16,12,12,0.1,0.2
2025-04-30T1100,3569A,112.8792,36.3144,长治市,屯留一中,颗粒物(PM10),115,180,55,69,13,111,,95,92,6,8,8,19,0.7,0.6
2025-04-30T1100,4189A,113.1131,36.19948,长治市,英华南巷50号,细颗粒物(PM2.5),144,198,60,110,20,119,,90,90,10,19,5,7,0.5,0.4
2025-04-30T1100,4190A,113.2367,36.3344,长治市,学府街1号,"颗粒物(PM10),细颗粒物(PM2.5)",100,149,71,75,23,110,,99,92,16,15,9,5,0.6,0.5
2025-04-30T1100,1854A,111.6975,28.9703,常德市,市二中,,32,,39,22,28,77,,71,71,9,11,5,5,0.7,0.7
2025-04-30T1100,1857A,111.7158,29.1456,常德市,白鹤山,,,,,,,,,,,,,,,,
2025-04-30T1100,3138A,111.7153,29.0289,常德市,武陵区永安,,30,30,46,13,19,82,,80,80,7,9,4,4,0.6,0.6
2025-04-30T1100,3139A,111.6892,28.9881,常德市,鼎城区玉霞,,34,34,41,16,24,79,,70,70,6,6,3,4,0.6,0.6
2025-04-30T1100,3140A,111.6625,29.0531,常德市,武陵区长庚,,,28,39,12,18,76,,77,77,7,8,,7,0.6,0.6
2025-04-30T1100,1196A,119.9633,31.762,常州市,市监测站,颗粒物(PM10),60,70,78,37,35,164,,78,78,18,28,12,10,0.8,0.8
2025-04-30T1100,1200A,119.9468,31.7069,常州市,武进监测站,,,63,58,33,28,167,,86,86,,31,14,13,,0.7
2025-04-30T1100,1201A,119.9255,31.9087,常州市,安家,颗粒物(PM10),55,60,60,30,31,158,,83,83,21,28,13,12,0.4,0.4
2025-04-30T1100,3002A,119.9805,31.8174,常州市,行政中心,颗粒物(PM10),61,71,68,33,31,159,,89,89,24,27,20,18,0.5,0.5
2025-04-30T1100,3003A,120.0522,31.7748,常州市,经开区,颗粒物(PM10),60,69,66,35,29,167,,93,93,34,34,12,16,0.6,1.2
2025-04-30T1100,3010A,119.9025,31.7964,常州市,钟楼,颗粒物(PM10),59,67,71,26,30,165,,94,94,20,23,10,9,0.5,0.5
2025-04-30T1100,3429A,119.8598,31.7066,常州市,武进经发区,颗粒物(PM10),56,62,64,32,31,159,,77,77,20,28,11,14,0.7,0.7
2025-04-30T1100,3430A,119.5826,31.7245,常州市,金坛城区,臭氧1小时,55,48,74,27,31,164,,88,88,21,24,15,12,0.7,0.8
2025-04-30T1100,2220A,120.4318,41.5881,朝阳市,西梁,颗粒物(PM10),51,51,78,12,17,95,,77,77,9,18,9,9,0.4,0.4
2025-04-30T1100,2221A,120.4521,41.5646,朝阳市,河畔小区,,36,36,74,11,22,96,,80,80,6,12,6,7,0.2,0.3
2025-04-30T1100,2222A,120.4176,41.5648,朝阳市,八里堡,,43,43,96,10,22,95,,77,77,8,16,8,8,0.2,0.3
2025-04-30T1100,2223A,120.3806,41.5969,朝阳市,农业园区,,,52,76,8,29,94,,68,68,,17,11,10,0.3,0.4
2025-04-30T1100,1705A,116.6367,23.6719,潮州市,西园路,,,72,52,45,34,159,,91,91,18,15,,6,0.8,0.7
2025-04-30T1100,3026A,116.6183,23.6608,潮州市,市政府,,,,58,33,35,141,,78,76,,14,,10,0.7,0.7
2025-04-30T1100,4036A,116.6461,23.6761,潮州市,金山,颗粒物(PM10),67,83,50,36,29,147,,84,84,18,17,17,9,0.7,0.7
2025-04-30T1100,2472A,113.0073,25.9061,郴州市,马头岭,,50,50,48,16,20,19,,6,6,18,18,12,8,0.4,0.5
2025-04-30T1100,2473A,113.0116,25.8226,郴州市,市职中,,43,43,54,29,35,98,,41,41,14,18,7,3,0.6,0.7
2025-04-30T1100,2475A,113.0383,25.8071,郴州市,市审计局,,45,45,47,27,30,109,,49,49,13,17,5,4,0.6,0.6
2025-04-30T1100,2476A,113.0348,25.7759,郴州市,市环保局,,46,46,52,26,26,115,,77,77,11,17,5,4,0.5,0.5
2025-04-30T1100,4252A,113.0138,25.8011,郴州市,好美居路49号,,,44,52,31,33,103,,49,49,15,24,,7,,0.7
2025-04-30T1100,1431A,103.9728,30.7236,成都市,金泉两河,,39,39,34,10,10,57,,20,20,20,23,5,2,0.8,0.7
2025-04-30T1100,1432A,104.176,30.6872,成都市,十里店,,,12,30,3,14,90,,35,35,,24,4,3,0.3,0.7
2025-04-30T1100,1433A,104.079,30.5706,成都市,三瓦窑,,44,44,35,6,16,80,,31,31,26,35,5,5,0.5,0.5
2025-04-30T1100,1434A,104.1114,30.63,成都市,沙河铺,,27,26,38,3,18,85,,32,32,12,19,7,6,0.5,0.5
2025-04-30T1100,1437A,104.0786,30.6531,成都市,君平街,,27,27,34,11,20,63,,28,28,20,29,8,7,0.7,0.6
2025-04-30T1100,1438A,103.613,31.0283,成都市,灵岩寺,,,,,,,,,,,,,,,,
2025-04-30T1100,2880A,104.0239,30.65639,成都市,大石西路,,29,29,40,14,21,74,,34,34,21,27,6,5,0.4,0.4
2025-04-30T1100,3136A,104.2725,30.5589,成都市,龙泉驿区区政府,,25,17,19,7,8,80,,48,48,11,14,4,4,0.6,0.6
2025-04-30T1100,3357A,104.0106,30.6931,成都市,金博路,,25,25,23,3,9,54,,28,28,23,23,9,7,0.4,0.4
2025-04-30T1100,3359A,104.0578,30.5225,成都市,华阳,,35,,30,24,26,89,,51,51,12,22,6,6,0.3,0.4
2025-04-30T1100,3488A,104.3853,30.7453,成都市,青白江技师分院,,31,19,27,6,10,98,,58,58,21,33,3,2,0.2,0.2
2025-04-30T1100,3489A,104.0789,30.4072,成都市,科学城,,23,16,29,9,18,72,,39,39,14,19,4,4,0.3,0.3
2025-04-30T1100,4011A,103.8506,30.6947,成都市,光华大道三段,,42,42,32,9,17,76,,32,32,16,21,4,2,0.6,0.6
2025-04-30T1100,4224A,104.2433,30.5353,成都市,鲸龙路1057号,,28,17,28,3,11,89,,36,36,20,30,4,4,0.5,0.5
2025-04-30T1100,1062A,117.9531,40.9081,承德市,铁路,,,21,49,3,17,83,,48,48,19,26,,7,0.3,0.4
2025-04-30T1100,1063A,117.9392,40.9763,承德市,中国银行,,29,13,50,3,17,91,,50,50,10,17,8,8,0.3,0.4
2025-04-30T1100,1064A,117.9503,40.928,承德市,开发区,,29,28,41,10,21,92,,50,50,15,22,8,9,0.3,0.5
2025-04-30T1100,1065A,117.8051,40.9655,承德市,文化中心,,38,38,72,12,31,79,,48,48,19,25,8,16,0.6,0.5
2025-04-30T1100,1066A,117.9268,41.0026,承德市,离宫,,32,6,40,6,24,100,,65,65,9,12,6,4,0.3,0.3
2025-04-30T1100,2314A,117.47,30.6618,池州市,池州学院,颗粒物(PM10),53,55,48,24,25,145,,105,105,10,16,9,7,0.6,0.6
2025-04-30T1100,3237A,117.4918,30.6617,池州市,展览馆,颗粒物(PM10),53,56,44,24,23,146,,104,104,9,17,8,7,0.5,0.6
2025-04-30T1100,3333A,117.5627,30.695,池州市,第八中学,颗粒物(PM10),53,55,50,23,23,147,,82,82,6,26,7,9,0.4,0.5
2025-04-30T1100,3334A,117.5038,30.6243,池州市,第十二中学,,,,48,,19,145,,109,109,7,20,5,6,,0.7
2025-04-30T1100,1744A,118.9233,42.2816,赤峰市,松山一中,,27,20,55,3,9,85,,63,63,14,17,10,10,0.4,0.4
2025-04-30T1100,1745A,118.9576,42.2728,赤峰市,哈达街,,28,23,49,3,10,87,,66,66,14,15,10,11,0.5,0.5
2025-04-30T1100,1746A,118.8788,42.2554,赤峰市,天义路,,27,20,48,9,17,84,,63,63,14,16,7,7,0.4,0.3
2025-04-30T1100,3058A,119.2658,42.0353,赤峰市,银河街,,,,52,,14,79,,60,60,8,10,,15,,0.3
2025-04-30T1100,3286A,118.9359,42.3147,赤峰市,桥北物流园区,,27,,46,9,15,85,,62,62,11,16,7,7,0.5,0.5
2025-04-30T1100,2521A,107.3476,22.4136,崇左市,市环保局江州分局,,42,42,37,25,21,92,,58,52,10,9,6,6,0.6,0.6
2025-04-30T1100,4256A,107.3750,22.3736,崇左市,石景林东路7号,,37,37,31,25,20,101,,64,64,6,9,5,4,0.6,0.6
2025-04-30T1100,2298A,118.3093,32.3153,滁州市,老年大学,颗粒物(PM10),54,57,57,31,29,156,,116,116,14,16,7,6,0.4,0.4
2025-04-30T1100,2299A,118.3244,32.2786,滁州市,人大宾馆,颗粒物(PM10),58,65,59,28,30,158,,93,93,24,27,12,12,0.4,0.4
2025-04-30T1100,3207A,118.3118,32.3038,滁州市,市政府原办公楼,颗粒物(PM10),55,60,51,33,31,154,,108,108,16,16,8,8,0.5,0.4
2025-04-30T1100,3331A,118.3267,32.2634,滁州市,图书馆,颗粒物(PM10),62,74,67,28,36,153,,94,94,13,20,12,13,0.6,0.6
2025-04-30T1100,2605A,101.5482,25.0441,楚雄彝族自治州,州环境监测站,,,,21,16,18,104,,100,97,,6,6,5,0.5,0.5
2025-04-30T1100,2606A,101.538,25.0492,楚雄彝族自治州,市经济开发区,,30,16,23,14,18,96,,100,95,10,8,7,6,0.5,0.5
2025-04-30T1100,2548A,107.5277,31.2827,达州市,达州职业技术学院,颗粒物(PM10),56,62,48,20,18,60,,17,17,17,25,6,5,0.6,0.5
2025-04-30T1100,2549A,107.5086,31.2186,达州市,市环境监测站,颗粒物(PM10),56,62,46,34,18,38,,9,9,37,30,6,5,0.5,0.3
2025-04-30T1100,2550A,107.4988,31.2132,达州市,凤凰小区,颗粒物(PM10),63,75,39,39,18,49,,19,19,33,29,8,7,0.4,0.4
2025-04-30T1100,2551A,107.5082,31.1986,达州市,达县机关宾馆,细颗粒物(PM2.5),63,73,40,45,20,42,,12,12,39,33,6,5,0.6,0.5
2025-04-30T1100,2552A,107.4644,31.2124,达州市,市政中心,,,,45,,14,64,,16,16,22,30,,2,0.3,0.4
2025-04-30T1100,2614A,100.1542,25.7054,大理白族自治州,大理市环境监测站,,36,33,30,25,24,106,,106,104,9,7,7,7,0.3,0.3
2025-04-30T1100,2615A,100.2171,25.5811,大理白族自治州,大理古城,,45,36,30,31,21,109,,93,92,8,8,8,8,0.7,0.6
2025-04-30T1100,1109A,121.612,38.9741,大连市,甘井子,颗粒物(PM10),69,88,77,42,38,145,,122,122,22,30,9,10,0.5,0.5
2025-04-30T1100,1110A,121.565,38.9511,大连市,周水子,颗粒物(PM10),67,84,89,34,35,138,,114,114,15,26,9,8,0.5,0.5
2025-04-30T1100,1111A,121.5637,38.8845,大连市,星海三站,颗粒物(PM10),62,74,67,43,40,160,,125,125,14,21,7,6,0.5,0.4
2025-04-30T1100,1112A,121.6302,38.9117,大连市,青泥洼桥,颗粒物(PM10),64,78,67,45,35,156,,126,126,11,17,8,9,0.7,0.6
2025-04-30T1100,1113A,121.6251,38.8638,大连市,傅家庄,,,81,68,40,35,163,,137,137,17,24,,12,,0.4
2025-04-30T1100,1114A,121.5213,38.8661,大连市,七贤岭,颗粒物(PM10),65,80,82,45,41,158,,123,123,14,24,9,7,0.9,0.8
2025-04-30T1100,1115A,121.2529,38.8061,大连市,旅顺,细颗粒物(PM2.5),64,75,59,46,38,115,,92,92,24,31,4,6,0.4,0.4
2025-04-30T1100,1116A,121.7485,39.1311,大连市,金州,臭氧1小时,65,47,82,38,39,172,,118,118,15,21,8,8,0.4,0.5
2025-04-30T1100,1117A,121.7811,39.0496,大连市,开发区,颗粒物(PM10),64,77,70,42,40,141,,98,98,22,30,5,6,0.9,0.9
2025-04-30T1100,1118A,121.9762,39.0631,大连市,双D港,颗粒物(PM10),61,72,66,34,35,148,,123,123,11,17,6,9,0.5,0.5
2025-04-30T1100,1789A,124.81117,46.03138,大庆市,大同区,,25,25,127,12,29,75,,65,65,3,8,4,5,0.3,0.4
2025-04-30T1100,1790A,125.129,46.533,大庆市,龙凤区,,25,8,76,3,21,77,,66,66,6,12,4,5,0.4,0.6
2025-04-30T1100,1791A,124.902,46.408,大庆市,红岗区,,25,15,84,6,23,80,,73,73,2,7,4,5,0.2,0.3
2025-04-30T1100,1792A,125.153,46.586,大庆市,萨尔图区,,,35,94,6,25,,,64,64,9,13,,7,0.6,0.5
2025-04-30T1100,1793A,124.9042,46.6215,大庆市,让胡路区,,24,19,79,6,24,74,,66,66,4,8,6,7,0.3,0.4
2025-04-30T1100,3481A,125.141,46.634,大庆市,萨区政府监测点,,26,23,95,3,15,81,,73,73,5,9,5,6,0.3,0.4
2025-04-30T1100,1721A,113.3819,40.1097,大同市,果树场,颗粒物(PM10),83,115,50,26,11,97,,57,57,7,23,5,9,0.2,0.3
2025-04-30T1100,1723A,113.2994,40.0758,大同市,云冈宾馆,颗粒物(PM10),89,128,55,22,12,103,,60,60,9,19,9,12,0.5,0.7
2025-04-30T1100,1724A,113.3444,40.0917,大同市,大同大学,颗粒物(PM10),74,97,44,14,11,89,,54,54,11,25,6,12,0.3,0.5
2025-04-30T1100,1725A,113.2661,40.1269,大同市,安家小村,颗粒物(PM10),97,143,59,22,10,97,,63,56,8,18,8,9,0.2,0.5
2025-04-30T1100,1726A,113.2711,40.0844,大同市,教育学院,颗粒物(PM10),73,96,54,15,15,95,,55,55,8,19,9,12,0.3,0.4
2025-04-30T1100,3282A,113.3397,40.0597,大同市,大同市卫生学校,颗粒物(PM10),61,71,42,17,11,95,,67,66,8,16,8,10,0.3,0.6
2025-04-30T1100,3565A,113.1367,40.1122,大同市,云冈站,颗粒物(PM10),66,81,69,26,21,98,,44,44,8,22,12,17,0.4,0.4
2025-04-30T1100,3566A,113.1186,40.2556,大同市,图书馆,,,75,46,29,15,78,,41,41,,10,,11,0.6,0.6
2025-04-30T1100,3567A,113.5931,40.0461,大同市,区一中,,,,,,,,,,,,,,,,
2025-04-30T1100,4199A,113.2798,40.0997,大同市,魏都大道141号,颗粒物(PM10),93,136,60,23,11,102,,65,65,10,19,13,16,0.4,0.6
2025-04-30T1100,2269A,124.1069,50.4097,大兴安岭地区,科技局,,23,22,57,12,29,72,,65,65,3,41,4,4,0.3,0.4
2025-04-30T1100,3663A,124.1164,50.4278,大兴安岭地区,红旗社区,,24,17,45,6,18,75,,65,65,2,5,4,6,0.3,0.4
2025-04-30T1100,1600A,124.3303,40.0625,丹东市,江湾东路,颗粒物(PM10),53,56,50,16,23,126,,110,110,10,10,9,9,0.5,0.5
2025-04-30T1100,1601A,124.4256,40.1503,丹东市,临江后街,颗粒物(PM10),80,109,76,24,26,122,,101,101,9,12,9,9,0.6,0.7
2025-04-30T1100,1602A,124.3933,40.1461,丹东市,元宝山,颗粒物(PM10),53,56,49,22,25,124,,114,114,11,10,11,10,0.6,0.6
2025-04-30T1100,1603A,124.3633,40.1092,丹东市,民主桥,颗粒物(PM10),58,65,55,18,21,127,,110,110,9,10,8,9,0.7,0.8
2025-04-30T1100,3541A,109.5726,19.5167,儋州市,第一中学子站,,21,14,17,11,9,65,,44,44,2,6,5,5,0.5,0.6
2025-04-30T1100,3542A,109.5567,19.5187,儋州市,东坡学校子站,,20,15,18,9,9,63,,46,44,2,6,4,5,0.6,0.7
2025-04-30T1100,2616A,98.5842,24.428,德宏傣族景颇族自治州,德宏州监测站,细颗粒物(PM2.5),103,,44,77,33,10,,28,17,34,14,10,8,,0.8
2025-04-30T1100,3677A,98.5881,24.4368,德宏傣族景颇族自治州,芒市人民政府综合楼,细颗粒物(PM2.5),64,72,62,46,30,26,,38,28,26,12,9,8,0.7,0.5
2025-04-30T1100,1901A,104.4239,31.1208,德阳市,东山公园,,,37,32,19,19,75,,45,44,,18,5,4,0.6,0.7
2025-04-30T1100,1902A,104.3826,31.1317,德阳市,西小区,颗粒物(PM10),55,60,43,26,21,69,,30,30,30,28,8,4,0.6,0.6
2025-04-30T1100,1904A,104.3553,31.1091,德阳市,耐火材料厂,颗粒物(PM10),54,58,44,36,24,74,,30,30,25,26,12,6,0.6,0.5
2025-04-30T1100,3639A,104.4019,31.1244,德阳市,市教育局,,48,48,37,24,22,78,,39,39,22,24,7,5,0.5,0.5
2025-04-30T1100,1622A,116.3032,37.4674,德州市,儿童乐园,颗粒物(PM10),73,95,83,39,30,73,,89,72,20,14,12,10,0.7,0.6
2025-04-30T1100,1624A,116.2991,37.4451,德州市,监理站,,,80,74,39,26,64,,80,62,20,15,20,18,,0.5
2025-04-30T1100,3066A,116.2721,37.4379,德州市,九衢泉纯净水厂,颗粒物(PM10),70,90,76,29,29,62,,74,56,22,18,10,9,0.9,0.7
2025-04-30T1100,3371A,116.3728,37.4403,德州市,开发区人民医院,颗粒物(PM10),73,95,89,27,24,61,,73,61,21,15,10,9,0.8,0.7
2025-04-30T1100,3372A,116.3572,37.4094,德州市,太阳城中学,颗粒物(PM10),68,85,82,36,41,77,,82,70,22,19,10,8,0.5,0.5
2025-04-30T1100,3511A,116.5652,37.3319,德州市,陵城艺术中心,颗粒物(PM10),75,100,80,39,25,82,,86,74,27,19,13,9,0.6,0.4
2025-04-30T1100,2621A,99.7056,27.8317,迪庆藏族自治州,迪庆州站,,34,34,42,19,22,106,,73,73,9,12,5,6,0.3,0.4
2025-04-30T1100,3180A,99.7136,27.8094,迪庆藏族自治州,质量技术监督局,,36,31,29,17,16,113,,80,80,9,11,4,5,0.5,0.5
2025-04-30T1100,4257A,104.6092,35.5962,定西市,将台街,颗粒物(PM10),230,371,82,99,31,99,,38,38,19,28,6,6,0.1,0.1
2025-04-30T1100,4309A,104.6159,35.5701,定西市,正龙路62号,颗粒物(PM10),256,389,80,68,28,100,,53,53,14,13,10,10,0.3,0.3
2025-04-30T1100,1389A,113.7547,23.0494,东莞市,莞城梨川,臭氧1小时,53,50,54,30,29,162,,153,152,19,22,6,6,0.7,0.6
2025-04-30T1100,1390A,113.7944,23.0128,东莞市,东城石井,臭氧1小时,75,50,45,27,23,180,,128,128,17,26,4,6,0.7,0.7
2025-04-30T1100,1391A,113.7383,22.9658,东莞市,南城西平,,,44,51,28,21,160,,126,126,,31,,3,0.5,0.5
2025-04-30T1100,3319A,113.7338,23.0381,东莞市,万江金泰,,49,49,47,26,25,149,,157,157,19,21,6,5,0.6,0.6
2025-04-30T1100,3626A,113.7533,23.0202,东莞市,南城元岭,颗粒物(PM10),51,52,48,31,23,154,,153,153,19,20,4,5,0.6,0.6
2025-04-30T1100,3627A,113.7875,23.0457,东莞市,东城主山,,,49,55,26,27,162,,134,129,18,30,5,5,,0.5
2025-04-30T1100,1666A,118.6614,37.4309,东营市,市环保局,颗粒物(PM10),65,80,68,24,19,122,,92,92,27,32,10,11,0.5,0.5
2025-04-30T1100,3036A,118.6904,37.4338,东营市,开发区管委会,颗粒物(PM10),73,96,87,22,21,124,,100,100,26,29,7,9,0.3,0.4
2025-04-30T1100,3365A,118.5719,37.565,东营市,垦利区民丰路,颗粒物(PM10),70,90,75,29,24,119,,105,105,29,28,8,7,0.8,0.7
2025-04-30T1100,3498A,118.5055,37.8612,东营市,河口城区,颗粒物(PM10),67,83,72,24,25,115,,100,100,28,26,13,10,0.8,0.8
2025-04-30T1100,3646A,118.4978,37.4623,东营市,胜利站,颗粒物(PM10),66,82,80,29,31,103,,92,91,37,31,15,12,1.0,0.8
2025-04-30T1100,3734A,118.35,37.26,东营市,理想之城,颗粒物(PM10),64,78,81,29,23,112,,80,80,28,32,11,8,0.7,0.6
2025-04-30T1100,1591A,110.0023,39.8129,鄂尔多斯市,综合楼,颗粒物(PM10),135,219,195,48,58,97,,99,96,12,15,4,2,0.4,0.3
2025-04-30T1100,1592A,109.9486,39.8261,鄂尔多斯市,巴音孟克林场办事处,颗粒物(PM10),113,175,188,34,56,60,,62,59,11,17,8,7,0.3,0.3
2025-04-30T1100,1593A,109.7736,39.5986,鄂尔多斯市,康泽苑,颗粒物(PM10),113,175,182,31,50,96,,98,98,7,8,11,8,0.3,0.2
2025-04-30T1100,1594A,109.8119,39.5989,鄂尔多斯市,华泰汽车城,颗粒物(PM10),120,190,192,39,50,,,87,87,10,12,7,6,0.3,0.2
2025-04-30T1100,1595A,109.9734,39.7884,鄂尔多斯市,奥林花园,颗粒物(PM10),133,215,181,27,38,91,,76,76,14,19,7,4,0.4,0.3
2025-04-30T1100,2436A,114.8938,30.3994,鄂州市,市政府,颗粒物(PM10),58,65,64,32,31,90,,85,80,16,18,9,12,0.7,0.9
2025-04-30T1100,2437A,114.8989,30.3714,鄂州市,赵家坝,,,65,60,28,23,102,,96,87,18,16,5,6,,0.8
2025-04-30T1100,3654A,114.8094,30.4089,鄂州市,精准医疗中心,颗粒物(PM10),59,68,55,26,27,106,,91,86,19,20,4,4,0.6,0.7
2025-04-30T1100,2454A,109.4978,30.2981,恩施土家族苗族自治州,湖北民院,,29,29,30,12,17,47,,31,31,10,9,4,4,0.2,0.3
2025-04-30T1100,2455A,109.4707,30.2798,恩施土家族苗族自治州,州电力总公司,,28,28,28,16,17,64,,38,38,9,13,4,4,0.0,0.1
2025-04-30T1100,3549A,109.5061,30.3772,恩施土家族苗族自治州,龙凤新区,,32,24,27,22,13,67,,47,47,30,33,6,6,0.5,0.5
2025-04-30T1100,2499A,108.3411,21.6158,防城港市,沙万,,36,36,55,18,28,77,,83,75,9,25,2,8,0.5,0.9
2025-04-30T1100,2500A,108.3514,21.7731,防城港市,防城档案局,,46,46,45,22,29,70,,80,67,13,13,3,5,0.7,0.9
2025-04-30T1100,2501A,108.3506,21.6414,防城港市,大海花园,,46,46,57,24,27,74,,96,87,22,17,16,10,1.8,0.8
2025-04-30T1100,1371A,113.1294,23.0067,佛山市,湾梁,颗粒物(PM10),57,63,50,26,23,135,,115,115,27,26,8,8,0.7,0.7
2025-04-30T1100,1372A,113.1083,23.0478,佛山市,华材职中,颗粒物(PM10),56,61,48,26,26,145,,126,126,23,23,8,8,0.5,0.6
2025-04-30T1100,1373A,113.144,23.0453,佛山市,南海气象局,,,65,52,22,26,122,,116,116,25,25,,8,,0.7
2025-04-30T1100,1374A,113.2881,22.8094,佛山市,顺德苏岗,颗粒物(PM10),57,64,46,29,20,128,,132,127,27,20,7,6,0.6,0.5
2025-04-30T1100,1376A,112.8383,22.8678,佛山市,高明孔堂,,47,47,42,27,20,129,,126,116,12,14,5,6,0.8,0.7
2025-04-30T1100,1377A,112.8836,23.1588,佛山市,三水监测站,细颗粒物(PM2.5),67,61,52,48,25,118,,71,71,27,42,6,5,0.6,0.6
2025-04-30T1100,1378A,112.867,23.185,佛山市,三水云东海,细颗粒物(PM2.5),60,67,52,43,29,125,,86,86,30,36,2,3,0.5,0.4
2025-04-30T1100,3625A,113.2544,22.7642,佛山市,容桂街道办,颗粒物(PM10),51,51,43,24,24,121,,138,127,25,27,6,6,0.7,0.7
2025-04-30T1100,1280A,119.3903,26.0543,福州市,鼓山,,,,34,,15,,,157,,,6,,1,,0.3
2025-04-30T1100,1282A,119.2681,26.0504,福州市,师大,,40,38,43,11,20,128,,96,96,10,16,4,4,0.4,0.4
2025-04-30T1100,1283A,119.2984,26.1028,福州市,五四北路,,40,40,41,21,20,116,,91,91,17,17,4,4,0.5,0.5
2025-04-30T1100,1284A,119.2648,26.0768,福州市,杨桥西路,,40,35,47,18,23,127,,88,88,10,16,4,4,0.3,0.3
2025-04-30T1100,1285A,119.317,26.0746,福州市,紫阳,,47,47,47,16,20,107,,92,92,30,21,6,6,0.3,0.4
2025-04-30T1100,3048A,119.5799,26.0936,福州市,九龙,,36,33,31,6,9,115,,80,80,9,15,5,4,0.3,0.2
2025-04-30T1100,3526A,119.5189,25.9664,福州市,吴航,,46,46,37,21,17,104,,56,56,23,21,6,4,0.4,0.4
2025-04-30T1100,1755A,123.7977,41.8491,抚顺市,望花区,颗粒物(PM10),63,75,88,41,46,137,,114,114,15,19,12,19,0.7,0.7
2025-04-30T1100,1756A,123.9161,41.8822,抚顺市,顺城区,颗粒物(PM10),57,64,73,30,32,132,,108,108,17,20,8,9,0.5,0.5
2025-04-30T1100,1757A,124.0436,41.8611,抚顺市,东洲区,颗粒物(PM10),55,60,64,31,32,132,,129,127,13,12,7,7,0.6,0.6
2025-04-30T1100,1758A,123.9247,41.8642,抚顺市,新抚区,颗粒物(PM10),63,75,75,23,28,126,,98,98,11,17,8,9,0.6,0.6
2025-04-30T1100,1759A,124.0972,41.8961,抚顺市,大伙房水库,颗粒物(PM10),51,52,57,31,31,133,,115,114,6,7,8,9,0.7,0.6
2025-04-30T1100,1760A,123.7086,41.8391,抚顺市,沈抚新城,颗粒物(PM10),65,79,81,40,41,129,,103,103,16,20,10,9,0.6,0.6
2025-04-30T1100,2376A,116.2127,28.0814,抚州市,桐源党溪,颗粒物(PM10),56,61,63,39,38,48,,55,44,2,3,6,7,0.5,0.5
2025-04-30T1100,2377A,116.3544,27.9831,抚州市,市站,颗粒物(PM10),56,62,62,28,31,47,,56,53,24,17,2,4,1.1,1.1
2025-04-30T1100,2378A,116.3565,27.963,抚州市,血防站,颗粒物(PM10),56,61,60,28,30,42,,53,52,23,14,3,3,0.8,0.8
2025-04-30T1100,2379A,116.3564,28.0007,抚州市,采茶剧团,颗粒物(PM10),55,60,60,27,30,48,,57,50,15,8,1,2,1.2,1.1
2025-04-30T1100,2380A,116.385,27.9647,抚州市,医学分院,颗粒物(PM10),53,56,55,24,27,52,,45,45,13,7,3,4,0.9,0.9
2025-04-30T1100,2207A,121.6094,41.998,阜新市,工业园区,,43,43,107,7,35,95,,81,81,10,25,32,15,0.3,0.7
2025-04-30T1100,2208A,121.6697,42.0279,阜新市,长青街,,29,27,79,8,28,90,,79,79,11,25,50,18,0.4,0.7
2025-04-30T1100,2209A,121.6673,42.0705,阜新市,农业园区,,,71,87,27,23,92,,81,81,,13,9,13,0.5,1.2
2025-04-30T1100,2210A,121.6717,42.0224,阜新市,东苑,,43,43,100,3,47,93,,82,82,9,25,65,48,0.4,0.7
2025-04-30T1100,2211A,121.6506,42.0498,阜新市,玉龙新城,,,33,92,10,33,95,,76,76,7,27,9,12,,0.8
2025-04-30T1100,2301A,115.8277,32.8929,阜阳市,市监测站,颗粒物(PM10),53,56,53,28,28,116,,133,122,8,13,8,8,0.2,0.3
2025-04-30T1100,2303A,115.8554,32.8605,阜阳市,开发区,,46,46,69,25,22,121,,132,121,9,14,7,7,0.1,0.2
2025-04-30T1100,2875A,115.784,32.8892,阜阳市,阜阳职业技术学院,,,51,56,26,26,127,,122,118,,12,,7,0.3,0.3
2025-04-30T1100,3468A,115.7901,32.8613,阜阳市,市规划展馆,颗粒物(PM10),63,76,68,19,25,123,,136,126,5,10,7,8,0.3,0.3
2025-04-30T1100,3469A,115.836,32.9183,阜阳市,枣园社区,,,,57,,23,120,,139,128,6,11,,10,0.2,0.3
2025-04-30T1100,2669A,102.9099,34.9841,甘南藏族自治州,州政府,,45,45,62,13,22,88,,37,37,5,24,3,3,0.2,0.4
2025-04-30T1100,3380A,102.8914,34.9617,甘南藏族自治州,甘肃民族师范学院,颗粒物(PM10),53,56,65,23,19,98,,28,28,8,29,9,8,0.4,0.4
2025-04-30T1100,2570A,101.9603,30.0475,甘孜藏族自治州,水桥子,,17,11,6,3,6,52,,33,24,23,21,4,4,0.6,0.4
2025-04-30T1100,3065A,101.9533,29.9972,甘孜藏族自治州,州环保局,,25,16,8,7,4,77,,33,31,17,21,1,1,0.4,0.3
2025-04-30T1100,3414A,115.8347,28.932,赣江新区,桑海产业园,颗粒物(PM10),74,97,92,47,47,36,,26,21,37,29,8,6,0.6,0.5
2025-04-30T1100,2362A,114.9017,25.9149,赣州市,通天岩,,42,42,47,14,9,108,,69,69,5,6,10,4,0.9,0.9
2025-04-30T1100,2363A,114.9367,25.8664,赣州市,地委,颗粒物(PM10),51,52,54,33,32,90,,40,40,18,20,9,6,1.3,1.2
2025-04-30T1100,2364A,114.9461,25.8481,赣州市,气象台,,,46,58,27,28,79,,33,33,,32,14,11,0.3,0.4
2025-04-30T1100,2365A,114.9322,25.8333,赣州市,市图书馆,,48,44,58,33,32,84,,35,35,12,30,11,5,0.5,0.6
2025-04-30T1100,2366A,114.8905,25.8471,赣州市,华坚鞋城,颗粒物(PM10),58,66,64,27,33,90,,43,43,20,30,11,9,0.6,0.7
2025-04-30T1100,3109A,115.0093,25.8613,赣州市,赣县区卫计委,颗粒物(PM10),54,57,48,31,28,67,,31,31,28,17,7,4,1.0,0.8
2025-04-30T1100,2683A,106.2319,36.1417,固原市,马园,颗粒物(PM10),500,730,210,101,46,107,,52,52,4,29,4,5,0.5,0.5
2025-04-30T1100,2684A,106.2792,36.0022,固原市,监测站,颗粒物(PM10),451,551,238,115,60,101,,100,100,4,13,5,5,0.2,0.3
2025-04-30T1100,2685A,106.2375,36.0211,固原市,新区,颗粒物(PM10),444,544,217,85,46,99,,98,98,4,12,5,5,0.2,0.2
2025-04-30T1100,3522A,106.2177,35.9959,固原市,原州区十五小,颗粒物(PM10),457,557,217,117,56,102,,106,103,4,8,7,6,0.2,0.2
2025-04-30T1100,2543A,106.6308,30.5278,广安市,小平旧居,,,,,,,,,,,,,,,,
2025-04-30T1100,2544A,106.6303,30.4576,广安市,市委,,36,36,39,11,18,90,,48,48,7,10,3,3,0.3,0.3
2025-04-30T1100,2545A,106.6271,30.4663,广安市,友谊中学,,,35,32,16,15,94,,43,43,,11,4,3,0.5,0.6
2025-04-30T1100,2547A,106.6388,30.4551,广安市,广电花园,,40,30,30,28,27,91,,44,44,8,12,5,4,0.2,0.2
2025-04-30T1100,2902A,106.6351,30.4865,广安市,北辰小学,,41,41,38,16,16,75,,34,34,18,12,4,4,0.4,0.4
2025-04-30T1100,2523A,105.8945,32.4535,广元市,黑石坡,,48,48,42,3,14,83,,74,63,16,14,9,7,0.3,0.3
2025-04-30T1100,2524A,105.821,32.4444,广元市,老城,细颗粒物(PM2.5),83,,38,61,18,82,,40,36,18,19,14,6,0.9,0.5
2025-04-30T1100,2526A,105.8628,32.4287,广元市,监测站,,35,35,35,10,17,84,,54,53,18,14,12,10,0.6,0.5
2025-04-30T1100,3617A,105.8047,32.4166,广元市,经开区,颗粒物(PM10),63,75,45,43,24,79,,45,45,25,21,59,14,1.4,0.7
2025-04-30T1100,1345A,113.2347,23.1423,广州市,广雅中学,,50,50,53,21,27,127,,124,118,15,16,4,4,1.0,0.9
2025-04-30T1100,1346A,113.2612,23.105,广州市,市五中,,,,50,,28,126,,118,114,,19,3,3,,0.9
2025-04-30T1100,1348A,113.3478,23.0916,广州市,广东商学院,,46,44,53,22,27,145,,99,99,23,36,4,5,0.7,0.6
2025-04-30T1100,1349A,113.4332,23.1047,广州市,市八十六中,,49,40,57,20,27,155,,86,86,20,48,4,5,0.6,0.7
2025-04-30T1100,1350A,113.3505,22.9483,广州市,番禺中学,颗粒物(PM10),52,53,50,24,27,137,,131,126,23,23,6,6,0.7,0.7
2025-04-30T1100,1351A,113.2146,23.3916,广州市,花都师范,细颗粒物(PM2.5),64,75,58,46,29,110,,65,65,47,39,7,6,0.7,0.6
2025-04-30T1100,1352A,113.2597,23.1331,广州市,市监测站,,46,46,49,24,25,110,,98,97,22,23,6,6,0.6,0.6
2025-04-30T1100,1353A,113.5618,23.312,广州市,九龙镇镇龙,颗粒物(PM10),67,84,56,45,30,142,,80,80,37,33,9,7,0.6,0.5
2025-04-30T1100,1354A,113.2765,23.1544,广州市,麓湖,,48,48,50,29,29,138,,98,98,25,30,6,6,0.7,0.6
2025-04-30T1100,1355A,113.443,23.3035,广州市,帽峰山森林公园,,,62,45,,4,134,,95,95,35,21,11,8,0.7,0.6
2025-04-30T1100,2846A,113.3221,23.1322,广州市,体育西,颗粒物(PM10),52,53,60,27,29,136,,98,98,26,33,5,6,0.6,0.6
2025-04-30T1100,3298A,113.5717,23.5491,广州市,从化街口,臭氧1小时,53,47,50,28,28,162,,67,67,14,28,8,6,0.7,0.7
2025-04-30T1100,3299A,113.3472,23.3692,广州市,白云竹料,颗粒物(PM10),66,82,60,38,31,134,,83,83,38,33,7,4,0.7,0.6
2025-04-30T1100,3300A,113.2981,23.237,广州市,白云嘉禾,颗粒物(PM10),52,54,61,30,32,136,,62,62,34,47,7,7,0.8,0.7
2025-04-30T1100,3301A,113.4256,23.1716,广州市,黄埔科学城,,41,38,54,23,29,131,,58,58,21,34,3,3,0.5,0.6
2025-04-30T1100,3302A,113.3942,23.0483,广州市,番禺大学城,,49,49,52,18,26,144,,107,107,21,34,7,8,0.6,0.7
2025-04-30T1100,3303A,113.4922,22.8168,广州市,南沙黄阁,颗粒物(PM10),52,54,54,28,26,137,,107,107,17,29,5,6,0.8,0.8
2025-04-30T1100,3304A,113.5342,22.7896,广州市,南沙街,,48,48,47,30,24,152,,136,136,20,22,6,6,0.6,0.6
2025-04-30T1100,3443A,113.2902,23.5544,广州市,花都梯面,颗粒物(PM10),60,69,49,41,30,132,,54,54,37,30,9,5,0.7,0.6
2025-04-30T1100,3445A,113.7858,23.7478,广州市,从化良口,,38,36,35,26,24,117,,66,66,9,9,7,7,0.3,0.3
2025-04-30T1100,3446A,113.8051,23.2614,广州市,增城荔城,臭氧1小时,80,63,57,38,25,184,,100,100,17,21,8,8,0.4,0.4
2025-04-30T1100,2505A,109.568,23.1478,贵港市,德智高中,,,,,,,,,,,,,,,,
2025-04-30T1100,2506A,109.6047,23.0666,贵港市,江南子站,,,63,44,31,27,88,,77,77,,13,5,4,0.7,0.7
2025-04-30T1100,2508A,109.5669,23.1065,贵港市,荷城子站,颗粒物(PM10),52,54,46,24,21,85,,73,73,14,15,9,9,0.4,0.5
2025-04-30T1100,3405A,109.5886,23.1172,贵港市,新世纪学校,,44,44,41,26,25,91,,83,83,18,19,5,7,0.6,0.7
2025-04-30T1100,4260A,109.5933,23.0951,贵港市,中山路155-3号,,50,41,46,35,28,91,,83,83,16,15,4,4,0.6,0.6
2025-04-30T1100,1439A,106.6899,26.5998,贵阳市,马鞍山,,,9,14,3,7,58,,59,59,14,11,4,3,,0.4
2025-04-30T1100,1441A,106.6243,26.6266,贵阳市,鉴湖路,,19,19,22,3,7,54,,67,62,15,10,6,6,0.3,0.3
2025-04-30T1100,1442A,106.7487,26.6343,贵阳市,燕子冲,,20,7,18,7,14,62,,71,63,24,16,2,3,0.3,0.3
2025-04-30T1100,1443A,106.6555,26.4365,贵阳市,碧云窝,,20,17,25,3,7,64,,73,70,13,11,4,5,0.4,0.3
2025-04-30T1100,1445A,106.7109,26.6027,贵阳市,红边门,,,9,19,7,12,,,80,76,10,9,,3,0.1,0.2
2025-04-30T1100,1446A,106.7164,26.5699,贵阳市,新华路,,25,17,19,3,12,79,,83,78,18,12,4,8,0.4,0.4
2025-04-30T1100,1447A,106.674,26.5424,贵阳市,太慈桥,,19,12,18,3,7,58,,80,74,17,13,4,5,0.2,0.2
2025-04-30T1100,1552A,106.805,26.3003,贵阳市,桐木岭,,27,27,32,12,16,76,,93,87,9,3,3,2,0.7,0.7
2025-04-30T1100,4230A,106.6882,26.5695,贵阳市,花果园大街66号,,21,7,14,7,9,66,,75,72,19,13,4,4,0.2,0.2
2025-04-30T1100,4231A,106.6873,26.5169,贵阳市,漓江路57号,,20,7,16,3,8,64,,77,73,16,11,8,9,0.3,0.3
2025-04-30T1100,1862A,110.4144,25.3167,桂林市,电子科大尧山校区,,,,,,,,,,,,,,,,
2025-04-30T1100,1864A,110.3089,25.2708,桂林市,龙隐路小学,细颗粒物(PM2.5),72,68,54,52,41,39,,46,46,25,14,31,28,1.0,0.7
2025-04-30T1100,1865A,110.2869,25.2178,桂林市,八中,颗粒物(PM10),60,70,50,42,31,46,,38,35,28,18,27,4,1.0,0.6
2025-04-30T1100,3531A,110.296,25.1253,桂林市,旅游学院,颗粒物(PM10),53,56,35,36,25,53,,31,31,22,17,8,3,0.8,0.7
2025-04-30T1100,4222A,110.1835,25.2444,桂林市,环湖路276号,细颗粒物(PM2.5),55,56,65,39,45,61,,28,28,19,26,38,41,0.6,0.6
2025-04-30T1100,4301A,110.2803,25.2773,桂林市,信义路13号,,,83,58,53,40,30,,43,39,34,21,,17,1.1,0.7
2025-04-30T1100,2674A,100.2561,34.4714,果洛藏族自治州,玛沁县大武镇,,43,43,71,20,23,110,,56,56,4,5,24,23,0.4,0.4
2025-04-30T1100,1129A,126.5422,45.755,哈尔滨市,岭北,,30,25,42,11,23,93,,69,69,11,16,10,10,0.7,0.8
2025-04-30T1100,1130A,126.561,45.8167,哈尔滨市,松北商大,,,67,48,15,20,,,50,50,12,14,,5,0.4,0.6
2025-04-30T1100,1131A,126.979,45.5419,哈尔滨市,阿城会宁,颗粒物(PM10),64,78,56,37,26,99,,48,48,20,18,16,13,0.6,0.5
2025-04-30T1100,1132A,126.599,45.7222,哈尔滨市,南岗学府路,,30,30,62,9,21,84,,63,63,11,14,7,8,0.3,0.3
2025-04-30T1100,1133A,126.689,45.7733,哈尔滨市,太平宏伟公园,,29,29,53,12,21,90,,64,64,14,17,5,5,0.5,0.5
2025-04-30T1100,1134A,126.635,45.7667,哈尔滨市,道外承德广场,,25,17,40,12,27,80,,55,55,12,16,6,6,0.5,0.5
2025-04-30T1100,1135A,126.685,45.7319,哈尔滨市,香坊红旗大街,,,34,62,9,20,,,49,48,16,20,7,8,,0.5
2025-04-30T1100,1136A,126.6411,45.7258,哈尔滨市,动力和平路,,28,28,51,8,24,79,,55,55,16,19,6,7,0.3,0.4
2025-04-30T1100,1137A,126.593,45.7478,哈尔滨市,道里建国路,,,,52,,25,,,52,52,14,19,10,12,0.3,0.6
2025-04-30T1100,1138A,126.615,45.61,哈尔滨市,平房东轻厂,,42,42,57,13,29,92,,57,57,11,17,10,11,0.4,0.4
2025-04-30T1100,1139A,126.595,45.9855,哈尔滨市,呼兰师专,,,39,55,19,27,,,46,46,13,22,8,7,,0.2
2025-04-30T1100,1140A,126.6206,45.6842,哈尔滨市,省农科院,,27,25,68,14,28,85,,48,48,10,23,5,8,0.4,0.5
2025-04-30T1100,2688A,93.5128,42.8172,哈密市,地区监测站,,,,61,,25,,,,,,23,,5,,0.3
2025-04-30T1100,2689A,93.4961,42.8328,哈密市,哈密师范学校,,37,37,48,15,22,71,,41,41,16,27,7,5,0.4,0.5
2025-04-30T1100,2671A,100.9048,36.9639,海北藏族自治州,海晏县西海镇,,39,39,25,21,17,109,,87,87,1,4,9,9,0.4,0.4
2025-04-30T1100,3867A,102.0738,36.5056,海东市,平安区公安北苑,颗粒物(PM10),53,55,34,19,13,86,,55,55,16,14,13,7,1.0,0.8
2025-04-30T1100,1409A,110.576,19.9507,海口市,东寨港,,31,31,54,14,19,96,,75,75,3,4,3,3,0.8,0.9
2025-04-30T1100,1410A,110.3232,20.0574,海口市,海南大学,,33,33,31,17,18,94,,81,81,7,7,2,2,0.4,0.5
2025-04-30T1100,1411A,110.283,20.0053,海口市,秀英海南医院,,30,28,32,17,21,94,,83,83,8,8,4,5,0.4,0.4
2025-04-30T1100,1412A,110.338,19.9969,海口市,海南师范大学,,33,33,33,17,20,102,,85,85,8,9,3,4,0.5,0.5
2025-04-30T1100,1413A,110.33,20.0356,海口市,龙华路环保局宿舍,,,,33,,19,95,,87,87,,8,,4,0.4,0.4
2025-04-30T1100,3539A,110.5111,19.9736,海口市,桂林洋子站,,32,32,35,15,18,102,,83,83,6,9,3,4,0.0,0.3
2025-04-30T1100,2673A,100.6188,36.2866,海南藏族自治州,共和县恰卜恰镇,,,66,50,40,22,,,51,51,2,20,13,14,0.2,0.4
2025-04-30T1100,2676A,97.3731,37.3753,海西蒙古族藏族自治州,德令哈市,,39,34,54,15,19,123,,94,94,2,6,15,15,0.4,0.5
2025-04-30T1100,1048A,114.5302,36.6116,邯郸市,东污水处理厂,颗粒物(PM10),90,129,65,17,10,73,,75,75,40,23,13,10,0.9,0.6
2025-04-30T1100,1049A,114.4918,36.5713,邯郸市,矿院,,,119,60,53,15,,,51,51,20,21,10,10,0.5,0.5
2025-04-30T1100,1050A,114.484,36.6133,邯郸市,丛台公园,颗粒物(PM10),93,136,62,45,17,101,,87,87,17,19,7,8,1.0,0.7
2025-04-30T1100,3458A,114.7895,36.5593,邯郸市,香泉濮院小区,颗粒物(PM10),83,115,81,16,14,72,,63,58,25,18,8,7,0.6,0.7
2025-04-30T1100,3579A,114.50634,36.77178,邯郸市,永年区实验高中,颗粒物(PM10),100,149,84,44,24,72,,76,76,30,19,16,14,1.3,0.9
2025-04-30T1100,3580A,114.20016,36.44293,邯郸市,峰峰矿区临水派出所,颗粒物(PM10),90,130,56,54,19,113,,113,113,4,11,9,11,0.6,0.7
2025-04-30T1100,2634A,106.9893,33.1842,汉中市,汉川机床厂子校,,42,42,41,21,25,104,,80,80,6,10,8,9,0.5,0.7
2025-04-30T1100,2635A,107.0154,33.0706,汉中市,市监测站,,46,46,48,20,22,101,,74,74,8,13,6,7,0.7,0.7
2025-04-30T1100,2636A,107.0089,33.1138,汉中市,鑫源开发区,,46,46,46,15,19,108,,81,76,10,17,9,14,0.8,0.9
2025-04-30T1100,2637A,107.007,33.0323,汉中市,南郑大河坎水厂,,40,40,48,18,24,99,,59,59,10,20,3,6,0.6,0.6
2025-04-30T1100,1223A,120.2072,30.2111,杭州市,滨江,颗粒物(PM10),56,62,64,28,31,163,,112,112,20,30,7,8,0.6,0.6
2025-04-30T1100,1224A,120.0633,30.2747,杭州市,西溪,颗粒物(PM10),54,57,57,33,38,152,,51,51,14,31,6,6,0.5,0.6
2025-04-30T1100,1226A,120.3417,30.3150,杭州市,下沙,颗粒物(PM10),60,70,61,36,30,154,,117,117,28,38,10,10,0.5,0.5
2025-04-30T1100,1227A,120.1269,30.2456,杭州市,卧龙桥,"颗粒物(PM10),细颗粒物(PM2.5)",58,66,63,41,34,152,,67,67,21,27,7,7,0.8,0.7
2025-04-30T1100,1228A,120.1903,30.2692,杭州市,浙江农大,,50,50,66,30,39,151,,92,92,24,46,6,6,0.5,0.5
2025-04-30T1100,1230A,120.1197,30.3119,杭州市,和睦小学,细颗粒物(PM2.5),57,59,58,40,34,146,,86,86,21,31,8,8,0.7,0.6
2025-04-30T1100,1231A,120.3019,30.4183,杭州市,临平镇,颗粒物(PM10),66,82,70,36,31,160,,92,92,24,41,7,7,0.7,0.6
2025-04-30T1100,1232A,120.2753,30.1839,杭州市,城厢镇,颗粒物(PM10),56,61,59,34,32,156,,111,111,27,34,10,9,0.5,0.5
2025-04-30T1100,1233A,120.0883,30.1808,杭州市,云栖,细颗粒物(PM2.5),62,69,58,44,34,147,,54,54,34,39,7,6,0.8,0.7
2025-04-30T1100,3557A,119.9464,30.0494,杭州市,镇二中,细颗粒物(PM2.5),57,54,52,40,37,153,,75,75,24,37,5,4,0.7,0.6
2025-04-30T1100,3558A,119.7183,30.2367,杭州市,市府大楼,,50,50,58,33,38,134,,70,70,16,23,8,8,0.5,0.6
2025-04-30T1100,3656A,120.1556,30.2864,杭州市,消防大队,,,,60,,33,156,,86,86,,38,,5,0.8,0.8
2025-04-30T1100,1270A,117.1959,31.7848,合肥市,明珠广场,,46,46,48,17,22,139,,85,85,12,27,6,6,0.3,0.4
2025-04-30T1100,1271A,117.3072,31.8764,合肥市,三里街,颗粒物(PM10),53,56,54,19,22,127,,58,58,24,41,6,6,0.4,0.5
2025-04-30T1100,1272A,117.2588,31.8707,合肥市,琥珀山庄,颗粒物(PM10),52,53,52,21,21,141,,92,92,18,25,4,4,0.5,0.5
2025-04-30T1100,1273A,117.1604,31.9052,合肥市,董铺水库,颗粒物(PM10),60,70,49,19,17,128,,88,88,10,15,1,1,0.3,0.4
2025-04-30T1100,1274A,117.25,31.8571,合肥市,长江中路,颗粒物(PM10),54,58,52,21,25,138,,96,96,14,23,9,9,0.5,0.5
2025-04-30T1100,1275A,117.266,31.9436,合肥市,庐阳区,颗粒物(PM10),56,61,50,17,19,142,,99,99,14,20,7,7,0.3,0.3
2025-04-30T1100,1276A,117.3453,31.8616,合肥市,瑶海区,颗粒物(PM10),60,70,62,24,23,124,,71,71,29,38,6,7,0.4,0.4
2025-04-30T1100,1277A,117.3027,31.7964,合肥市,包河区,颗粒物(PM10),81,112,55,27,24,139,,82,82,15,20,7,7,0.4,0.4
2025-04-30T1100,1278A,117.2776,31.7385,合肥市,滨湖新区,颗粒物(PM10),51,51,54,27,29,130,,73,73,9,21,8,8,0.5,0.5
2025-04-30T1100,1279A,117.1318,31.8403,合肥市,高新区,颗粒物(PM10),51,51,48,22,20,134,,103,103,12,19,3,3,0.4,0.4
2025-04-30T1100,3464A,117.3803,31.9147,合肥市,高教基地,颗粒物(PM10),60,70,52,23,19,144,,91,91,15,15,6,6,0.4,0.4
2025-04-30T1100,3614A,79.924,37.0877,和田地区,地区环保局,颗粒物(PM10),134,217,145,49,39,64,,68,68,19,13,3,2,0.3,0.2
2025-04-30T1100,3615A,79.9131,37.113,和田地区,市环保局,颗粒物(PM10),110,170,145,55,62,62,,58,58,26,29,1,3,0.4,0.4
2025-04-30T1100,2516A,108.2011,24.715,河池市,东仁乐园,,,,,,,,,,,,,,,,
2025-04-30T1100,2517A,108.0497,24.6947,河池市,市环保站,,44,44,47,25,28,63,,54,54,9,16,6,9,0.5,0.6
2025-04-30T1100,2518A,108.0983,24.6989,河池市,市疾控中心,,,,52,27,32,65,,67,67,9,31,8,10,,0.6
2025-04-30T1100,1696A,114.6778,23.7569,河源市,源西,颗粒物(PM10),52,54,42,32,47,120,,81,73,16,20,6,4,0.8,0.7
2025-04-30T1100,1697A,114.6944,23.7586,河源市,东埔,颗粒物(PM10),78,105,46,28,26,135,,110,107,22,16,8,6,0.6,0.7
2025-04-30T1100,1698A,114.6892,23.7233,河源市,老城,颗粒物(PM10),59,67,44,29,27,126,,96,92,22,16,6,6,0.5,0.5
2025-04-30T1100,1718A,115.4208,35.2464,菏泽市,气象局,,,,83,,33,122,,82,81,,14,6,5,0.4,0.4
2025-04-30T1100,3374A,115.5564,35.0891,菏泽市,定陶老年大学,颗粒物(PM10),80,110,67,31,24,119,,82,82,12,14,7,8,0.4,0.5
2025-04-30T1100,4184A,115.4797,35.24401,菏泽市,永昌路1号,颗粒物(PM10),72,94,74,30,29,119,,85,85,15,15,7,7,0.3,0.3
2025-04-30T1100,4193A,115.4715,35.2800,菏泽市,长城路999号,颗粒物(PM10),76,101,70,35,24,119,,86,85,19,18,11,9,0.3,0.3
2025-04-30T1100,2514A,111.5264,24.4172,贺州市,环保小区,颗粒物(PM10),55,60,46,31,28,101,,66,66,24,16,11,9,0.8,0.7
2025-04-30T1100,2515A,111.5608,24.4078,贺州市,政协大楼,颗粒物(PM10),53,56,44,22,27,116,,72,72,17,16,11,10,0.7,0.6
2025-04-30T1100,3534A,111.4744,24.4553,贺州市,西湾,颗粒物(PM10),53,56,56,36,35,102,,54,54,22,22,10,9,0.7,0.7
2025-04-30T1100,2385A,114.17,35.9019,鹤壁市,市监测站,颗粒物(PM10),88,125,61,37,22,118,,124,118,6,10,3,8,0.4,0.4
2025-04-30T1100,2386A,114.2956,35.7511,鹤壁市,市交警支队,颗粒物(PM10),69,87,79,19,19,63,,28,25,48,41,10,10,0.9,0.7
2025-04-30T1100,2387A,114.2878,35.7306,鹤壁市,迎宾馆,颗粒物(PM10),85,119,89,12,17,71,,32,32,33,31,9,6,0.7,0.6
2025-04-30T1100,3474A,114.2617,35.6822,鹤壁市,大新区,颗粒物(PM10),75,100,84,35,27,68,,40,40,35,39,14,12,0.7,0.5
2025-04-30T1100,3596A,114.1572,35.9603,鹤壁市,南山宾馆,颗粒物(PM10),83,115,73,38,23,130,,130,126,4,8,6,7,0.5,0.5
2025-04-30T1100,2244A,130.2537,47.3416,鹤岗市,哈啤分公司,,36,,16,25,14,56,,52,50,10,7,15,15,0.3,0.3
2025-04-30T1100,2245A,130.2684,47.3086,鹤岗市,斯达机电,,31,31,21,20,15,63,,52,51,7,5,12,12,0.2,0.2
2025-04-30T1100,2246A,130.3114,47.3388,鹤岗市,东山纸板厂,,,,43,30,20,61,,55,54,,11,13,12,0.2,0.2
2025-04-30T1100,2247A,130.1097,47.3382,鹤岗市,五号水库,,,,,,,,,,,,,,,,
2025-04-30T1100,2263A,127.4833,50.2524,黑河市,交通局,,43,43,37,16,24,89,,73,72,8,7,7,7,0.4,0.4
2025-04-30T1100,2264A,127.5144,50.2341,黑河市,环保局,,,38,30,24,28,,,76,71,8,7,4,3,,0.3
2025-04-30T1100,2265A,127.5291,50.2472,黑河市,大黑河岛,细颗粒物(PM2.5),53,44,34,37,22,86,,84,81,6,6,1,2,0.3,0.3
2025-04-30T1100,1074A,115.6838,37.7541,衡水市,电机北厂,颗粒物(PM10),79,108,88,30,30,96,,70,58,31,20,10,7,0.6,0.5
2025-04-30T1100,1075A,115.6303,37.7316,衡水市,市监测站,,,100,76,19,22,117,,72,61,26,19,15,13,,0.4
2025-04-30T1100,3188A,115.6683,37.7217,衡水市,市城管局,颗粒物(PM10),81,112,79,39,27,86,,71,59,38,20,12,10,0.7,0.5
2025-04-30T1100,3459A,115.5989,37.5491,衡水市,地表水厂,颗粒物(PM10),80,110,82,40,26,76,,60,49,36,22,17,12,0.8,0.5
2025-04-30T1100,2456A,112.5003,26.9167,衡阳市,原169医院,,38,37,55,26,34,102,,82,82,8,17,7,7,0.5,0.7
2025-04-30T1100,2457A,112.6194,26.9258,衡阳市,衡阳化工总厂,颗粒物(PM10),54,57,75,30,40,78,,78,73,12,11,8,9,0.7,0.8
2025-04-30T1100,2458A,112.6211,26.8956,衡阳市,珠晖区环保局,颗粒物(PM10),53,55,67,28,37,88,,76,75,8,14,12,9,0.6,0.7
2025-04-30T1100,2459A,112.6197,26.8733,衡阳市,市委党校,颗粒物(PM10),52,53,65,26,30,83,,84,81,14,11,9,4,0.3,0.4
2025-04-30T1100,2460A,112.6006,26.8919,衡阳市,市监测站,,,,69,,42,80,,83,79,,15,12,11,,0.8
2025-04-30T1100,2461A,112.5664,26.9056,衡阳市,真空机电公司,颗粒物(PM10),55,60,73,29,39,83,,82,79,8,17,5,5,0.6,0.9
2025-04-30T1100,3399A,112.6703,26.882,衡阳市,师范学院,,45,45,67,23,38,86,,89,84,12,13,10,8,0.6,0.8
2025-04-30T1100,2608A,103.3772,23.3993,红河哈尼族彝族自治州,污水处理厂,,35,21,25,18,22,111,,94,94,8,9,6,6,0.5,0.5
2025-04-30T1100,2609A,103.3861,23.35,红河哈尼族彝族自治州,监测站,,39,39,35,21,21,106,,96,96,7,8,20,7,0.3,0.3
2025-04-30T1100,3038A,103.3758,23.368,红河哈尼族彝族自治州,州图书馆,,35,24,23,24,20,94,,89,89,8,8,10,2,0.4,0.4
2025-04-30T1100,1090A,111.6507,40.7517,呼和浩特市,呼市一监,,29,19,47,3,12,92,,91,89,4,7,3,5,0.4,0.4
2025-04-30T1100,1091A,111.6572,40.8033,呼和浩特市,小召,,27,14,42,3,8,84,,85,84,15,16,6,7,0.4,0.3
2025-04-30T1100,1094A,111.7516,40.8369,呼和浩特市,如意水处理厂,,29,10,33,9,9,92,,83,82,11,11,6,7,0.3,0.3
2025-04-30T1100,1095A,111.7276,40.8062,呼和浩特市,二十九中,,44,44,40,3,14,98,,85,85,4,7,4,4,0.3,0.3
2025-04-30T1100,1096A,111.5512,40.7866,呼和浩特市,工大金川校区,,,45,48,3,13,90,,86,82,,14,5,6,,0.4
2025-04-30T1100,1097A,111.717,40.7612,呼和浩特市,化肥厂生活区,,,,36,,11,98,,81,81,,14,,9,0.3,0.3
2025-04-30T1100,3698A,111.5968,40.8178,呼和浩特市,红旗小学,,30,6,45,3,9,94,,103,99,17,13,4,4,0.4,0.3
2025-04-30T1100,3699A,111.6518,40.8389,呼和浩特市,海东办,,29,7,37,3,10,90,,84,84,9,10,6,7,0.4,0.4
2025-04-30T1100,2192A,119.7594,49.2261,呼伦贝尔市,区环保局,,39,31,36,27,25,66,,70,66,9,6,6,6,0.3,0.3
2025-04-30T1100,3061A,119.7512,49.1577,呼伦贝尔市,国华电力东,,25,23,34,17,16,71,,70,69,5,5,4,4,0.2,0.2
2025-04-30T1100,1250A,120.0751,30.8669,湖州市,城西水厂,颗粒物(PM10),55,60,75,34,39,157,,70,70,26,36,8,8,0.5,0.6
2025-04-30T1100,2873A,120.0830,30.8929,湖州市,仁皇山新区,细颗粒物(PM2.5),63,67,71,45,36,158,,66,66,29,38,6,7,0.9,0.8
2025-04-30T1100,2907A,120.1844,30.8596,湖州市,吴兴区站,,,,54,36,31,164,,62,62,20,34,8,8,0.6,0.5
2025-04-30T1100,3562A,120.4148,30.8538,湖州市,南浔区站,"颗粒物(PM10),细颗粒物(PM2.5)",69,88,56,50,29,164,,79,79,24,33,4,6,0.7,0.6
2025-04-30T1100,1607A,120.9049,40.7211,葫芦岛市,龙港区,,41,41,103,12,70,74,,61,61,21,29,14,17,0.6,0.8
2025-04-30T1100,1608A,120.8392,40.7514,葫芦岛市,化工街,颗粒物(PM10),56,61,108,19,53,74,,66,66,19,36,16,19,0.6,0.9
2025-04-30T1100,1609A,120.8341,40.7073,葫芦岛市,新区,,,,90,11,67,,,66,61,21,29,11,11,,0.9
2025-04-30T1100,1610A,120.8695,40.7677,葫芦岛市,东城区,,46,46,76,9,76,73,,62,62,14,36,9,10,0.6,0.8
2025-04-30T1100,2482A,109.5981,27.5721,怀化市,林科所,,,46,42,11,26,,,90,76,21,8,4,9,0.6,0.6
2025-04-30T1100,2483A,109.9453,27.5444,怀化市,河西地税局,,37,37,42,22,27,47,,84,69,21,10,3,4,0.5,0.5
2025-04-30T1100,2484A,109.9781,27.5342,怀化市,市四医院,,42,42,45,23,27,69,,91,81,13,7,6,6,0.5,0.5
2025-04-30T1100,2485A,109.9972,27.5578,怀化市,监测楼,,44,44,44,22,26,72,,93,78,11,8,1,2,0.3,0.3
2025-04-30T1100,2486A,110.0394,27.583,怀化市,市委党校,,38,36,43,26,26,67,,78,66,10,7,5,6,0.6,0.6
2025-04-30T1100,1210A,119.036,33.5981,淮安市,钵池山,,,75,61,36,31,169,,104,104,,19,12,12,,0.5
2025-04-30T1100,1211A,119.007,33.575,淮安市,北京南路,臭氧1小时,77,75,65,28,34,181,,105,105,12,26,11,15,0.5,0.6
2025-04-30T1100,1212A,118.989,33.6067,淮安市,市监测站,臭氧1小时,68,70,64,31,39,174,,103,103,13,26,12,17,0.7,0.9
2025-04-30T1100,1213A,119.135,33.5039,淮安市,楚州区监测站,颗粒物(PM10),64,78,73,39,39,164,,101,101,14,25,11,10,0.7,0.6
2025-04-30T1100,3426A,118.8755,33.2894,淮安市,新华书店,颗粒物(PM10),57,63,60,26,35,156,,86,86,15,26,12,11,0.7,0.6
2025-04-30T1100,4206A,119.0288,33.6319,淮安市,承德北路606号,颗粒物(PM10),67,83,73,34,33,168,,107,107,16,20,15,16,0.7,0.7
2025-04-30T1100,2282A,116.8004,33.975,淮北市,监测站,颗粒物(PM10),74,97,65,36,30,153,,128,128,13,19,8,9,0.8,0.8
2025-04-30T1100,2283A,116.8091,33.9007,淮北市,烈山区政府,颗粒物(PM10),71,92,71,42,29,146,,103,103,10,20,8,9,0.7,0.7
2025-04-30T1100,3330A,116.8873,33.9836,淮北市,杜集区检察院,,,92,65,40,31,152,,113,113,,21,9,9,0.9,0.8
2025-04-30T1100,4017A,116.7923,33.9535,淮北市,市博物馆,颗粒物(PM10),68,86,69,40,30,148,,121,121,12,18,8,10,0.8,0.8
2025-04-30T1100,2277A,116.8305,32.7727,淮南市,潘集区政府,颗粒物(PM10),60,70,62,35,31,132,,113,113,8,18,5,6,0.4,0.4
2025-04-30T1100,2279A,116.8569,32.5951,淮南市,谢家集区政府,,50,50,48,26,25,125,,99,99,11,20,5,5,0.2,0.3
2025-04-30T1100,2280A,116.8281,32.633,淮南市,八公山区政府,颗粒物(PM10),56,62,60,26,25,127,,122,122,10,11,6,6,0.3,0.3
2025-04-30T1100,2281A,116.6325,32.6201,淮南市,焦岗湖风景区管理处,,,,,,,,,,,,,,,,
2025-04-30T1100,2894A,117.0566,32.6531,淮南市,经济技术开发区消防队,颗粒物(PM10),51,51,51,35,34,126,,116,116,9,15,6,6,0.3,0.4
2025-04-30T1100,3329A,117.0108,32.5893,淮南市,山南新区,颗粒物(PM10),58,66,61,26,24,134,,116,116,12,16,8,9,0.4,0.4
2025-04-30T1100,4209A,117.0031,32.6445,淮南市,国庆中路369号,颗粒物(PM10),51,51,50,30,29,130,,119,119,8,12,9,9,0.3,0.4
2025-04-30T1100,2446A,114.9028,30.4742,黄冈市,职工中心,,,,43,,28,98,,94,90,,13,9,9,,0.8
2025-04-30T1100,2929A,114.8858,30.4519,黄冈市,红卫路,,50,50,53,30,28,107,,95,92,10,12,8,8,0.6,0.7
2025-04-30T1100,3398A,114.9136,30.4445,黄冈市,市林业局,颗粒物(PM10),52,53,51,30,28,104,,87,84,11,16,12,11,0.7,0.8
2025-04-30T1100,2672A,102.0199,35.5102,黄南藏族自治州,同仁县隆务镇,颗粒物(PM10),52,53,41,28,15,93,,82,78,9,4,4,4,0.3,0.2
2025-04-30T1100,2295A,118.2903,29.6963,黄山市,延安路89号,细颗粒物(PM2.5),54,51,47,38,30,101,,43,43,8,8,5,5,0.5,0.5
2025-04-30T1100,2297A,118.1371,30.2756,黄山市,黄山区政府5号楼,,45,45,48,21,24,114,,55,55,7,10,4,4,0.5,0.5
2025-04-30T1100,4210A,118.3354,29.7203,黄山市,滨江东路7-2号,细颗粒物(PM2.5),59,51,54,42,29,112,,51,51,6,7,5,5,0.6,0.6
2025-04-30T1100,2423A,115.0601,30.2313,黄石市,沈家营,,,,61,28,25,84,,102,84,25,13,,8,,0.7
2025-04-30T1100,2426A,114.8988,30.2019,黄石市,铁山,颗粒物(PM10),51,51,91,28,34,103,,66,66,9,25,9,11,0.6,0.9
2025-04-30T1100,2427A,115.0307,30.2092,黄石市,团城山,颗粒物(PM10),61,72,67,21,23,100,,96,84,22,17,8,11,0.9,0.6
2025-04-30T1100,3149A,115.0235,30.1578,黄石市,笔架山北路,颗粒物(PM10),58,66,55,17,27,114,,75,75,9,23,9,10,1.4,0.8
2025-04-30T1100,4185A,115.0780,30.21118,黄石市,磁湖东路29号,颗粒物(PM10),62,74,61,34,31,107,,106,96,19,11,9,8,1.3,0.7
2025-04-30T1100,1392A,114.4183,23.0528,惠州市,河南岸金山湖子站,颗粒物(PM10),51,52,42,31,25,152,,123,121,20,17,10,10,0.6,0.5
2025-04-30T1100,1393A,114.4053,23.0822,惠州市,下埔横江三路子站,臭氧1小时,60,55,46,30,24,168,,157,156,20,16,11,10,0.7,0.7
2025-04-30T1100,1394A,114.4103,23.1142,惠州市,江北云山西路子站,臭氧1小时,75,54,46,28,26,180,,156,152,16,15,13,12,0.6,0.6
2025-04-30T1100,1395A,114.4645,22.7833,惠州市,惠阳区承修路船湖子站,臭氧1小时,68,45,48,22,24,174,,134,131,13,16,11,10,0.7,0.7
2025-04-30T1100,1396A,114.5317,22.7422,惠州市,大亚湾管委会子站,臭氧1小时,82,56,52,30,24,185,,140,140,14,19,11,10,0.5,0.5
2025-04-30T1100,3314A,114.4338,22.8134,惠州市,惠阳秋长,臭氧1小时,90,53,52,23,24,192,,135,131,14,19,6,7,0.5,0.5
2025-04-30T1100,3452A,114.6517,22.775,惠州市,大亚湾霞涌,,,39,45,26,23,181,,148,148,18,14,11,9,,0.6
2025-04-30T1100,2240A,130.9762,45.3001,鸡西市,环保局,颗粒物(PM10),55,59,32,32,15,96,,80,80,11,9,11,7,0.4,0.4
2025-04-30T1100,2243A,130.9429,45.3039,鸡西市,第一中学,颗粒物(PM10),54,57,30,33,15,95,,75,75,11,10,10,7,0.4,0.4
2025-04-30T1100,3707A,131.0207,45.3073,鸡西市,欧美日汽修厂,,47,47,27,30,15,96,,79,79,7,6,4,4,0.5,0.4
2025-04-30T1100,3709A,130.9967,45.3106,鸡西市,市政设施管理处,,,59,30,27,14,,,68,68,9,9,7,7,0.5,0.4
2025-04-30T1100,2367A,114.9754,27.0803,吉安市,红声器材厂,颗粒物(PM10),55,60,62,32,34,75,,61,61,15,17,13,13,0.5,0.6
2025-04-30T1100,2368A,114.9658,27.0999,吉安市,市森林工业局,颗粒物(PM10),56,61,66,34,39,79,,62,62,18,21,13,11,0.4,0.5
2025-04-30T1100,2369A,114.99,27.1312,吉安市,市环境监测站,,46,46,56,32,32,83,,64,64,12,12,14,13,0.6,0.6
2025-04-30T1100,2370A,115.0093,27.0968,吉安市,青原区法院,颗粒物(PM10),53,55,59,36,35,90,,58,58,8,14,15,14,0.4,0.5
2025-04-30T1100,1772A,126.54,43.8622,吉林市,哈达湾,颗粒物(PM10),64,77,60,43,33,158,,96,96,12,20,9,9,0.5,0.4
2025-04-30T1100,1773A,126.5844,43.8358,吉林市,东局子,颗粒物(PM10),59,68,57,39,35,155,,84,84,12,19,7,7,0.5,0.5
2025-04-30T1100,1774A,126.5052,43.8245,吉林市,电力学院,颗粒物(PM10),60,70,59,40,41,155,,79,79,13,21,7,8,0.6,0.6
2025-04-30T1100,1775A,126.6133,43.8972,吉林市,江北,颗粒物(PM10),62,73,58,34,30,159,,94,94,15,18,8,8,0.8,0.7
2025-04-30T1100,1776A,126.555,43.8306,吉林市,江南公园,细颗粒物(PM2.5),67,76,55,48,40,151,,86,86,9,18,8,8,0.5,0.4
2025-04-30T1100,1778A,126.7061,43.7133,吉林市,丰满,,,,,,,,,,,,,,,,
2025-04-30T1100,2868A,126.4739,43.953,吉林市,九站,颗粒物(PM10),68,85,63,37,39,156,,86,86,13,24,8,11,0.5,0.6
2025-04-30T1100,1299A,116.9862,36.6114,济南市,科干所,,,61,55,22,20,,,122,114,,11,,7,,0.3
2025-04-30T1100,1300A,116.9376,36.665,济南市,农科所,颗粒物(PM10),61,71,62,20,15,124,,108,106,18,15,10,10,0.4,0.4
2025-04-30T1100,1301A,117.1265,36.6734,济南市,开发区,颗粒物(PM10),64,78,60,17,24,142,,122,120,10,11,10,10,0.5,0.5
2025-04-30T1100,1303A,117.0624,36.6868,济南市,省种子仓库,颗粒物(PM10),76,102,73,19,17,139,,122,118,11,10,7,7,0.4,0.4
2025-04-30T1100,1304A,116.9489,36.6447,济南市,机床二厂,颗粒物(PM10),74,98,83,22,17,126,,111,110,20,17,12,11,0.5,0.4
2025-04-30T1100,1305A,117.0495,36.663,济南市,市监测站,颗粒物(PM10),73,95,64,32,24,134,,120,117,13,11,10,11,0.5,0.5
2025-04-30T1100,1306A,116.7675,36.5484,济南市,长清党校,颗粒物(PM10),89,127,64,22,24,128,,111,111,19,15,10,9,0.6,0.6
2025-04-30T1100,1616A,117.6795,36.229,济南市,技术学院,,,80,70,29,20,140,,112,110,16,16,,13,0.7,0.6
2025-04-30T1100,1961A,117.532,36.6868,济南市,东山小学,,,,66,,21,135,,126,121,12,10,10,10,0.3,0.3
2025-04-30T1100,3059A,117.7161,36.2049,济南市,泰兴公司,,,,56,,22,141,,61,61,16,30,9,11,,0.7
2025-04-30T1100,3064A,117.6867,36.2171,济南市,莱芜战役纪念馆,颗粒物(PM10),65,80,63,27,18,139,,108,107,20,22,10,8,0.6,0.6
2025-04-30T1100,3494A,117.1673,36.9782,济南市,济阳区政府,颗粒物(PM10),75,100,78,24,22,116,,112,105,23,18,7,8,0.5,0.4
2025-04-30T1100,3495A,117.1171,36.63,济南市,锦屏中学,颗粒物(PM10),58,66,57,22,17,141,,122,120,11,12,7,8,0.4,0.4
2025-04-30T1100,3682A,116.9814,36.6819,济南市,济南四建,颗粒物(PM10),67,83,63,46,24,135,,120,116,15,12,8,8,0.5,0.4
2025-04-30T1100,1653A,116.6251,35.4302,济宁市,火炬城,细颗粒物(PM2.5),67,66,73,48,24,119,,88,88,10,8,8,8,0.5,0.4
2025-04-30T1100,1655A,116.5491,35.4042,济宁市,电化厂,颗粒物(PM10),61,71,63,34,27,120,,82,82,9,12,7,4,0.7,0.6
2025-04-30T1100,3500A,116.5814,35.3707,济宁市,北湖一中,,,68,73,27,12,,,84,81,13,22,8,9,0.4,0.4
2025-04-30T1100,3501A,116.8249,35.5593,济宁市,服务中心,颗粒物(PM10),61,71,77,25,20,126,,87,87,13,17,5,4,0.3,0.4
2025-04-30T1100,3678A,116.5907,35.4054,济宁市,市第七中学,颗粒物(PM10),108,166,72,31,20,124,,90,90,11,11,12,11,0.4,0.3
2025-04-30T1100,2255A,130.2751,46.8028,佳木斯市,佳纺,颗粒物(PM10),53,55,44,30,16,83,,81,81,19,9,6,4,0.5,0.3
2025-04-30T1100,2256A,130.3995,46.8307,佳木斯市,发电厂,颗粒物(PM10),57,63,30,33,16,89,,74,74,18,14,6,8,0.4,0.3
2025-04-30T1100,2257A,130.3258,46.7975,佳木斯市,环保局,,48,47,24,33,16,101,,83,83,14,10,8,5,0.5,0.4
2025-04-30T1100,2258A,130.3648,46.8032,佳木斯市,十一中,,40,34,24,28,14,96,,69,69,12,12,6,5,0.5,0.4
2025-04-30T1100,2259A,130.3794,46.7588,佳木斯市,四丰,,42,29,17,29,10,93,,72,72,14,8,1,1,0.3,0.2
2025-04-30T1100,1252A,120.7436,30.778,嘉兴市,清河小学,颗粒物(PM10),66,82,54,34,22,160,,96,96,21,28,7,7,0.8,0.8
2025-04-30T1100,1253A,120.726,30.7478,嘉兴市,嘉兴学院,臭氧1小时,63,69,45,41,21,170,,97,97,25,32,8,9,0.8,0.8
2025-04-30T1100,2872A,120.7846,30.7525,嘉兴市,南湖区残联,臭氧1小时,64,54,48,41,22,171,,103,103,22,28,8,8,0.6,0.6
2025-04-30T1100,3407A,120.6916,30.7739,嘉兴市,秀洲住建,臭氧1小时,80,98,55,37,24,184,,110,110,12,21,8,9,0.6,0.6
2025-04-30T1100,1945A,98.2908,39.7711,嘉峪关市,气象局,,36,24,144,7,28,114,,101,101,3,3,3,4,0.7,0.7
2025-04-30T1100,2884A,98.2672,39.7978,嘉峪关市,酒钢宾馆,,45,,168,31,32,116,,106,106,2,3,16,16,0.3,0.3
2025-04-30T1100,3248A,98.2643,39.7724,嘉峪关市,雄关区,,42,42,121,15,27,115,,95,94,6,9,4,4,0.5,0.5
2025-04-30T1100,1383A,113.1064,22.6058,江门市,北街,颗粒物(PM10),53,55,40,23,21,138,,150,144,12,11,2,2,0.6,0.5
2025-04-30T1100,1384A,113.0731,22.5835,江门市,西区,颗粒物(PM10),52,54,44,21,17,139,,151,144,16,15,6,6,0.5,0.5
2025-04-30T1100,1385A,113.0219,22.5311,江门市,圭峰西,颗粒物(PM10),53,55,41,29,24,129,,141,132,14,12,3,3,0.5,0.4
2025-04-30T1100,1386A,113.0828,22.5947,江门市,东湖,,44,41,43,27,22,138,,148,138,15,15,8,8,0.6,0.5
2025-04-30T1100,3311A,113.1075,22.5647,江门市,江海富民,颗粒物(PM10),65,79,52,23,22,140,,147,139,15,13,8,8,0.5,0.5
2025-04-30T1100,3449A,113.05,22.4667,江门市,新会银湖,,,,42,,25,137,,130,121,14,17,4,3,,0.5
2025-04-30T1100,1830A,113.1992,35.2590,焦作市,影视城,,,,,,,,,,,,,,,,
2025-04-30T1100,3169A,113.2725,35.2067,焦作市,太极体育中心,,,,40,40,22,,,64,64,22,17,6,6,0.3,0.3
2025-04-30T1100,3335A,113.3137,35.2641,焦作市,马村街道办,颗粒物(PM10),64,78,77,34,27,98,,72,72,26,27,20,17,0.5,0.3
2025-04-30T1100,3336A,113.2465,35.2373,焦作市,焦作技师学院,颗粒物(PM10),68,85,90,27,21,96,,67,67,25,31,19,18,0.6,0.6
2025-04-30T1100,3477A,113.1656,35.2539,焦作市,中站许衡医院,颗粒物(PM10),76,102,66,42,27,94,,86,78,41,29,40,18,1.1,0.7
2025-04-30T1100,3981A,113.2449,35.1803,焦作市,原李万街道办,颗粒物(PM10),67,84,65,27,16,85,,70,70,29,26,17,14,0.4,0.4
2025-04-30T1100,4264A,113.2340,35.2190,焦作市,新安路1731号,颗粒物(PM10),76,101,76,28,24,88,,65,65,26,28,13,14,0.5,0.5
2025-04-30T1100,1708A,116.3701,23.5345,揭阳市,新兴,颗粒物(PM10),62,74,59,35,34,150,,92,90,24,22,11,9,0.8,0.8
2025-04-30T1100,1709A,116.3264,23.5443,揭阳市,西马,臭氧1小时,60,61,62,24,40,168,,90,90,14,16,11,9,0.8,0.9
2025-04-30T1100,1710A,116.3611,23.5626,揭阳市,东兴,,,76,65,36,33,150,,99,96,,11,14,9,0.5,0.6
2025-04-30T1100,1711A,116.4151,23.5294,揭阳市,渔湖,颗粒物(PM10),69,87,63,32,29,152,,83,83,24,24,10,7,0.8,0.8
2025-04-30T1100,3320A,116.403,23.5699,揭阳市,曲溪,细颗粒物(PM2.5),57,53,56,40,30,164,,93,93,27,26,10,5,0.7,0.8
2025-04-30T1100,1944A,102.1692,38.5167,金昌市,天庆家园,,44,44,462,14,87,100,,107,100,4,3,11,10,0.7,0.7
2025-04-30T1100,4022A,102.1647,38.5371,金昌市,金川区人防中心,,,88,659,15,84,107,,108,102,7,4,,19,,0.4
2025-04-30T1100,4239A,102.1930,38.5319,金昌市,长春路96号,颗粒物(PM10),54,58,346,15,90,107,,111,106,3,2,12,12,0.5,0.5
2025-04-30T1100,1262A,119.647,29.077,金华市,十五中,,49,49,60,22,31,142,,122,120,16,24,3,4,0.4,0.5
2025-04-30T1100,1263A,119.686,29.1029,金华市,监测站,,,53,60,26,32,125,,111,108,,32,,5,0.5,0.6
2025-04-30T1100,3659A,119.656,29.1131,金华市,气象局,颗粒物(PM10),51,51,59,20,26,143,,111,111,14,36,2,2,0.5,0.6
2025-04-30T1100,1767A,121.1115,41.0879,锦州市,南山,,44,44,87,18,73,79,,76,70,16,26,11,13,0.7,0.8
2025-04-30T1100,1768A,121.0604,40.8428,锦州市,开发区,,45,45,108,18,77,81,,71,69,17,32,10,10,0.8,0.9
2025-04-30T1100,1769A,121.1836,41.1119,锦州市,百股街道,,,,83,,48,,,71,63,16,26,12,11,0.8,0.8
2025-04-30T1100,1770A,121.1178,41.1222,锦州市,天安街道,,42,38,86,29,60,81,,82,74,16,27,10,13,0.7,0.9
2025-04-30T1100,1771A,121.1303,41.1386,锦州市,北湖公园,,42,42,79,18,67,79,,81,70,14,24,12,12,0.7,0.8
2025-04-30T1100,2160A,112.85,35.5051,晋城市,自来水公司,颗粒物(PM10),109,168,70,39,13,106,,61,56,18,24,8,8,0.4,0.6
2025-04-30T1100,2161A,112.8318,35.4936,晋城市,白云商贸,颗粒物(PM10),116,181,68,39,8,116,,60,60,15,25,6,7,0.4,0.5
2025-04-30T1100,2162A,112.8508,35.4887,晋城市,市环保局,颗粒物(PM10),68,85,67,27,13,106,,62,62,11,24,5,5,0.3,0.4
2025-04-30T1100,2163A,112.8676,35.4897,晋城市,技术学院,颗粒物(PM10),129,208,65,44,10,104,,52,52,14,24,6,7,0.4,0.5
2025-04-30T1100,2165A,112.8453,35.546,晋城市,白马寺,颗粒物(PM10),89,127,45,31,15,120,,133,123,9,8,5,5,0.2,0.3
2025-04-30T1100,3620A,112.8271,35.4828,晋城市,泽州一中,颗粒物(PM10),106,161,54,,11,116,,61,61,12,20,4,5,0.4,0.4
2025-04-30T1100,2173A,112.7249,37.7067,晋中市,南都小区,颗粒物(PM10),176,302,119,44,25,107,,51,51,19,29,18,20,0.3,0.3
2025-04-30T1100,2174A,112.6991,37.6982,晋中市,榆次区政府,颗粒物(PM10),170,290,121,72,22,109,,52,52,21,28,20,20,0.7,0.6
2025-04-30T1100,2865A,112.7195,37.6828,晋中市,榆次三中,颗粒物(PM10),185,320,135,97,30,110,,48,48,22,32,12,17,,0.3
2025-04-30T1100,4200A,112.7478,37.6954,晋中市,迎宾街26号,颗粒物(PM10),197,344,131,127,35,110,,48,48,18,26,15,17,0.4,0.4
2025-04-30T1100,2439A,112.2014,31.0481,荆门市,竹园小学,,48,48,58,23,31,88,,65,55,14,17,11,9,0.1,0.2
2025-04-30T1100,2440A,112.1969,30.9891,荆门市,掇刀,,,67,57,25,32,79,,56,47,15,13,,14,0.3,0.3
2025-04-30T1100,2441A,112.2213,31.0386,荆门市,石化一小,颗粒物(PM10),53,56,65,27,31,82,,67,56,21,17,20,13,0.4,0.4
2025-04-30T1100,3012A,112.1849,31.0362,荆门市,西山林语,,44,44,50,18,27,81,,65,56,15,12,12,9,0.4,0.4
2025-04-30T1100,3547A,112.1632,31.0138,荆门市,龙泉中学南校,,46,46,52,21,26,78,,52,46,20,18,12,10,0.4,0.4
2025-04-30T1100,1844A,112.2494,30.3197,荆州市,市图书馆,,25,20,43,14,25,77,,63,60,10,14,5,6,0.6,0.6
2025-04-30T1100,1845A,112.2008,30.3544,荆州市,市委党校,,,43,47,16,27,75,,59,55,,13,7,8,,0.5
2025-04-30T1100,3194A,112.2747,30.3122,荆州市,管委会,,28,20,42,19,27,80,,65,61,10,13,6,7,0.6,0.6
2025-04-30T1100,4268A,112.1722,30.3366,荆州市,学苑路85号,,28,28,42,16,27,81,,58,57,6,12,3,4,0.4,0.5
2025-04-30T1100,2342A,117.3102,29.3867,景德镇市,王港中学,,,,,,,,,,,,,,,,
2025-04-30T1100,2343A,117.2117,29.2933,景德镇市,老干部活动中心,细颗粒物(PM2.5),67,77,58,48,33,94,,56,56,23,18,9,9,0.7,0.6
2025-04-30T1100,2344A,117.1894,29.2789,景德镇市,兽医站,颗粒物(PM10),73,96,66,41,33,70,,53,53,27,19,3,6,0.7,0.6
2025-04-30T1100,2345A,117.1547,29.2617,景德镇市,台达陶瓷,颗粒物(PM10),68,86,73,36,36,58,,55,55,32,26,35,35,0.8,0.6
2025-04-30T1100,2346A,117.2461,29.2956,景德镇市,陶研所,颗粒物(PM10),61,72,59,42,38,116,,49,49,17,18,10,9,0.6,0.6
2025-04-30T1100,1803A,115.9872,29.6815,九江市,十里,细颗粒物(PM2.5),63,73,55,45,35,81,,59,59,30,24,3,2,0.7,0.6
2025-04-30T1100,1804A,115.9584,29.7046,九江市,茅山头,,,,69,,40,67,,62,55,,26,,6,0.6,0.5
2025-04-30T1100,1805A,115.9877,29.7295,九江市,西园,细颗粒物(PM2.5),62,66,53,44,37,88,,48,48,36,59,9,12,0.9,0.8
2025-04-30T1100,1808A,115.9114,29.6038,九江市,综合工业园,"颗粒物(PM10),细颗粒物(PM2.5)",60,70,64,43,35,99,,63,58,25,45,9,8,0.9,0.8
2025-04-30T1100,1809A,116.0721,29.7535,九江市,石化总厂,细颗粒物(PM2.5),100,94,74,75,50,87,,61,61,31,31,10,11,1.0,0.9
2025-04-30T1100,1810A,115.9773,29.5698,九江市,庐山气象台,,49,45,45,34,28,114,,134,124,9,9,6,7,1.0,0.8
2025-04-30T1100,3190A,116.0254,29.6994,九江市,外国语学校,细颗粒物(PM2.5),65,70,58,47,38,81,,73,73,32,26,5,6,1.1,1.1
2025-04-30T1100,4253A,116.0102,29.6594,九江市,莲花大道8号,细颗粒物(PM2.5),67,55,51,48,30,107,,88,85,7,8,4,4,0.7,0.6
2025-04-30T1100,4240A,98.4958,39.7339,酒泉市,玉门东路5号,颗粒物(PM10),56,61,244,18,39,119,,106,106,2,4,7,9,0.1,0.2
2025-04-30T1100,4241A,98.5099,39.7506,酒泉市,北大街108号,,38,34,244,16,32,121,,112,112,7,7,10,10,0.2,0.3
2025-04-30T1100,2698A,76.0072,39.4467,喀什地区,巡警大队,颗粒物(PM10),135,219,205,45,51,36,,21,21,47,39,6,4,0.7,0.7
2025-04-30T1100,2699A,75.9755,39.4694,喀什地区,吾办,颗粒物(PM10),131,211,157,74,66,47,,34,34,39,36,11,10,0.6,0.6
2025-04-30T1100,4027A,75.9483,39.4689,喀什地区,老干局,颗粒物(PM10),103,155,144,32,39,58,,51,51,19,28,6,4,0.2,0.4
2025-04-30T1100,1824A,114.3389,34.7781,开封市,肿瘤医院,颗粒物(PM10),76,101,96,28,27,107,,64,64,18,20,13,11,0.5,0.5
2025-04-30T1100,1826A,114.2885,34.7965,开封市,世纪星幼儿园,颗粒物(PM10),94,138,95,25,24,105,,65,65,29,25,15,11,0.8,0.8
2025-04-30T1100,3147A,114.3438,34.8106,开封市,龙亭公园,颗粒物(PM10),84,117,95,27,30,114,,75,75,24,25,9,7,0.7,0.7
2025-04-30T1100,3210A,114.3644,34.7964,开封市,汴京公园,颗粒物(PM10),87,124,101,25,29,117,,74,74,24,25,9,7,0.7,0.7
2025-04-30T1100,3473A,114.2485,34.8306,开封市,技师学院,,,,87,,47,,,70,70,24,23,,9,,0.7
2025-04-30T1100,3592A,114.4644,34.7556,开封市,祥符区生态环境局,颗粒物(PM10),58,66,67,37,29,119,,76,76,22,26,12,10,0.4,0.5
2025-04-30T1100,1951A,84.895,45.6094,克拉玛依市,长征新村,,50,50,52,8,12,85,,84,84,4,8,7,8,0.1,0.2
2025-04-30T1100,1952A,84.8988,45.5893,克拉玛依市,南林小区,,46,40,53,32,21,95,,81,81,2,12,4,4,0.2,0.3
2025-04-30T1100,1954A,84.905,44.3396,克拉玛依市,独山子区,颗粒物(PM10),70,90,50,25,21,88,,87,84,6,3,8,8,0.3,0.3
2025-04-30T1100,1955A,85.6979,46.098,克拉玛依市,乌尔禾区商贸楼,,47,47,54,3,12,83,,53,53,1,9,7,7,0.2,0.3
2025-04-30T1100,3612A,85.1045,45.6899,克拉玛依市,白碱滩区新站,,50,50,62,24,18,90,,73,73,1,5,10,11,0.2,0.2
2025-04-30T1100,2697A,76.1454,39.7142,克孜勒苏柯尔克孜自治州,市人民政府,颗粒物(PM10),75,100,111,31,35,81,,91,91,8,8,6,7,0.0,0
2025-04-30T1100,3665A,76.1658,39.7157,克孜勒苏柯尔克孜自治州,克州文化中心,颗粒物(PM10),90,129,107,36,38,78,,85,84,18,10,7,11,0.6,0.3
2025-04-30T1100,1450A,102.8204,24.8886,昆明市,呈贡新区,,43,39,30,30,21,66,,67,54,15,19,7,7,1.1,0.9
2025-04-30T1100,1451A,102.6251,24.9608,昆明市,西山森林公园,,,,,,,,,,,,,,,,
2025-04-30T1100,1452A,102.7252,25.0902,昆明市,龙泉镇,,29,27,26,20,19,65,,55,45,10,13,8,8,0.4,0.5
2025-04-30T1100,1453A,102.7266,25.0375,昆明市,东风东路,,36,30,28,25,21,62,,77,61,17,18,7,7,0.5,0.6
2025-04-30T1100,1454A,102.6742,25.0669,昆明市,金鼎山,,46,,30,32,22,63,,72,59,17,17,2,3,0.5,0.6
2025-04-30T1100,1455A,102.6644,25.0401,昆明市,碧鸡广场,,45,43,34,31,23,50,,55,52,23,24,6,6,0.6,0.6
2025-04-30T1100,3179A,102.7494,25.0119,昆明市,官渡区博物馆,,30,23,24,21,16,54,,67,52,23,14,7,6,0.5,0.6
2025-04-30T1100,3375A,102.8017,24.8336,昆明市,青年创业园,,,34,26,26,18,67,,52,52,14,21,,8,0.8,0.8
2025-04-30T1100,3550A,102.7997,24.9786,昆明市,昆明学院,,37,37,26,25,19,56,,68,50,24,17,6,5,0.5,0.5
2025-04-30T1100,3551A,102.5967,24.6736,昆明市,晋宁区生态环境分局,,35,29,22,24,21,83,,75,66,12,11,6,5,0.5,0.5
2025-04-30T1100,3552A,102.6678,24.9856,昆明市,云天化总部,,,40,27,25,20,,,52,40,25,16,6,6,0.9,0.8
2025-04-30T1100,1456A,91.1319,29.6514,拉萨市,八廓街,,34,27,29,15,15,108,,102,94,11,9,8,8,0.3,0.4
2025-04-30T1100,1457A,91.1221,29.6747,拉萨市,市环保局,,32,31,27,17,12,100,,85,77,12,12,6,5,0.5,0.4
2025-04-30T1100,1458A,91.0874,29.6475,拉萨市,区监测站,,35,25,19,7,10,111,,93,88,10,13,7,7,0.4,0.3
2025-04-30T1100,1459A,91.1774,29.6541,拉萨市,西藏大学,,33,16,17,9,10,104,,90,82,10,10,7,7,0.2,0.3
2025-04-30T1100,1460A,90.9798,29.6588,拉萨市,区辐射站,,33,29,27,19,13,105,,64,64,21,21,10,8,0.4,0.4
2025-04-30T1100,1461A,91.0834,29.6292,拉萨市,拉萨火车站,,37,23,16,10,9,116,,88,82,6,8,4,4,0.4,0.4
2025-04-30T1100,2520A,109.2203,23.7256,来宾市,来宾技工学校,,,,49,,31,102,,93,93,,15,9,15,0.6,0.6
2025-04-30T1100,3535A,109.1781,23.7297,来宾市,兴宾区政府,,45,40,42,31,28,94,,91,86,13,13,7,8,0.6,1.1
2025-04-30T1100,4002A,109.2416,23.7461,来宾市,中南小学,细颗粒物(PM2.5),58,43,46,41,28,107,,92,92,8,9,9,11,0.6,0.6
2025-04-30T1100,1477A,104.1373,35.9454,兰州市,榆中兰大校区,,,,,,,,,,,,,,,,
2025-04-30T1100,1479A,103.831,36.0464,兰州市,铁路设计院,颗粒物(PM10),127,203,77,49,27,65,,35,35,53,58,33,14,0.8,0.7
2025-04-30T1100,3241A,103.7439,36.0842,兰州市,百合公园,,,,59,,19,52,,19,19,35,42,,7,0.7,0.6
2025-04-30T1100,3242A,103.9611,35.998,兰州市,和平,细颗粒物(PM2.5),210,346,107,160,46,,,74,67,,20,20,16,0.9,0.7
2025-04-30T1100,4236A,103.6293,36.0938,兰州市,庄浪东路808号,颗粒物(PM10),163,275,100,76,38,67,,41,41,24,36,41,17,0.5,0.5
2025-04-30T1100,4237A,103.7251,36.1043,兰州市,安宁西路88号,颗粒物(PM10),197,344,96,83,37,72,,38,38,30,34,45,12,0.7,0.4
2025-04-30T1100,4238A,103.8470,36.0676,兰州市,北滨河东路1号,颗粒物(PM10),140,230,86,58,32,61,,20,20,53,54,29,14,1.0,0.9
2025-04-30T1100,3245A,103.6633,36.533,兰州新区,新区管委会,颗粒物(PM10),116,181,220,58,72,84,,69,61,,13,2,6,0.2,0.3
2025-04-30T1100,3246A,103.6975,36.4789,兰州新区,舟曲中学,颗粒物(PM10),256,389,326,93,86,110,,88,81,9,19,4,8,0.3,0.3
2025-04-30T1100,1067A,116.6708,39.5111,廊坊市,药材公司,,38,35,73,19,27,121,,86,86,10,24,5,5,0.5,0.5
2025-04-30T1100,1068A,116.7214,39.5589,廊坊市,开发区,,,,72,21,30,115,,77,77,,25,5,3,0.5,0.4
2025-04-30T1100,1070A,116.7244,39.5269,廊坊市,北华航天学院,颗粒物(PM10),53,56,80,18,25,118,,73,73,12,30,7,7,0.5,0.4
2025-04-30T1100,2919A,116.7022,39.5453,廊坊市,河北工业大学,,47,47,79,24,29,125,,91,91,8,23,8,7,0.4,0.4
2025-04-30T1100,2535A,103.7723,29.5462,乐山市,花湖湾,细颗粒物(PM2.5),52,52,24,36,15,36,,22,22,23,19,14,6,0.8,0.5
2025-04-30T1100,2536A,103.7627,29.5844,乐山市,牛耳桥,,,37,24,28,15,40,,26,26,,20,13,7,0.7,0.7
2025-04-30T1100,2537A,103.7508,29.6006,乐山市,市第三水厂,,34,34,24,20,16,48,,28,28,12,19,11,5,0.6,0.6
2025-04-30T1100,2538A,103.7571,29.5664,乐山市,市监测站,,45,45,24,27,15,42,,28,28,14,18,9,6,0.7,0.6
2025-04-30T1100,3361A,103.7311,29.5628,乐山市,理工大学,,49,49,23,29,13,48,,25,25,15,20,11,4,0.7,0.5
2025-04-30T1100,2598A,100.2143,26.8576,丽江市,西南郊,,42,42,28,20,17,119,,102,102,3,3,5,5,0.3,0.3
2025-04-30T1100,2599A,100.2497,26.8802,丽江市,丽江古城,,37,37,30,21,20,115,,90,88,8,10,8,8,0.5,0.5
2025-04-30T1100,2600A,100.2203,26.8906,丽江市,市中心,,33,27,24,18,18,105,,85,81,6,6,7,6,1.0,0.9
2025-04-30T1100,1267A,119.914,28.4514,丽水市,监测站大楼,,42,42,44,14,17,129,,106,106,13,14,3,3,0.2,0.3
2025-04-30T1100,1268A,119.93,28.4586,丽水市,莲都小学,,,41,45,17,21,128,,77,77,,19,4,4,0.2,0.2
2025-04-30T1100,1269A,119.879,28.4231,丽水市,余庄前,,43,37,42,23,22,135,,85,85,12,13,4,4,0.6,0.6
2025-04-30T1100,1173A,119.176,34.5885,连云港市,市环境监测站,,,83,68,31,31,173,,117,117,12,16,9,8,,0.5
2025-04-30T1100,3000A,119.3581,34.6972,连云港市,德源药业,颗粒物(PM10),63,75,66,31,28,169,,125,125,10,17,10,8,0.5,0.4
2025-04-30T1100,3007A,119.178,34.844,连云港市,新城一中,颗粒物(PM10),58,66,67,29,35,162,,112,112,13,23,9,9,0.7,0.6
2025-04-30T1100,3008A,119.3608,34.7519,连云港市,胡沟管理处,臭氧1小时,53,53,44,31,21,162,,141,141,14,18,14,14,0.6,0.6
2025-04-30T1100,3009A,119.1478,34.5911,连云港市,矿山设计院,颗粒物(PM10),65,80,66,34,27,163,,137,137,17,19,10,10,0.6,0.5
2025-04-30T1100,3434A,119.2413,34.6539,连云港市,工贸学校,臭氧1小时,62,43,58,39,33,169,,130,130,15,17,11,10,0.6,0.6
2025-04-30T1100,3664A,119.4172,34.7341,连云港市,连云街道,臭氧1小时,65,72,59,32,25,172,,152,152,16,15,10,9,0.6,0.5
2025-04-30T1100,2571A,102.3431,27.8099,凉山彝族自治州,青龙寺,,27,14,20,3,7,84,,63,62,2,4,2,2,0.5,0.6
2025-04-30T1100,2572A,102.2721,27.8415,凉山彝族自治州,邛海宾馆,,29,21,31,9,16,90,,74,70,6,8,7,8,0.5,0.6
2025-04-30T1100,2573A,102.2625,27.898,凉山彝族自治州,西昌市政府,,25,21,21,13,11,80,,75,68,14,7,10,9,0.6,0.5
2025-04-30T1100,2574A,102.2685,27.8851,凉山彝族自治州,凉山州政府,,25,25,23,13,13,80,,76,70,16,9,6,6,0.5,0.5
2025-04-30T1100,4229A,102.2342,27.8859,凉山彝族自治州,凯乐南路30号,,25,24,27,11,13,79,,65,58,14,14,11,10,0.7,0.7
2025-04-30T1100,2212A,123.2,41.1953,辽阳市,宏伟区,,49,49,56,23,24,128,,129,127,8,9,7,7,0.6,0.5
2025-04-30T1100,2213A,123.1683,41.2495,辽阳市,新华园,颗粒物(PM10),53,55,65,32,34,120,,117,116,10,10,5,6,0.5,0.5
2025-04-30T1100,2214A,123.2354,41.2639,辽阳市,滨河路,,,55,53,26,30,111,,119,116,,14,7,10,,0.6
2025-04-30T1100,2215A,123.149,41.2991,辽阳市,铁西工业园,颗粒物(PM10),57,63,81,32,36,113,,113,112,13,10,10,10,0.6,0.6
2025-04-30T1100,2227A,125.1358,42.8845,辽源市,环保局,颗粒物(PM10),53,56,56,26,20,156,,107,107,14,20,8,8,0.4,0.4
2025-04-30T1100,3239A,125.0764,42.9078,辽源市,银鹰制药,,,46,58,26,24,163,,96,96,8,19,7,7,,0.4
2025-04-30T1100,1625A,115.9848,36.4372,聊城市,区政府,颗粒物(PM10),74,97,74,29,23,94,,78,75,16,15,11,9,0.6,0.6
2025-04-30T1100,2878A,116.0072,36.4343,聊城市,聊大东校,颗粒物(PM10),71,92,85,42,32,95,,80,76,16,14,12,9,0.4,0.4
2025-04-30T1100,3200A,115.9819,36.4978,聊城市,监控中心,,,,78,,26,97,,83,76,,18,12,11,0.6,0.6
2025-04-30T1100,3513A,116.0445,36.4361,聊城市,九州社区,颗粒物(PM10),63,76,54,27,22,104,,82,81,15,19,8,8,0.6,0.5
2025-04-30T1100,4018A,116.0567,36.4608,聊城市,星美广场,颗粒物(PM10),65,79,65,22,17,102,,82,79,21,20,13,12,0.7,0.7
2025-04-30T1100,2632A,94.3681,29.6376,林芝市,林芝监测站,,21,,5,3,5,67,,56,52,7,8,5,5,0.2,0.2
2025-04-30T1100,2633A,94.3616,29.6616,林芝市,林芝人民医院,,22,9,8,3,5,69,,48,48,5,6,5,5,0.3,0.3
2025-04-30T1100,2603A,100.0781,23.8982,临沧市,市环保局,,42,30,31,29,31,25,,53,35,15,9,6,6,0.8,0.7
2025-04-30T1100,2604A,100.0894,23.8822,临沧市,市气象局,,38,30,24,26,22,27,,63,41,16,10,7,7,0.7,0.6
2025-04-30T1100,1733A,111.5531,36.0783,临汾市,临钢医院,颗粒物(PM10),87,124,90,34,21,80,,41,35,22,24,14,9,1.2,0.9
2025-04-30T1100,1734A,111.5028,36.0714,临汾市,技工学校,,,,69,,24,76,,55,46,24,20,18,13,,0.7
2025-04-30T1100,1736A,111.5018,36.0855,临汾市,市委,颗粒物(PM10),90,129,75,36,20,75,,55,50,25,20,20,14,0.9,0.5
2025-04-30T1100,3018A,111.505,36.1014,临汾市,唐尧大酒店,颗粒物(PM10),81,112,79,36,21,74,,48,46,26,23,16,9,1.0,0.7
2025-04-30T1100,4244A,111.4879,36.0530,临汾市,启星学校,颗粒物(PM10),84,118,78,31,24,81,,57,50,22,23,20,15,1.1,0.7
2025-04-30T1100,4271A,103.2464,35.6123,临夏回族自治州,滨河东路1号,颗粒物(PM10),66,82,71,18,28,96,,45,45,9,20,5,5,0.3,0.4
2025-04-30T1100,4310A,103.2093,35.5995,临夏回族自治州,新华街21号,颗粒物(PM10),74,98,74,42,33,88,,36,36,18,27,5,5,0.3,0.4
2025-04-30T1100,1618A,118.3429,35.0532,临沂市,沂河小区,颗粒物(PM10),73,95,81,24,35,140,,92,92,13,20,14,15,0.3,0.3
2025-04-30T1100,1619A,118.295,35.0583,临沂市,鲁南制药厂,颗粒物(PM10),70,90,71,32,36,157,,104,104,15,23,10,11,0.5,0.5
2025-04-30T1100,1620A,118.2794,34.9976,临沂市,新光毛纺厂,颗粒物(PM10),69,88,79,27,37,153,,98,98,16,28,12,16,0.4,0.4
2025-04-30T1100,1621A,118.3956,35.0888,临沂市,河东保险公司,颗粒物(PM10),63,75,63,30,25,160,,111,111,14,19,12,13,0.3,0.3
2025-04-30T1100,3370A,118.3564,35.0215,临沂市,十里堡居委,,,,77,,38,,,83,83,20,31,10,13,0.5,0.5
2025-04-30T1100,3496A,118.3604,35.1084,临沂市,南坊新区,颗粒物(PM10),62,73,71,36,38,140,,100,100,13,18,11,10,0.3,0.3
2025-04-30T1100,3860A,118.3920,35.0300,临沂市,皇山花园小区,颗粒物(PM10),73,95,76,36,35,151,,94,94,18,27,13,17,0.9,0.7
2025-04-30T1100,1870A,109.4856,24.3895,柳州市,柳东小学,,48,48,44,30,30,103,,88,87,12,11,12,16,0.7,0.7
2025-04-30T1100,1871A,109.4157,24.3277,柳州市,环保监测站,颗粒物(PM10),57,63,53,34,35,93,,94,92,15,13,12,11,0.7,0.6
2025-04-30T1100,1872A,109.389,24.341,柳州市,河西水厂,颗粒物(PM10),57,63,53,39,29,99,,87,87,12,13,8,7,0.6,0.5
2025-04-30T1100,1873A,109.4311,24.2921,柳州市,市四中,,,54,54,34,33,97,,85,84,,14,9,9,0.8,0.7
2025-04-30T1100,1874A,109.4006,24.3631,柳州市,市九中,颗粒物(PM10),55,59,55,35,32,97,,92,92,15,11,10,9,0.7,0.6
2025-04-30T1100,1875A,109.4958,24.3134,柳州市,古亭山,,46,46,52,27,29,92,,83,81,12,13,8,8,0.9,0.8
2025-04-30T1100,3402A,109.5422,24.3996,柳州市,市二中,,,,42,,30,82,,78,74,,18,,14,0.6,0.5
2025-04-30T1100,2307A,116.5079,31.737,六安市,监测大楼,,,33,40,20,21,114,,119,114,6,14,4,6,,0.3
2025-04-30T1100,2308A,116.4738,31.7643,六安市,皖西学院,颗粒物(PM10),51,51,45,19,19,126,,128,120,12,16,5,6,0.2,0.3
2025-04-30T1100,2309A,116.4996,31.7905,六安市,朝阳厂,,42,42,39,20,19,114,,124,114,12,17,4,4,0.2,0.3
2025-04-30T1100,2310A,116.5567,31.7886,六安市,开发区,,47,47,50,25,23,123,,101,98,8,15,5,6,0.4,0.4
2025-04-30T1100,2576A,104.8,26.5892,六盘水市,窑上,,32,32,25,16,15,75,,59,59,8,7,5,5,0.2,0.3
2025-04-30T1100,2577A,104.83,26.5917,六盘水市,黄土坡,,27,15,17,10,13,86,,83,83,16,12,10,8,0.4,0.5
2025-04-30T1100,2578A,104.89,26.5939,六盘水市,水钢,,,53,31,24,13,,,58,49,46,26,113,27,3.2,0.9
2025-04-30T1100,2579A,104.8475,26.5894,六盘水市,民中,,28,10,16,3,7,87,,83,83,10,11,8,8,0.2,0.3
2025-04-30T1100,2580A,104.9544,26.5506,六盘水市,双水,,36,36,21,12,12,63,,69,63,35,15,23,10,1.3,0.4
2025-04-30T1100,2335A,117.0189,25.1181,龙岩市,龙岩师专,,,,,,,,,,,,,,,,
2025-04-30T1100,2336A,117.0217,25.1033,龙岩市,龙岩市监测站,颗粒物(PM10),53,56,49,23,25,159,,69,69,11,20,5,10,0.6,0.6
2025-04-30T1100,2337A,117.0258,25.0661,龙岩市,闽西职业技术学院,,45,41,46,12,27,142,,99,99,7,15,4,19,0.5,0.6
2025-04-30T1100,2338A,117.0196,25.0306,龙岩市,龙岩学院,,49,41,38,17,23,154,,92,92,6,8,6,9,0.5,0.5
2025-04-30T1100,2665A,105.0822,33.3261,陇南市,汉王镇固水子,,,,,,,,,,,,,,,,
2025-04-30T1100,2885A,104.9339,33.3826,陇南市,滨江中学,颗粒物(PM10),54,58,59,21,28,83,,51,51,6,14,9,10,0.6,0.6
2025-04-30T1100,3247A,104.955,33.371,陇南市,市总工会,,48,48,46,27,20,90,,76,70,6,7,7,7,0.2,0.2
2025-04-30T1100,2487A,111.9589,27.8901,娄底市,电视发射台,,37,37,53,20,25,81,,65,64,4,4,5,6,0.4,0.5
2025-04-30T1100,2488A,111.9975,27.725,娄底市,市监测站,,41,41,53,17,35,87,,76,72,18,15,12,10,0.8,0.8
2025-04-30T1100,2489A,112.0194,27.7314,娄底市,市委党校,,50,50,52,24,32,62,,92,72,16,11,3,4,0.2,0.5
2025-04-30T1100,2490A,111.9561,27.7569,娄底市,涟钢,,44,44,54,24,31,90,,83,76,8,11,11,17,0.4,0.6
2025-04-30T1100,2491A,111.9892,27.7044,娄底市,市政府,,45,45,50,25,33,68,,80,69,20,10,6,5,0.6,0.4
2025-04-30T1100,1893A,105.4324,28.9634,泸州市,九狮山,,,,,,,,,,,,,,,,
2025-04-30T1100,1894A,105.4427,28.9063,泸州市,小市上码头,,25,24,17,14,8,80,,57,55,18,13,21,8,0.5,0.5
2025-04-30T1100,1895A,105.4241,28.8573,泸州市,兰田宪桥,,,20,16,15,12,59,,46,38,13,9,8,7,,0.4
2025-04-30T1100,1896A,105.4379,28.8833,泸州市,市环监站,,,,,,,,,,,,,,,,
2025-04-30T1100,4272A,105.3689,28.7783,泸州市,纳溪中医医院,,33,33,21,17,13,62,,53,49,10,7,8,6,0.4,0.4
2025-04-30T1100,2183A,111.1406,37.5211,吕梁市,环保局,颗粒物(PM10),146,241,143,73,34,76,,27,27,27,43,6,3,0.3,0.4
2025-04-30T1100,2185A,111.1297,37.5136,吕梁市,自来水公司,颗粒物(PM10),146,242,130,85,35,86,,29,29,19,38,4,3,0.4,0.5
2025-04-30T1100,2867A,111.1283,37.51,吕梁市,马茂庄小学,,,,138,,29,72,,14,14,,46,,5,0.3,0.4
2025-04-30T1100,1812A,112.3931,34.6516,洛阳市,市委党校,颗粒物(PM10),65,80,47,21,16,82,,66,66,18,14,2,2,0.4,0.3
2025-04-30T1100,1815A,112.494,34.6886,洛阳市,河南林校,,,,49,17,15,94,,70,70,15,15,6,6,0.2,0.2
2025-04-30T1100,1816A,112.3844,34.623,洛阳市,开发区管委会,颗粒物(PM10),57,63,43,17,19,88,,60,60,20,21,7,5,0.4,0.3
2025-04-30T1100,1817A,112.4267,34.6258,洛阳市,市委新办公区,颗粒物(PM10),58,66,45,18,14,96,,66,66,13,18,5,5,0.3,0.3
2025-04-30T1100,3340A,112.6005,34.6326,洛阳市,伊滨,颗粒物(PM10),65,80,58,27,20,102,,86,86,12,12,6,8,0.4,0.4
2025-04-30T1100,3341A,112.4951,34.6332,洛阳市,中移产业园,颗粒物(PM10),68,85,64,24,17,98,,79,79,15,13,6,6,0.3,0.3
2025-04-30T1100,3593A,112.5736,34.8993,洛阳市,吉利监测站,颗粒物(PM10),73,96,61,28,19,108,,46,46,9,30,9,12,0.3,0.4
2025-04-30T1100,3635A,112.3677,34.662,洛阳市,河科大西苑校区,颗粒物(PM10),125,200,51,18,13,106,,72,72,11,17,7,7,0.4,0.3
2025-04-30T1100,3636A,112.4388,34.6781,洛阳市,英才小学,颗粒物(PM10),63,75,45,23,15,94,,74,74,26,20,5,5,0.5,0.4
2025-04-30T1100,4214A,112.4600,34.6949,洛阳市,春都路1号院,颗粒物(PM10),91,131,64,31,18,109,,68,68,16,19,5,4,0.4,0.4
2025-04-30T1100,2399A,114.051,33.5699,漯河市,三五一五工厂,颗粒物(PM10),59,68,64,21,28,114,,110,101,6,10,5,6,0.5,0.6
2025-04-30T1100,2400A,114.0055,33.5698,漯河市,漯河大学,颗粒物(PM10),69,88,68,22,29,116,,94,93,6,13,6,7,0.4,0.5
2025-04-30T1100,2401A,114.0138,33.5828,漯河市,市水利局,,,,68,36,30,116,,109,103,,9,5,6,0.3,0.4
2025-04-30T1100,2402A,114.0261,33.5698,漯河市,市广电局,颗粒物(PM10),70,90,67,19,30,114,,104,97,1,6,5,6,0.4,0.5
2025-04-30T1100,3478A,113.9749,33.5664,漯河市,市图书馆,颗粒物(PM10),65,79,77,28,33,114,,99,95,10,16,5,5,0.4,0.5
2025-04-30T1100,4250A,114.0892,33.5882,漯河市,韶山路11号,颗粒物(PM10),69,87,74,39,30,116,,111,104,8,13,5,6,0.4,0.5
2025-04-30T1100,1798A,118.5092,31.6837,马鞍山市,湖东路四小,,,,70,31,29,167,,115,115,,27,12,10,0.8,0.7
2025-04-30T1100,1799A,118.5024,31.6449,马鞍山市,开发区,颗粒物(PM10),66,81,79,31,41,166,,107,107,19,35,10,9,1.0,0.8
2025-04-30T1100,1802A,118.6245,31.7241,马鞍山市,濮塘,臭氧1小时,67,81,69,29,34,173,,123,123,10,17,10,9,0.9,0.8
2025-04-30T1100,3633A,118.4918,31.6809,马鞍山市,雨山,颗粒物(PM10),66,82,70,39,30,162,,110,110,16,29,12,11,0.9,0.8
2025-04-30T1100,4191A,118.5274,31.72227,马鞍山市,慈湖高新区,颗粒物(PM10),67,84,70,32,34,145,,102,102,24,32,11,10,1.0,0.9
2025-04-30T1100,1686A,111.0286,21.4688,茂名市,电白南海,细颗粒物(PM2.5),58,63,50,41,31,111,,134,118,10,12,3,3,1.0,1
2025-04-30T1100,1687A,110.9294,21.6533,茂名市,茂石化七小,颗粒物(PM10),58,66,48,34,22,84,,99,86,12,11,6,5,0.9,0.9
2025-04-30T1100,1688A,110.9107,21.6687,茂名市,健康路,,,53,38,31,19,97,,120,108,10,7,4,3,,0.9
2025-04-30T1100,1689A,110.8592,21.6828,茂名市,高岭,颗粒物(PM10),59,68,54,31,21,104,,116,103,13,10,9,7,0.8,0.8
2025-04-30T1100,3450A,111.01,21.5165,茂名市,电白水东,颗粒物(PM10),51,51,43,22,20,102,,120,108,12,13,3,4,1.1,1
2025-04-30T1100,2539A,104.0308,30.0478,眉山市,黑龙滩水库,,35,7,17,6,10,109,,60,60,2,8,1,1,0.2,0.3
2025-04-30T1100,2540A,103.8416,30.0874,眉山市,气象局,,29,29,38,14,20,89,,25,25,10,27,6,6,0.5,0.6
2025-04-30T1100,3137A,103.8578,30.0744,眉山市,市委党校,,27,22,30,9,14,85,,36,36,9,26,7,7,0.1,0.2
2025-04-30T1100,3148A,103.8291,30.0564,眉山市,区人社局,,32,32,33,12,15,84,,32,32,17,29,7,7,0.4,0.5
2025-04-30T1100,1690A,116.1231,24.3284,梅州市,梅江月梅,颗粒物(PM10),54,58,45,28,28,155,,105,105,8,12,7,7,0.7,0.7
2025-04-30T1100,1691A,116.0797,24.2719,梅州市,梅县新城,颗粒物(PM10),78,106,48,30,26,156,,94,94,16,18,10,8,0.8,0.7
2025-04-30T1100,1692A,116.1248,24.2654,梅州市,环境监控中心,颗粒物(PM10),53,56,45,34,25,151,,68,68,16,26,12,8,0.7,0.7
2025-04-30T1100,3315A,116.1233,24.2991,梅州市,梅龙,颗粒物(PM10),51,51,45,26,27,150,,118,118,10,10,9,11,0.7,0.8
2025-04-30T1100,1878A,104.7778,31.4741,绵阳市,富乐山,,40,40,32,20,18,70,,33,33,18,16,9,7,0.4,0.4
2025-04-30T1100,1880A,104.6697,31.4668,绵阳市,高新区自来水公司,,35,,36,24,20,70,,33,33,18,20,4,3,0.6,0.5
2025-04-30T1100,1881A,104.7287,31.5075,绵阳市,三水厂,,46,46,38,28,20,64,,18,18,25,25,7,6,0.7,0.6
2025-04-30T1100,3491A,104.69,31.5322,绵阳市,西科大附属小学,,,,41,,19,51,,15,14,,21,9,6,0.6,0.5
2025-04-30T1100,3492A,104.5648,31.5343,绵阳市,安州区旅游局,细颗粒物(PM2.5),52,48,33,36,20,74,,26,26,18,17,10,11,0.3,0.3
2025-04-30T1100,4226A,104.7651,31.4531,绵阳市,绵阳市气象局,,,35,35,20,22,72,,35,33,,19,,4,0.4,0.4
2025-04-30T1100,1784A,129.61,44.561,牡丹江市,环保大楼,,47,47,51,28,39,118,,99,99,12,17,7,6,0.4,0.4
2025-04-30T1100,1785A,129.6115,44.5782,牡丹江市,文化广场,,44,44,53,28,44,112,,98,97,13,18,10,10,0.6,0.6
2025-04-30T1100,1786A,129.5904,44.5963,牡丹江市,第一医院,,40,40,55,21,45,118,,100,100,7,17,8,8,0.4,0.5
2025-04-30T1100,1787A,129.6364,44.6075,牡丹江市,机车工厂,,48,48,62,25,38,110,,89,89,11,21,8,22,0.5,0.6
2025-04-30T1100,1788A,129.6386,44.5462,牡丹江市,第一中学,,,57,56,20,39,126,,99,99,,21,9,8,0.6,0.6
2025-04-30T1100,2531A,105.0703,29.61,内江市,市监测站,,34,,19,15,16,106,,54,54,9,13,8,8,0.9,1
2025-04-30T1100,2532A,105.0717,29.5947,内江市,东兴区政府,,31,11,18,7,10,99,,46,46,8,15,10,11,0.6,0.7
2025-04-30T1100,2533A,105.0653,29.5817,内江市,内江二中,,31,27,28,11,16,97,,50,50,10,15,6,6,0.3,0.4
2025-04-30T1100,2534A,105.0406,29.5822,内江市,内江日报社,,,,21,,16,96,,46,46,,13,,9,0.2,0.3
2025-04-30T1100,2628A,92.0657,31.4846,那曲市,那曲监测站,颗粒物(PM10),54,57,30,22,19,119,,112,107,2,3,9,7,0.5,0.6
2025-04-30T1100,4243A,92.0515,31.4787,那曲市,那曲市委宣传部,,43,43,43,15,20,129,,122,119,5,6,7,7,0.3,0.3
2025-04-30T1100,1290A,115.8931,28.6843,南昌市,省外办,细颗粒物(PM2.5),85,96,77,63,53,25,,16,16,78,48,10,7,0.9,0.8
2025-04-30T1100,1291A,115.8886,28.7003,南昌市,省林业公司,颗粒物(PM10),84,117,96,56,49,36,,10,7,58,41,7,7,1.2,0.9
2025-04-30T1100,1292A,115.8126,28.7442,南昌市,林科所,颗粒物(PM10),68,85,65,48,39,83,,75,74,38,29,10,6,0.5,0.5
2025-04-30T1100,1294A,115.8518,28.687,南昌市,建工学校,颗粒物(PM10),81,111,90,40,47,34,,18,18,73,50,8,6,1.1,0.9
2025-04-30T1100,1295A,115.8921,28.6424,南昌市,象湖,颗粒物(PM10),68,85,77,39,44,62,,23,23,28,37,11,8,0.9,0.9
2025-04-30T1100,1296A,115.7423,28.7996,南昌市,武术学校,,50,38,44,35,30,14,,20,16,6,4,4,5,0.6,0.6
2025-04-30T1100,3046A,115.9084,28.6062,南昌市,机电学校,颗粒物(PM10),72,94,91,48,45,66,,29,29,28,22,7,5,0.6,0.6
2025-04-30T1100,3690A,115.9721,28.7031,南昌市,外国语学校,颗粒物(PM10),72,93,78,39,40,62,,65,55,29,19,13,9,0.7,0.5
2025-04-30T1100,4192A,115.9316,28.68677,南昌市,南京东路235号,颗粒物(PM10),84,118,96,51,50,54,,36,33,53,37,19,12,1.2,0.9
2025-04-30T1100,1905A,106.056,30.8064,南充市,西山风景区,,,,17,,12,,,82,,,6,,3,,0.3
2025-04-30T1100,1906A,106.0789,30.8023,南充市,南充市委,,38,37,33,26,20,69,,36,36,10,15,4,4,0.4,0.5
2025-04-30T1100,1907A,106.1031,30.8217,南充市,南充炼油厂,,45,45,34,29,19,62,,30,30,10,12,4,3,0.4,0.4
2025-04-30T1100,4227A,106.1083,30.7884,南充市,梨树横街98号,,43,43,37,22,18,66,,35,35,9,13,4,3,0.2,0.2
2025-04-30T1100,4304A,106.1172,30.843,南充市,清泉寺北路188号,颗粒物(PM10),65,80,37,35,17,61,,28,28,12,12,4,3,0.1,0.4
2025-04-30T1100,4305A,106.067,30.7616,南充市,同庆路1号,,43,43,32,19,21,64,,35,35,9,13,3,3,0.0,0.1
2025-04-30T1100,1151A,118.8086,32.1065,南京市,迈皋桥,颗粒物(PM10),57,63,57,31,33,139,,102,102,46,37,33,7,1.6,0.7
2025-04-30T1100,1152A,118.7538,32.0551,南京市,草场门,颗粒物(PM10),69,88,71,31,35,131,,90,90,37,33,13,4,1.3,0.6
2025-04-30T1100,1153A,118.7794,32.0745,南京市,山西路,颗粒物(PM10),71,92,78,29,32,140,,101,101,37,31,20,8,1.4,0.6
2025-04-30T1100,1154A,118.7752,32.0023,南京市,中华门,颗粒物(PM10),62,73,65,34,33,135,,76,76,27,35,18,9,0.9,0.7
2025-04-30T1100,1155A,118.8109,32.0309,南京市,瑞金路,颗粒物(PM10),68,85,76,34,37,150,,90,90,20,30,6,6,0.8,0.6
2025-04-30T1100,1156A,118.7997,32.0754,南京市,玄武湖,颗粒物(PM10),66,82,64,26,32,129,,94,94,9,12,17,10,1.3,0.7
2025-04-30T1100,1157A,118.6414,32.0931,南京市,浦口,颗粒物(PM10),72,94,68,20,28,147,,87,87,29,28,11,9,0.8,0.7
2025-04-30T1100,1158A,118.7356,31.9996,南京市,奥体中心,颗粒物(PM10),97,144,75,31,33,148,,86,86,26,32,20,13,1.0,0.6
2025-04-30T1100,1159A,118.9125,32.1028,南京市,仙林大学城,颗粒物(PM10),62,73,72,34,37,145,,102,102,27,30,16,12,0.9,0.7
2025-04-30T1100,3422A,118.8436,31.9198,南京市,江宁彩虹桥,颗粒物(PM10),60,70,68,36,34,163,,85,85,18,40,4,4,0.6,0.6
2025-04-30T1100,3427A,118.8554,32.3578,南京市,六合雄州,,49,49,63,33,35,149,,85,85,50,60,22,10,1.1,0.8
2025-04-30T1100,4249A,118.8708,31.3402,南京市,汶溪路181号,颗粒物(PM10),56,61,58,34,37,151,,99,99,18,24,7,6,0.4,0.6
2025-04-30T1100,4312A,119.019,31.6512,南京市,中山西路1号,,,46,53,34,34,157,,119,119,,22,8,7,,0.7
2025-04-30T1100,1401A,108.3103,22.7881,南宁市,二十一中,,43,43,49,30,28,105,,116,100,11,9,3,5,0.7,0.9
2025-04-30T1100,1402A,108.3141,22.8528,南宁市,北湖,,39,,48,27,32,108,,114,98,13,13,5,7,0.7,0.8
2025-04-30T1100,1403A,108.3206,22.8225,南宁市,市监测站,,,49,49,32,31,96,,107,95,14,11,5,6,,0.6
2025-04-30T1100,1404A,108.3829,22.8037,南宁市,大自然花园,,49,44,46,34,33,110,,113,103,6,8,5,6,0.7,0.7
2025-04-30T1100,1405A,108.4394,22.7904,南宁市,仙葫,,35,34,44,24,34,93,,92,85,8,10,5,5,0.7,0.8
2025-04-30T1100,1406A,108.2397,22.8467,南宁市,区农职院,,47,47,47,27,32,104,,107,97,13,12,4,6,0.8,0.7
2025-04-30T1100,1407A,108.3275,22.735,南宁市,英华嘉园,,38,36,47,26,29,106,,104,100,12,16,7,9,0.6,0.6
2025-04-30T1100,3401A,108.4834,22.7618,南宁市,红星社区,,38,38,46,26,29,107,,93,89,5,10,8,9,0.5,0.6
2025-04-30T1100,4221A,108.2177,22.7774,南宁市,乐贤路16号,,38,38,50,24,29,100,,77,77,8,19,5,6,0.5,0.6
2025-04-30T1100,2331A,118.0966,26.6761,南平市,茫荡山,,,,,,,,,,,,,,,,
2025-04-30T1100,2332A,118.1681,26.6369,南平市,南平市监测站,,44,34,37,20,26,139,,77,77,8,18,5,5,0.6,0.8
2025-04-30T1100,2333A,118.1825,26.6489,南平市,南平铝业有限公司,,44,34,41,18,21,140,,71,71,5,16,4,6,0.7,0.8
2025-04-30T1100,2334A,118.1756,26.6272,南平市,南平七中,颗粒物(PM10),55,59,41,22,24,136,,90,90,8,14,5,5,0.6,0.7
2025-04-30T1100,1168A,120.9098,31.9663,南通市,狼山街道,颗粒物(PM10),62,73,56,31,24,136,,58,58,36,54,8,6,0.7,0.5
2025-04-30T1100,1169A,120.86,32.0005,南通市,虹桥,,,,48,,23,126,,74,74,,47,7,5,0.9,0.7
2025-04-30T1100,1170A,120.87,32.02,南通市,城中,颗粒物(PM10),64,77,62,34,23,133,,77,77,40,45,8,6,0.6,0.4
2025-04-30T1100,1171A,120.94,31.93,南通市,星湖花园,,,,50,,21,132,,72,72,,40,,6,0.7,0.6
2025-04-30T1100,1172A,120.81,32.0417,南通市,紫琅学院,颗粒物(PM10),59,68,56,28,21,120,,58,58,36,51,10,7,0.8,0.5
2025-04-30T1100,3291A,121.067,32.062,南通市,通州监测站,颗粒物(PM10),62,73,53,29,20,128,,73,73,34,32,10,7,0.6,0.4
2025-04-30T1100,3432A,120.9348,31.9883,南通市,环境教育馆,颗粒物(PM10),64,78,52,37,22,137,,75,75,41,46,8,6,0.4,0.2
2025-04-30T1100,2404A,112.5224,33.0122,南阳市,瓦房庄,颗粒物(PM10),60,69,67,18,20,98,,60,60,11,18,6,10,0.5,0.6
2025-04-30T1100,2405A,112.5003,32.9735,南阳市,汉画馆,颗粒物(PM10),60,69,63,21,22,92,,46,46,11,23,7,9,0.4,0.5
2025-04-30T1100,2406A,112.5573,33.027,南阳市,气象站,颗粒物(PM10),67,83,70,19,24,95,,59,59,10,15,6,9,0.7,0.8
2025-04-30T1100,2407A,112.5481,32.9689,南阳市,理工学院,颗粒物(PM10),65,80,67,26,28,97,,51,51,7,18,4,8,0.4,0.6
2025-04-30T1100,4008A,112.5234,32.9922,南阳市,卧龙区政府,,,82,67,27,29,96,,48,48,11,20,,8,,0.7
2025-04-30T1100,1234A,121.8358,29.911,宁波市,区环保大楼,,38,31,34,10,15,120,,112,112,3,10,8,9,0.4,0.4
2025-04-30T1100,1235A,121.56,29.82,宁波市,万里学院,,39,30,34,12,15,123,,107,107,12,18,8,6,0.4,0.4
2025-04-30T1100,1236A,121.713,29.9572,宁波市,龙赛医院,,41,33,33,10,13,130,,118,118,5,17,5,6,0.5,0.6
2025-04-30T1100,1239A,121.633,29.7733,宁波市,钱湖水厂,,40,23,25,12,12,128,,114,114,7,10,8,8,0.3,0.3
2025-04-30T1100,1240A,121.5856,29.8635,宁波市,太古小学,,40,35,31,15,12,127,,109,109,8,13,7,6,0.6,0.6
2025-04-30T1100,1241A,121.524,29.8674,宁波市,市环境监测中心,,,35,32,6,13,117,,103,102,16,20,,13,0.5,0.4
2025-04-30T1100,2871A,121.6147,29.9017,宁波市,万里国际学校,,41,27,36,14,12,130,,116,116,10,11,8,8,0.4,0.4
2025-04-30T1100,3710A,121.5594,29.8975,宁波市,白沙活动中心,,39,23,30,10,13,124,,105,105,10,16,9,8,0.5,0.5
2025-04-30T1100,2339A,119.5001,26.6946,宁德市,金涵水库,,,,,,,,,,,,,,,,
2025-04-30T1100,2341A,119.5388,26.6612,宁德市,宁德市监测站,颗粒物(PM10),53,56,36,27,22,109,,76,76,24,19,6,5,0.7,0.5
2025-04-30T1100,3209A,119.5231,26.6562,宁德市,宁德一中,,46,46,38,25,22,110,,80,80,18,13,8,7,0.6,0.5
2025-04-30T1100,2618A,98.8601,25.8567,怒江傈僳族自治州,州监测站,,24,22,31,16,19,75,,78,74,3,6,6,6,0.2,0.3
2025-04-30T1100,2619A,98.8546,25.8417,怒江傈僳族自治州,泸水一中,,26,24,31,18,20,60,,60,58,7,13,6,7,0.4,0.4
2025-04-30T1100,1888A,101.6891,26.571,攀枝花市,弄弄坪,,28,28,39,7,20,87,,90,88,14,13,6,8,0.5,0.6
2025-04-30T1100,1889A,101.5769,26.5928,攀枝花市,河门口,,27,25,37,12,20,84,,82,82,16,13,14,13,1.2,0.9
2025-04-30T1100,1890A,101.7169,26.585,攀枝花市,炳草岗,,26,21,36,11,20,81,,89,82,21,15,14,9,0.4,0.5
2025-04-30T1100,1891A,101.7369,26.5008,攀枝花市,仁和,,32,20,35,9,20,100,,93,93,8,12,8,9,0.4,0.5
2025-04-30T1100,2835A,101.7227,26.567,攀枝花市,四十中小,,31,24,36,8,21,99,,97,96,7,8,8,8,0.3,0.4
2025-04-30T1100,1604A,122.0303,41.1489,盘锦市,开发区,细颗粒物(PM2.5),89,94,79,66,67,77,,101,84,27,23,11,10,0.8,0.7
2025-04-30T1100,1605A,122.0485,41.0883,盘锦市,兴隆台,细颗粒物(PM2.5),82,82,84,60,60,104,,99,93,27,24,13,12,0.9,0.8
2025-04-30T1100,1606A,121.8297,41.1028,盘锦市,新生街道,,49,49,57,31,67,75,,104,77,23,24,11,10,0.6,0.7
2025-04-30T1100,1832A,113.3257,33.742,平顶山市,新华旅馆,颗粒物(PM10),58,65,64,23,28,120,,75,75,14,18,6,6,0.4,0.5
2025-04-30T1100,1833A,113.2919,33.737,平顶山市,规划设计院,颗粒物(PM10),58,65,60,25,24,118,,57,57,14,24,7,6,0.6,0.5
2025-04-30T1100,1834A,113.182,33.774,平顶山市,平顶山工学院,颗粒物(PM10),53,56,57,31,24,120,,77,77,11,14,4,3,0.4,0.4
2025-04-30T1100,3204A,113.3025,33.73,平顶山市,规划局,颗粒物(PM10),64,78,65,29,23,118,,60,60,12,21,7,7,0.4,0.4
2025-04-30T1100,3594A,112.8867,33.9116,平顶山市,石龙区,,,90,98,18,23,107,,28,28,,44,9,12,,0.1
2025-04-30T1100,2656A,106.6692,35.5461,平凉市,聚贤嘉苑,,,,100,,25,110,,72,72,,25,13,14,,0.4
2025-04-30T1100,2657A,106.7021,35.5307,平凉市,博物馆,颗粒物(PM10),384,487,115,96,28,109,,75,75,5,18,9,9,0.4,0.4
2025-04-30T1100,2347A,114.0997,27.5002,萍乡市,武功山,,38,38,35,18,23,79,,53,53,7,8,14,13,1.2,1
2025-04-30T1100,2348A,113.8385,27.6434,萍乡市,中医院,细颗粒物(PM2.5),77,98,68,56,33,42,,43,40,38,20,26,14,1.7,0.9
2025-04-30T1100,2349A,113.8493,27.6253,萍乡市,市政府车库,,,,56,,41,50,,51,46,,17,,7,1.6,0.8
2025-04-30T1100,2350A,113.8676,27.6435,萍乡市,市环保局,细颗粒物(PM2.5),74,94,68,54,42,39,,45,42,49,22,24,10,1.8,1
2025-04-30T1100,2351A,113.866,27.6198,萍乡市,安源区政府,,,71,63,58,37,50,,44,44,28,14,,7,1.5,0.8
2025-04-30T1100,2319A,119.0141,25.4325,莆田市,荔城区仓后路,,49,49,52,16,22,133,,95,95,15,17,4,4,0.5,0.6
2025-04-30T1100,2320A,119.0015,25.4553,莆田市,莆田市监测站,,44,43,38,13,19,139,,94,94,11,13,5,5,0.3,0.4
2025-04-30T1100,2321A,119.1119,25.4561,莆田市,涵江区六中,,41,41,46,14,22,125,,95,95,18,20,4,5,0.3,0.5
2025-04-30T1100,2322A,119.1013,25.3215,莆田市,秀屿区政府,,42,37,44,7,22,132,,92,92,11,18,6,6,0.6,0.6
2025-04-30T1100,2323A,118.981,25.4792,莆田市,东圳水库,,,,,,,,,,,,,,,,
2025-04-30T1100,2392A,115.0312,35.7636,濮阳市,环保局,,,70,59,20,18,91,,74,72,,18,,10,,0.7
2025-04-30T1100,2394A,115.0574,35.7609,濮阳市,油田运输公司,颗粒物(PM10),65,79,64,24,22,101,,78,78,21,19,11,9,0.7,0.8
2025-04-30T1100,3021A,115,35.7668,濮阳市,濮水河管理处,颗粒物(PM10),68,85,67,24,24,93,,66,66,23,19,11,8,0.6,0.6
2025-04-30T1100,4216A,115.0924,35.7686,濮阳市,任丘路479号,颗粒物(PM10),69,87,70,24,23,104,,76,76,19,17,11,10,0.8,0.8
2025-04-30T1100,2601A,100.98,22.7633,普洱市,市环保局,,33,33,33,15,19,72,,72,70,7,8,7,7,0.7,0.7
2025-04-30T1100,2602A,100.9817,22.8322,普洱市,普洱第二中学,,33,33,24,8,13,79,,69,69,10,12,7,7,0.7,0.7
2025-04-30T1100,2262A,131.0518,45.8751,七台河市,新一中,,41,41,23,28,12,114,,84,84,13,11,13,12,0.8,0.7
2025-04-30T1100,3345A,131.0577,45.7879,七台河市,中波台,颗粒物(PM10),51,52,23,23,11,85,,73,73,23,17,8,6,0.5,0.5
2025-04-30T1100,3637A,131.0176,45.7761,七台河市,人民广场,颗粒物(PM10),55,60,31,30,20,106,,98,98,14,12,11,10,0.5,0.5
2025-04-30T1100,3684A,130.8781,45.8222,七台河市,新建矿广场,颗粒物(PM10),58,66,39,25,14,100,,84,84,18,14,12,8,0.6,0.5
2025-04-30T1100,1779A,123.9305,47.3636,齐齐哈尔市,安居小区,,,14,105,3,18,,,62,61,,12,,5,,0.4
2025-04-30T1100,1780A,123.9488,47.3386,齐齐哈尔市,中心广场,,26,12,128,3,16,81,,69,69,6,12,7,9,0.1,0.2
2025-04-30T1100,1781A,123.9483,47.3227,齐齐哈尔市,农牧车辆厂,,25,22,92,3,18,80,,67,67,5,9,5,5,0.2,0.2
2025-04-30T1100,1783A,123.945,47.2988,齐齐哈尔市,市环境监测站,,,16,93,3,16,,,68,67,5,9,4,4,0.6,0.6
2025-04-30T1100,3662A,123.6333,47.2075,齐齐哈尔市,富区青少年活动中心,,24,14,70,3,16,76,,62,62,7,11,8,5,0.5,0.6
2025-04-30T1100,2591A,107.9783,26.5747,黔东南苗族侗族自治州,市环境监测站,,,19,35,15,24,,,65,58,10,10,5,4,,0.4
2025-04-30T1100,2881A,107.8908,26.5311,黔东南苗族侗族自治州,凯里学院,,22,,24,15,21,56,,62,57,14,9,10,3,0.5,0.5
2025-04-30T1100,2593A,107.5228,26.2403,黔南布依族苗族自治州,小围寨,,24,12,18,3,9,75,,73,73,6,6,2,3,0.2,0.2
2025-04-30T1100,3538A,107.5175,26.2978,黔南布依族苗族自治州,沙坝,,28,12,23,3,12,88,,81,81,5,7,4,4,0.3,0.5
2025-04-30T1100,2589A,104.9022,25.0925,黔西南布依族苗族自治州,场坝街,,25,20,33,3,22,79,,68,68,17,14,4,5,0.3,0.4
2025-04-30T1100,2590A,104.8811,25.0992,黔西南布依族苗族自治州,坪东大道,,25,11,28,8,28,78,,67,67,11,15,3,5,0.3,0.4
2025-04-30T1100,2502A,108.6236,21.9667,钦州市,市环保站,,23,7,40,3,21,73,,87,74,18,17,1,4,0.8,0.8
2025-04-30T1100,2503A,108.6549,21.9481,钦州市,沙埠小学,,27,27,51,8,30,78,,70,63,14,22,4,8,0.7,0.7
2025-04-30T1100,2504A,108.5989,21.7431,钦州市,港区一小,颗粒物(PM10),59,67,76,23,38,85,,90,86,27,25,9,11,0.8,0.9
2025-04-30T1100,3404A,108.5959,21.9633,钦州市,北职校,,25,25,45,6,32,62,,81,70,15,20,6,9,1.0,0.8
2025-04-30T1100,1043A,119.7493,40.0116,秦皇岛市,第一关,,,124,122,39,61,86,,73,73,,43,12,11,0.4,0.6
2025-04-30T1100,1044A,119.5897,39.9499,秦皇岛市,监测站,颗粒物(PM10),78,105,118,43,48,81,,73,73,28,38,11,9,0.5,0.6
2025-04-30T1100,1046A,119.5251,39.9041,秦皇岛市,建设大厦,颗粒物(PM10),108,165,126,40,47,88,,81,81,30,33,10,10,0.5,0.8
2025-04-30T1100,3132A,119.610547,39.943889,秦皇岛市,文明里,颗粒物(PM10),95,139,122,33,45,89,,82,82,28,42,11,9,0.3,0.5
2025-04-30T1100,4198A,119.5090,39.8253,秦皇岛市,北戴河轮滑馆,颗粒物(PM10),75,99,91,47,49,96,,91,91,21,24,8,5,0.5,0.5
2025-04-30T1100,1307A,120.6659,36.2403,青岛市,仰口,颗粒物(PM10),62,73,59,27,31,162,,158,158,6,9,8,10,0.5,0.5
2025-04-30T1100,1310A,120.4134,36.0658,青岛市,市南区东部子站,颗粒物(PM10),90,129,84,61,35,145,,112,112,21,20,10,9,0.7,0.6
2025-04-30T1100,1311A,120.3664,36.1032,青岛市,四方区子站,细颗粒物(PM2.5),98,117,77,73,41,154,,121,121,28,26,18,17,0.9,0.8
2025-04-30T1100,1312A,120.2994,36.054,青岛市,市南区西部子站,细颗粒物(PM2.5),85,97,68,63,37,136,,107,107,32,30,9,9,1.0,0.9
2025-04-30T1100,1313A,120.4581,36.0858,青岛市,崂山区子站,颗粒物(PM10),84,117,79,61,33,157,,122,122,24,21,11,10,0.8,0.7
2025-04-30T1100,1315A,120.3999,36.3083,青岛市,城阳区子站,颗粒物(PM10),82,114,80,42,29,148,,125,125,28,22,9,8,0.8,0.6
2025-04-30T1100,1966A,120.0405,35.8735,青岛市,黄岛区4号,颗粒物(PM10),64,78,67,39,29,124,,95,95,35,31,12,11,0.8,0.9
2025-04-30T1100,3362A,120.5014,36.4034,青岛市,即墨2号,颗粒物(PM10),90,129,100,46,32,164,,138,138,16,18,11,11,0.7,0.7
2025-04-30T1100,3642A,120.3503,36.0736,青岛市,市北区南部,,,78,61,68,39,125,,108,107,,17,8,8,1.0,0.8
2025-04-30T1100,3643A,120.3948,36.1805,青岛市,李沧区北部,颗粒物(PM10),81,112,74,58,38,150,,113,113,33,31,13,11,0.9,0.8
2025-04-30T1100,4290A,120.1969,35.9546,青岛市,珠江路669号,细颗粒物(PM2.5),98,112,78,73,48,132,,104,104,27,25,10,9,0.9,0.8
2025-04-30T1100,1702A,113.0426,23.691,清远市,环保大楼,颗粒物(PM10),58,65,55,40,29,130,,64,61,33,34,8,8,0.8,0.8
2025-04-30T1100,1703A,113.0208,23.7106,清远市,凤城街办,"颗粒物(PM10),细颗粒物(PM2.5)",62,73,62,44,30,118,,64,64,35,35,8,9,0.6,0.6
2025-04-30T1100,3025A,113.0477,23.6344,清远市,技师学院,,,77,61,39,32,117,,53,53,,35,9,9,,0.8
2025-04-30T1100,3318A,112.9903,23.7403,清远市,清新太和,颗粒物(PM10),59,67,56,40,31,134,,76,76,24,23,9,11,0.6,0.6
2025-04-30T1100,3455A,113.076,23.7198,清远市,清城东城,颗粒物(PM10),61,72,58,43,35,117,,50,50,32,26,9,9,0.9,0.8
2025-04-30T1100,2661A,107.6325,35.7357,庆阳市,庆阳五中,颗粒物(PM10),486,586,153,158,47,95,,82,81,4,13,2,7,0.4,0.5
2025-04-30T1100,2662A,107.6364,35.7067,庆阳市,市环保局,颗粒物(PM10),465,565,143,119,36,101,,84,84,3,10,5,9,0.5,0.5
2025-04-30T1100,1916A,103.7897,25.5035,曲靖市,环境监测站,,28,28,29,11,15,85,,72,72,16,13,12,7,0.6,0.5
2025-04-30T1100,1917A,103.8,25.5364,曲靖市,烟厂办公区,,29,23,24,20,14,84,,78,78,14,10,9,5,0.9,0.6
2025-04-30T1100,3376A,103.7947,25.462,曲靖市,南苑二区,,26,20,24,11,16,81,,72,72,22,12,21,7,0.8,0.5
2025-04-30T1100,3377A,103.7444,25.5261,曲靖市,曲靖师范学院,,31,,24,6,15,98,,83,83,8,10,6,6,0.2,0.4
2025-04-30T1100,1264A,118.8692,28.9398,衢州市,环保大楼,颗粒物(PM10),68,86,59,48,31,120,,58,58,26,25,10,4,1.0,0.6
2025-04-30T1100,1265A,118.8709,28.9666,衢州市,实验学校,,,64,56,42,33,121,,45,45,27,33,,5,,0.4
2025-04-30T1100,1266A,118.8621,28.9808,衢州市,衢州学院,"颗粒物(PM10),细颗粒物(PM2.5)",60,69,57,43,33,113,,50,50,26,40,8,6,0.8,0.6
2025-04-30T1100,1611A,118.5819,24.9117,泉州市,涂山街,,49,49,54,20,28,147,,91,91,19,18,4,5,0.5,0.6
2025-04-30T1100,1612A,118.5972,24.8978,泉州市,津头埔,,46,36,52,18,28,147,,96,95,23,25,3,4,0.5,0.6
2025-04-30T1100,1613A,118.6663,24.9424,泉州市,万安,,47,45,49,15,22,149,,96,96,16,21,5,6,0.5,0.6
2025-04-30T1100,1614A,118.6117,24.9604,泉州市,清源山,,,,,,,,,,,,,,,,
2025-04-30T1100,3529A,118.6333,24.9264,泉州市,城华南路,,44,35,48,19,26,140,,106,106,17,18,4,5,0.5,0.6
2025-04-30T1100,2626A,88.8876,29.2718,日喀则市,日喀则监测站,,49,28,24,10,9,155,,110,110,6,8,3,5,0.2,0.3
2025-04-30T1100,3726A,88.8781,29.2426,日喀则市,林业技术推广中心,,43,30,25,9,8,137,,95,95,3,4,6,6,0.4,0.5
2025-04-30T1100,1659A,119.471,35.4209,日照市,监测站,颗粒物(PM10),80,110,91,35,35,150,,96,96,24,27,8,11,0.8,0.9
2025-04-30T1100,1660A,119.523,35.4216,日照市,市政府广场,颗粒物(PM10),85,119,76,38,28,141,,105,105,35,28,11,10,0.9,0.7
2025-04-30T1100,1661A,119.5587,35.4044,日照市,港务局,颗粒物(PM10),134,217,115,49,41,129,,91,91,49,44,14,13,1.1,1.1
2025-04-30T1100,3507A,119.5328,35.4625,日照市,职业技术学院,,,105,81,44,33,,,114,114,24,21,10,11,0.8,0.8
2025-04-30T1100,3604A,119.3266,35.1044,日照市,岚山环保分局,颗粒物(PM10),74,97,84,46,35,164,,107,107,25,30,9,8,0.8,0.7
2025-04-30T1100,1835A,111.1922,34.7752,三门峡市,市政府,颗粒物(PM10),70,89,60,33,23,75,,30,30,31,48,13,12,0.7,0.6
2025-04-30T1100,1836A,111.1587,34.7942,三门峡市,开发区,颗粒物(PM10),63,75,62,31,21,76,,46,46,22,25,8,8,0.5,0.5
2025-04-30T1100,1838A,111.143,34.7955,三门峡市,风景区,颗粒物(PM10),79,107,55,43,21,78,,47,47,18,17,11,10,0.4,0.4
2025-04-30T1100,3039A,111.1911,34.7829,三门峡市,三门峡市第一小学,颗粒物(PM10),78,106,65,38,26,82,,49,49,24,30,10,10,0.6,0.5
