timepoint,stationcode,longitude,latitude,area,positionname,primarypollutant,aqi,pm10,pm10_24h,pm2_5,pm2_5_24h,o3,o3_24h,o3_8h,o3_8h_24h,no2,no2_24h,so2,so2_24h,co,co_24h
2026-06-28T2300,2568A,102.2503,31.8896,阿坝藏族羌族自治州,马师校,,35,35,23,9,8,25,25,55,46,11,6,3,3,0.4,0.3
2026-06-28T2300,3994A,102.2174,31.9016,阿坝藏族羌族自治州,马尔康中学西区,,13,13,10,9,7,40,40,68,64,6,5,2,2,0.3,0.2
2026-06-28T2300,2695A,80.2899,41.1684,阿克苏地区,电视台,颗粒物(PM10),67,73,67,19,14,110,110,136,133,15,8,3,3,0.7,0.6
2026-06-28T2300,2696A,80.2592,41.1541,阿克苏地区,艺术中心,,45,45,49,21,17,104,104,142,137,1,2,4,4,0.7,0.6
2026-06-28T2300,2205A,105.699,38.8409,阿拉善盟,蒙二幼,颗粒物(PM10),95,112,120,47,46,98,98,130,118,3,3,10,10,0.3,0.3
2026-06-28T2300,2206A,105.7198,38.8508,阿拉善盟,环保局新楼,颗粒物(PM10),98,117,120,42,38,103,103,121,111,2,12,9,12,0.4,0.5
2026-06-28T2300,2708A,88.1266,47.8515,阿勒泰地区,市站,,37,37,19,12,3,51,51,130,114,53,11,7,7,0.3,0.3
2026-06-28T2300,4166A,88.1198,47.7931,阿勒泰地区,阿勒泰路33号,,35,35,16,3,3,106,106,123,120,9,5,6,6,0.4,0.4
2026-06-28T2300,2630A,80.1171,32.4999,阿里地区,阿里监测站,,50,50,13,9,4,144,144,144,142,3,5,5,5,0.3,0.3
2026-06-28T2300,3192A,80.0906,32.5029,阿里地区,阿里藏医院,颗粒物(PM10),55,56,12,8,3,148,148,146,146,1,2,7,7,0.5,0.5
2026-06-28T2300,2644A,109.0088,32.6974,安康市,汉滨区检察院,,32,32,28,12,12,19,19,81,54,10,7,2,2,0.5,0.5
2026-06-28T2300,4054A,109.0324,32.6913,安康市,市邮政管理局,,30,30,29,13,16,24,24,91,60,13,8,5,4,0.6,0.6
2026-06-28T2300,2291A,117.0806,30.5181,安庆市,环科院,二氧化氮(NO2),63,52,47,35,32,18,18,190,143,125,26,9,9,0.6,0.8
2026-06-28T2300,2292A,117.0331,30.5118,安庆市,马山宾馆,细颗粒物(PM2.5),52,NA,41,36,33,23,23,168,132,101,29,3,2,0.6,0.5
2026-06-28T2300,2294A,116.9897,30.6146,安庆市,安庆大学,细颗粒物(PM2.5),58,46,49,39,37,121,121,203,162,10,14,3,6,0.5,0.5
2026-06-28T2300,3173A,117.0598,30.5351,安庆市,市人大,细颗粒物(PM2.5),54,43,43,37,32,79,79,198,160,30,18,5,6,0.6,0.6
2026-06-28T2300,3123A,105.9408,26.2431,安顺市,凤凰山,,25,25,25,16,13,50,50,64,60,14,8,6,8,0.5,0.4
2026-06-28T2300,3124A,105.9443,26.2567,安顺市,金钟山,,23,22,25,16,15,53,53,63,60,10,6,6,9,0.5,0.5
2026-06-28T2300,3125A,105.8983,26.248,安顺市,娄家坡,,16,16,18,10,13,51,51,61,58,8,5,5,8,0.8,0.7
2026-06-28T2300,1819A,114.3552,36.1017,安阳市,红庙街,,41,21,42,16,20,129,129,201,158,7,11,3,8,0.5,0.6
2026-06-28T2300,1820A,114.361,36.0681,安阳市,银杏小区,,41,29,42,18,23,130,130,206,161,4,7,3,5,0.5,0.5
2026-06-28T2300,3141A,114.3921,36.0879,安阳市,信访局,,43,21,39,17,23,135,135,212,173,6,8,3,5,0.5,0.7
2026-06-28T2300,3669A,114.4706,36.0634,安阳市,左辅环卫站,颗粒物(PM10),53,54,43,15,21,120,120,188,157,10,13,4,5,0.7,0.8
2026-06-28T2300,4117A,114.2918,36.0769,安阳市,钢三路198号,,35,28,37,20,23,112,112,186,145,10,10,6,7,0.8,0.7
2026-06-28T2300,1748A,123.0441,41.1201,鞍山市,深沟寺,,30,23,27,13,14,96,96,128,106,6,7,7,7,0.5,0.6
2026-06-28T2300,1749A,123.011,41.0931,鞍山市,太阳城,,27,24,29,16,14,86,86,135,109,7,15,7,8,0.7,0.8
2026-06-28T2300,1750A,123.0483,41.1445,鞍山市,太平,,30,27,35,12,15,96,96,127,102,8,12,8,8,0.6,0.7
2026-06-28T2300,1751A,122.964,41.0968,鞍山市,铁西三道街,,32,31,43,15,18,101,101,150,120,11,17,5,7,0.6,1
2026-06-28T2300,1753A,123.0219,41.0822,鞍山市,明达新区,,29,22,26,13,14,92,92,133,113,8,9,4,5,0.6,0.7
2026-06-28T2300,4201A,122.944647,41.082639,鞍山市,兴盛南路290号,,36,36,47,18,23,91,91,141,115,18,18,6,7,0.6,0.9
2026-06-28T2300,2195A,107.4206,40.7609,巴彦淖尔市,附二中,颗粒物(PM10),58,61,48,30,23,94,94,168,145,20,15,13,16,0.6,0.6
2026-06-28T2300,2196A,107.37,40.7372,巴彦淖尔市,市环保大楼,颗粒物(PM10),60,63,50,19,16,104,104,154,142,15,10,10,10,0.6,0.6
2026-06-28T2300,1956A,86.1476,41.7529,巴音郭楞蒙古自治州,孔雀公园,颗粒物(PM10),57,59,36,18,9,110,110,124,115,18,6,6,5,0.3,0.2
2026-06-28T2300,1957A,86.1971,41.7166,巴音郭楞蒙古自治州,棉纺厂,颗粒物(PM10),64,69,39,20,13,113,113,128,124,12,7,/,/,/,/
2026-06-28T2300,1958A,86.236,41.7172,巴音郭楞蒙古自治州,经济开发区,颗粒物(PM10),53,53,32,16,8,121,121,124,123,8,7,3,3,0.3,0.3
2026-06-28T2300,3181A,106.776805,31.852614,巴中市,市五中,,40,NA,21,28,22,70,70,91,76,12,11,8,8,0.8,0.5
2026-06-28T2300,3183A,106.7419,31.8654,巴中市,圣泉水务公司,,39,NA,22,27,14,76,76,91,78,10,13,9,9,0.7,0.7
2026-06-28T2300,3616A,106.7617,31.8343,巴中市,市中心医院,,46,46,30,27,15,72,72,97,83,12,12,7,7,0.8,0.7
2026-06-28T2300,2235A,122.7909,45.608,白城市,洮北区环保局,,35,NA,24,24,18,106,106,125,118,5,7,4,4,0.2,0.2
2026-06-28T2300,2236A,122.8741,45.5725,白城市,市环保局,,35,NA,17,24,14,88,88,108,100,12,11,4,4,0.3,0.3
2026-06-28T2300,2231A,126.4219,41.9172,白山市,喜丰,,43,43,46,14,10,70,70,125,112,24,17,11,11,0.6,0.6
2026-06-28T2300,2232A,126.4082,41.9416,白山市,环保局,,26,20,22,8,8,83,83,124,115,7,8,8,11,0.3,0.4
2026-06-28T2300,2647A,104.1727,36.5448,白银市,第三小学,,30,26,39,13,14,94,94,135,122,16,11,28,8,0.4,0.4
2026-06-28T2300,2648A,104.1467,36.5482,白银市,动力公司,,32,27,34,13,13,100,100,134,123,9,9,17,5,0.4,0.3
2026-06-28T2300,2512A,106.6102,23.901,百色市,市监测站,,18,18,31,3,10,24,24,100,66,13,11,6,8,0.4,0.4
2026-06-28T2300,2513A,106.6524,23.8842,百色市,市中心血站,,22,22,38,10,16,35,35,94,62,6,10,10,10,0.5,0.7
2026-06-28T2300,4133A,106.6273,23.8798,百色市,龙景西路,,20,20,39,3,16,34,34,108,70,7,10,9,11,0.5,0.6
2026-06-28T2300,2270A,117.396,32.9389,蚌埠市,工人疗养院,细颗粒物(PM2.5),80,59,46,50,30,153,153,195,180,12,17,5,6,0.6,0.4
2026-06-28T2300,2271A,117.3606,32.9428,蚌埠市,百货大楼,细颗粒物(PM2.5),66,55,42,43,25,152,152,197,179,13,15,7,8,0.7,0.6
2026-06-28T2300,2273A,117.4183,32.8909,蚌埠市,蚌埠学院,细颗粒物(PM2.5),109,NA,39,69,27,122,122,181,157,14,8,5,5,0.5,0.4
2026-06-28T2300,2274A,117.3534,32.9672,蚌埠市,淮上区政府,细颗粒物(PM2.5),72,58,46,46,26,154,154,205,184,16,20,5,6,0.5,0.4
2026-06-28T2300,2275A,117.3143,32.8977,蚌埠市,高新区,细颗粒物(PM2.5),100,61,45,60,28,131,131,185,164,19,12,8,8,0.5,0.4
2026-06-28T2300,3715A,117.3091,32.9314,蚌埠市,蚌埠田家炳中学,细颗粒物(PM2.5),90,56,45,55,26,155,155,197,178,10,9,6,7,0.6,0.6
2026-06-28T2300,1585A,109.8761,40.6533,包头市,市环境监测站,,47,47,37,15,20,132,132,165,148,16,25,10,11,0.3,0.4
2026-06-28T2300,1587A,109.9992,40.5843,包头市,包头八中,颗粒物(PM10),55,57,50,28,24,126,126,147,134,13,22,30,22,0.8,0.6
2026-06-28T2300,1589A,109.8641,40.6288,包头市,惠龙物流,,42,42,40,24,25,130,130,155,140,14,22,14,15,0.3,0.4
2026-06-28T2300,1590A,110.0376,40.5546,包头市,东河鸿龙湾,颗粒物(PM10),58,60,40,10,22,126,126,152,137,17,21,15,20,0.3,0.5
2026-06-28T2300,3283A,109.9154,40.5684,包头市,滨河大厦,,50,50,36,19,20,126,126,144,129,11,20,10,14,0.3,0.5
2026-06-28T2300,3419A,109.9449,40.6259,包头市,包头市委党校,,40,32,33,16,21,126,126,153,140,18,28,12,16,0.4,0.6
2026-06-28T2300,3683A,109.8332,40.6577,包头市,昆区政府,,38,34,44,25,24,120,120,146,133,17,30,10,13,0.5,0.7
2026-06-28T2300,1931A,107.0802,34.3129,宝鸡市,竹园沟,,23,21,25,15,16,71,71,104,91,7,5,6,6,0.5,0.5
2026-06-28T2300,1933A,107.1429,34.3549,宝鸡市,监测站,,34,34,32,23,18,55,55,114,87,14,8,9,7,0.4,0.4
2026-06-28T2300,1934A,107.1172,34.3759,宝鸡市,技工学校,,38,NA,32,26,18,64,64,122,102,9,5,6,6,0.5,0.5
2026-06-28T2300,1936A,107.2025,34.3518,宝鸡市,文理学院,,36,36,35,20,19,37,37,120,86,31,13,8,7,0.5,0.4
2026-06-28T2300,1937A,107.2396,34.3626,宝鸡市,三迪小学,,40,NA,37,28,20,39,39,131,96,37,15,7,7,0.6,0.5
2026-06-28T2300,4155A,107.1721,34.3558,宝鸡市,滨河北路,,39,39,37,20,21,40,40,112,82,30,10,6,6,0.5,0.5
2026-06-28T2300,4308A,107.3898,34.3601,宝鸡市,陈仓区北开路21号,,36,36,52,21,31,45,45,137,98,35,18,5,28,0.5,0.6
2026-06-28T2300,1051A,115.4803,38.8568,保定市,游泳馆,,38,28,33,26,20,112,112,190,162,7,9,2,3,0.1,0.1
2026-06-28T2300,1052A,115.509,38.8895,保定市,华电二区,NA,NA,29,28,15,15,NA,NA,193,NA,6,9,2,3,0.6,0.6
2026-06-28T2300,1053A,115.4588,38.9037,保定市,接待中心,,42,NA,29,29,19,111,111,175,149,5,8,3,2,0.3,0.4
2026-06-28T2300,1054A,115.4484,38.8344,保定市,地表水厂,,35,31,40,23,17,109,109,194,161,4,7,2,3,0.5,0.5
2026-06-28T2300,3581A,115.3136,38.9511,保定市,满城区生态环境分局,,39,14,30,13,20,123,123,173,143,4,9,2,3,0,0
2026-06-28T2300,3582A,115.4709,38.7628,保定市,清苑区第二中学,,37,37,45,23,21,111,111,199,167,5,10,4,5,0.4,0.3
2026-06-28T2300,3583A,115.6231,39.0223,保定市,徐水物探局,,38,30,36,26,20,108,108,190,145,14,15,4,4,0.4,0.4
2026-06-28T2300,4004A,115.4199,38.8665,保定市,双鹰农机,,34,30,38,21,20,106,106,182,151,8,8,3,4,0.1,0.1
2026-06-28T2300,4034A,115.515,38.8589,保定市,植保所站,,41,34,32,21,17,129,129,208,182,5,8,7,8,0.3,0.4
2026-06-28T2300,2594A,99.1589,25.1137,保山市,市环境监测站,,16,13,12,11,7,41,41,63,57,10,7,5,5,0.3,0.3
2026-06-28T2300,2595A,99.1616,25.1381,保山市,市环保局,,20,NA,13,14,16,38,38,66,59,7,5,5,5,0.3,0.3
2026-06-28T2300,1867A,109.1435,21.4085,北海市,海滩公园,,26,16,14,3,10,81,81,88,87,4,7,3,2,0.5,0.6
2026-06-28T2300,1868A,109.0983,21.466,北海市,新市环保局,,29,12,16,9,10,91,91,95,95,6,8,5,5,0.5,0.7
2026-06-28T2300,1869A,109.1775,21.5232,北海市,北海工业园,,23,14,20,12,15,73,73,77,77,6,8,1,3,0.3,0.4
2026-06-28T2300,3400A,109.1844,21.4396,北海市,龙潭自来水厂,,23,15,20,3,11,72,72,76,76,3,6,2,4,0.7,0.8
2026-06-28T2300,1001A,116.3611,39.8786,北京市,万寿西宫,臭氧1小时(O3_1h),92,100,52,45,32,193,193,248,236,12,16,7,5,0.7,0.5
2026-06-28T2300,1003A,116.4174,39.9289,北京市,东四,臭氧1小时(O3_1h),92,86,53,52,31,193,193,265,250,15,17,8,6,0.6,0.4
2026-06-28T2300,1004A,116.4073,39.8858,北京市,天坛,细颗粒物(PM2.5),108,91,55,68,30,172,172,232,218,18,22,5,3,0.8,0.6
2026-06-28T2300,1005A,116.4622,39.9364,北京市,农展馆,细颗粒物(PM2.5),90,94,58,55,33,171,171,248,231,17,23,6,5,0.7,0.5
2026-06-28T2300,1006A,116.3399,39.9293,北京市,官园,细颗粒物(PM2.5),120,104,57,81,29,177,177,235,221,13,16,10,6,0.8,0.6
2026-06-28T2300,1007A,116.2879,39.9613,北京市,海淀万柳,细颗粒物(PM2.5),94,99,54,57,29,182,182,226,215,17,22,9,6,0.6,0.5
2026-06-28T2300,1008A,116.6635,40.1349,北京市,顺义新城,细颗粒物(PM2.5),94,85,59,57,33,180,180,251,227,16,16,5,3,0.8,0.6
2026-06-28T2300,1009A,116.6275,40.327,北京市,怀柔镇,臭氧1小时(O3_1h),80,75,60,49,34,184,184,239,225,9,10,3,3,0.6,0.5
2026-06-28T2300,1010A,116.2295,40.217,北京市,昌平镇,细颗粒物(PM2.5),94,84,52,57,31,168,168,234,220,14,15,5,5,1.0,0.8
2026-06-28T2300,1011A,116.3968,39.982,北京市,奥体中心,细颗粒物(PM2.5),103,98,53,63,31,154,154,208,200,12,16,6,5,0.7,0.5
2026-06-28T2300,3418A,116.8336,40.4095,北京市,密云新城,臭氧1小时(O3_1h),83,61,54,37,29,186,186,226,221,9,10,4,4,0.7,0.6
2026-06-28T2300,3671A,116.0879,39.9725,北京市,门头沟三家店,细颗粒物(PM2.5),78,81,37,49,22,151,151,208,177,18,12,4,3,0.6,0.5
2026-06-28T2300,3672A,116.1507,39.8246,北京市,丰台云岗,臭氧1小时(O3_1h),98,100,50,44,26,198,198,215,193,11,7,4,2,0.7,0.5
2026-06-28T2300,3674A,115.9578,39.7602,北京市,房山燕山,,50,50,35,30,18,124,124,190,172,15,10,1,2,0.6,0.5
2026-06-28T2300,3675A,116.4669,39.7734,北京市,大兴旧宫,细颗粒物(PM2.5),102,105,61,62,33,190,190,234,223,14,25,5,3,0.8,0.6
2026-06-28T2300,3694A,115.9859,40.4562,北京市,延庆石河营,细颗粒物(PM2.5),120,121,51,82,31,201,201,226,226,15,15,4,3,0.7,0.5
2026-06-28T2300,3695A,116.6151,40.3052,北京市,怀柔新城,细颗粒物(PM2.5),98,70,57,59,34,177,177,230,217,9,9,3,3,0.8,0.7
2026-06-28T2300,3696A,116.2542,39.8764,北京市,丰台小屯,细颗粒物(PM2.5),96,99,54,58,29,190,190,222,209,11,14,7,4,0.7,0.5
2026-06-28T2300,3697A,116.8399,40.3843,北京市,密云镇,臭氧1小时(O3_1h),87,64,56,33,32,189,189,228,223,8,12,9,7,0.7,0.5
2026-06-28T2300,4057A,115.9423,40.4431,北京市,延庆百泉,细颗粒物(PM2.5),107,108,43,67,26,209,209,241,241,11,11,1,1,0.6,0.4
2026-06-28T2300,4058A,116.6598,39.9164,北京市,通州新华,细颗粒物(PM2.5),103,114,72,63,35,159,159,234,210,18,24,6,4,1.0,0.7
2026-06-28T2300,4182A,116.1942,39.9158,北京市,石景山八角,"颗粒物(PM10),臭氧1小时(O3_1h)",93,110,54,54,27,194,194,221,210,10,13,7,4,0.7,0.5
2026-06-28T2300,4194A,117.078628,40.151726,北京市,平谷新城,细颗粒物(PM2.5),111,97,63,72,37,170,170,221,206,9,11,4,4,1.1,0.8
2026-06-28T2300,1761A,123.8274146,41.31234549,本溪市,大峪,,25,25,29,12,16,69,69,148,117,21,13,6,6,0.3,0.4
2026-06-28T2300,1763A,123.7169,41.3094,本溪市,彩屯,,43,43,33,25,23,44,44,118,90,28,21,7,9,1.5,1.7
2026-06-28T2300,1764A,123.7672166,41.28649327,本溪市,东明,,35,20,36,8,14,111,111,141,127,12,17,6,6,0.5,0.5
2026-06-28T2300,1765A,123.799345,41.266614,本溪市,新立屯,,36,14,27,6,11,113,113,141,115,4,16,8,8,0.5,0.5
2026-06-28T2300,1766A,123.829144,41.336777,本溪市,威宁,,26,26,34,12,18,70,70,141,103,17,11,8,8,0.4,0.5
2026-06-28T2300,2587A,105.287,27.3133,毕节市,八中,,15,NA,31,6,16,46,46,86,56,7,10,6,7,0.5,0.5
2026-06-28T2300,2588A,105.3079,27.2987,毕节市,师专,,16,NA,24,8,15,49,49,81,49,8,8,2,4,0.6,0.6
2026-06-28T2300,4263A,105.3688,27.3598,毕节市,工业大道,,18,6,27,3,14,56,56,82,54,8,9,6,8,/,/
2026-06-28T2300,1629A,117.9961,37.3604,滨州市,第二水厂,,43,27,56,24,31,137,137,214,171,7,17,6,9,0.7,0.7
2026-06-28T2300,1630A,117.9789,37.3931,滨州市,北中新校,,43,NA,49,30,29,124,124,228,178,15,22,11,14,0.7,0.7
2026-06-28T2300,3514A,117.9379,37.3959,滨州市,中海酒店,,41,NA,42,21,28,129,129,238,182,16,20,8,13,0.4,0.6
2026-06-28T2300,3515A,117.9381509,37.35547456,滨州市,开发区一中,,40,24,56,16,29,125,125,216,162,16,24,9,13,0.4,0.5
2026-06-28T2300,3516A,118.0914,37.6938,滨州市,金海六路,,45,NA,50,31,29,123,123,222,160,16,23,5,9,0.3,0.5
2026-06-28T2300,4028A,117.9955,37.3752,滨州市,滨州市西街道办事处,,43,31,50,30,28,127,127,214,171,9,15,4,8,0.5,0.5
2026-06-28T2300,2311A,115.8071,33.8399,亳州市,污水处理厂,,46,34,47,19,30,146,146,201,187,12,13,4,5,0.3,0.3
2026-06-28T2300,2312A,115.7789,33.8519,亳州市,三国揽胜宫,,49,49,50,26,28,148,148,206,193,10,10,4,4,0.3,0.3
2026-06-28T2300,3332A,115.7631,33.803,亳州市,亳州学院,,44,37,39,27,35,139,139,204,187,12,10,4,4,0.4,0.4
2026-06-28T2300,2693A,82.0482,44.8553,博尔塔拉蒙古自治州,市党校,,35,26,36,11,13,110,110,116,115,2,5,3,3,0.2,0.3
2026-06-28T2300,2694A,82.0805,44.8966,博尔塔拉蒙古自治州,市环保局,,38,38,35,3,9,96,96,114,111,11,10,7,5,0.5,0.4
2026-06-28T2300,1071A,116.8733,38.2922,沧州市,沧县城建局,,44,21,49,16,33,139,139,215,176,6,16,3,9,0.5,0.6
2026-06-28T2300,1072A,116.8462,38.3189,沧州市,电视转播站,,45,26,59,19,34,143,143,208,181,8,19,1,6,0.2,0.4
2026-06-28T2300,1073A,116.8588,38.3161,沧州市,市环保局,,42,33,74,18,32,132,132,212,170,6,15,13,10,0.1,0.4
2026-06-28T2300,3324A,116.8011,38.294,沧州市,河北水利电力学院,,41,NA,46,16,36,130,130,191,163,7,17,8,12,0.2,0.4
2026-06-28T2300,2622A,97.1813,31.1289,昌都市,昌都监测站,,33,NA,4,3,3,103,103,95,95,5,7,7,7,0.6,0.5
2026-06-28T2300,3719A,97.1707,31.1428,昌都市,昌都会议中心,,35,NA,5,3,3,112,112,105,105,3,4,5,5,0.4,0.4
2026-06-28T2300,2692A,87.2722,44.0298,昌吉回族自治州,新区政务中心,,40,24,37,6,16,127,127,131,128,6,13,8,9,0.3,0.4
2026-06-28T2300,3613A,87.3069,44.0093,昌吉回族自治州,亚心广场,,40,29,49,10,16,126,126,131,126,7,20,6,8,0.1,0.2
2026-06-28T2300,4164A,87.2057,43.9289,昌吉回族自治州,财政所,,42,41,42,7,11,132,132,133,130,10,9,6,7,0.1,0.2
2026-06-28T2300,1120A,125.2874,43.9024,长春市,客车厂,细颗粒物(PM2.5),84,NA,38,52,32,53,53,94,63,21,34,6,6,0.6,0.6
2026-06-28T2300,1121A,125.2943,43.8508,长春市,邮电学院,细颗粒物(PM2.5),76,NA,32,48,31,47,47,90,62,19,21,6,6,0.5,0.6
2026-06-28T2300,1122A,125.3648,43.8745,长春市,劳动公园,细颗粒物(PM2.5),92,NA,36,56,34,54,54,96,70,24,33,7,6,0.6,0.6
2026-06-28T2300,1123A,125.3233,43.8781,长春市,园林处,细颗粒物(PM2.5),86,NA,33,53,33,56,56,99,74,18,25,4,4,0.5,0.6
2026-06-28T2300,1124A,125.4604,43.7904,长春市,净月潭,细颗粒物(PM2.5),80,NA,27,50,30,43,43,68,53,17,16,6,6,0.4,0.4
2026-06-28T2300,1126A,125.38,43.8422,长春市,经开区环卫处,细颗粒物(PM2.5),82,NA,38,51,33,50,50,93,71,24,38,5,5,0.5,0.5
2026-06-28T2300,1127A,125.234,43.7761,长春市,高新区管委会,细颗粒物(PM2.5),60,NA,30,40,23,50,50,106,88,19,31,6,6,0.6,0.6
2026-06-28T2300,1128A,125.1695,43.83,长春市,岱山公园,细颗粒物(PM2.5),62,NA,40,41,27,57,57,110,87,22,39,2,3,0.5,0.6
2026-06-28T2300,4281A,125.334645,43.916281,长春市,北亚泰大街1068号,细颗粒物(PM2.5),96,NA,39,58,34,46,46,92,64,23,35,5,5,0.6,0.6
2026-06-28T2300,1335A,113.082,28.2421,长沙市,经开区环保局,,48,43,41,33,27,71,71,128,102,13,16,4,7,0.5,0.5
2026-06-28T2300,1336A,112.8873,28.2202,长沙市,高开区环保局,颗粒物(PM10),52,52,50,33,31,62,62,135,107,20,26,4,4,0.6,0.6
2026-06-28T2300,1337A,113.0785,28.2012,长沙市,马坡岭,,49,46,46,34,28,58,58,132,102,23,20,7,7,0.6,0.5
2026-06-28T2300,1338A,112.9448,28.1894,长沙市,湖南师范大学,,43,42,44,30,25,62,62,136,103,15,14,10,10,0.3,0.2
2026-06-28T2300,1339A,113.0177,28.1322,长沙市,雨花区环保局,细颗粒物(PM2.5),54,54,45,37,25,71,71,124,104,18,15,6,5,0.9,0.9
2026-06-28T2300,1340A,112.9795,28.2593,长沙市,伍家岭,细颗粒物(PM2.5),70,66,49,45,28,39,39,132,92,24,16,4,4,0.6,0.4
2026-06-28T2300,1341A,113.002,28.1944,长沙市,火车新站,,45,42,43,31,26,73,73,124,105,15,19,8,8,0.6,0.5
2026-06-28T2300,1342A,112.9846,28.1177,长沙市,天心区环保局,细颗粒物(PM2.5),54,49,43,37,26,89,89,130,114,21,21,5,4,1.0,1
2026-06-28T2300,1343A,112.8906,28.1307,长沙市,湖南中医药大学,颗粒物(PM10),56,58,50,37,28,46,46,132,94,31,21,6,6,0.7,0.6
2026-06-28T2300,1727A,113.1146,36.1547,长治市,清华站,,28,17,24,6,12,89,89,158,132,14,8,8,9,0.7,0.7
2026-06-28T2300,1730A,113.0887,36.2126,长治市,审计局,,25,20,26,14,14,78,78,157,128,12,8,8,10,0.6,0.6
2026-06-28T2300,1731A,113.0845,36.1856,长治市,长治八中,,27,25,32,3,14,86,86,155,126,13,10,10,12,0.6,0.7
2026-06-28T2300,2845A,113.1561,36.1912,长治市,德盛苑,,29,18,24,6,15,92,92,162,136,12,14,10,13,0.4,0.5
2026-06-28T2300,3568A,113.0603,36.0464,长治市,向阳小学,,30,26,31,10,14,94,94,152,120,3,15,2,17,0.6,0.7
2026-06-28T2300,3569A,112.8788,36.315,长治市,屯留一中,,24,24,18,16,12,76,76,142,113,22,7,9,10,0.7,0.3
2026-06-28T2300,4189A,113.113092,36.199482,长治市,英华南巷50号,,27,24,29,3,13,86,86,165,133,13,11,8,11,0.6,0.6
2026-06-28T2300,4190A,113.23666,36.33435,长治市,学府街1号,,29,16,33,6,12,91,91,163,129,11,11,4,9,0.5,0.6
2026-06-28T2300,1854A,111.696,28.9725,常德市,市二中,细颗粒物(PM2.5),58,39,39,39,30,68,68,114,105,18,10,10,9,1.2,1.1
2026-06-28T2300,3138A,111.7152,29.0288,常德市,武陵区永安,细颗粒物(PM2.5),80,50,47,50,43,93,93,133,113,24,11,7,10,1.0,0.9
2026-06-28T2300,3139A,111.6891,28.9881,常德市,鼎城区玉霞,细颗粒物(PM2.5),62,45,43,41,34,49,49,119,86,29,19,10,10,1.2,1.1
2026-06-28T2300,3140A,111.6651,29.0526,常德市,武陵区长庚,细颗粒物(PM2.5),58,46,44,39,34,100,100,132,122,18,11,10,10,0.8,0.8
2026-06-28T2300,1196A,119.9524,31.7586,常州市,市监测站,,42,25,44,25,36,133,133,181,170,17,20,10,11,0.4,0.5
2026-06-28T2300,1200A,119.9351,31.703,常州市,武进监测站,,40,40,52,25,32,120,120,159,154,13,16,5,4,0.6,0.6
2026-06-28T2300,3002A,119.9701,31.813,常州市,行政中心,,46,40,49,32,34,126,126,178,161,15,15,6,6,0.5,0.4
2026-06-28T2300,3003A,120.0434,31.7726,常州市,经开区,,41,41,63,25,34,124,124,186,167,12,15,2,3,0.8,0.9
2026-06-28T2300,3010A,119.8919,31.7892,常州市,钟楼,,46,40,57,32,31,145,145,182,174,13,15,7,8,0.6,0.2
2026-06-28T2300,3429A,119.8595,31.706,常州市,武进经发区,,50,50,51,26,27,126,126,167,158,10,11,8,9,0.7,0.7
2026-06-28T2300,3430A,119.5812,31.7256,常州市,金坛城区,,44,32,44,22,28,138,138,174,170,5,7,7,8,0.8,0.8
2026-06-28T2300,4089A,119.9551,31.863,常州市,崇义南街5-H号,颗粒物(PM10),57,59,56,37,38,121,121,194,168,25,20,6,7,0.8,0.8
2026-06-28T2300,2220A,120.4318,41.588,朝阳市,西梁,,36,36,47,18,30,99,99,143,107,14,13,7,10,0.8,0.9
2026-06-28T2300,2221A,120.452,41.565,朝阳市,河畔小区,,42,29,37,29,32,124,124,141,119,11,12,9,11,0.4,0.5
2026-06-28T2300,2222A,120.4176,41.5648,朝阳市,八里堡,细颗粒物(PM2.5),62,NA,44,41,36,100,100,151,106,14,16,3,5,0.8,1
2026-06-28T2300,3026A,116.6179,23.6608,潮州市,市政府,,29,29,20,11,14,36,36,72,52,10,8,8,6,0.5,0.5
2026-06-28T2300,4036A,116.646,23.676,潮州市,金山,,19,19,20,8,13,25,25,72,42,9,7,1,2,0.4,0.4
2026-06-28T2300,2473A,113.0116,25.8228,郴州市,市职中,细颗粒物(PM2.5),56,43,42,38,32,33,33,100,70,16,12,8,8,0.9,0.9
2026-06-28T2300,2475A,113.0381,25.8074,郴州市,市审计局,,45,37,40,31,30,44,44,96,72,12,13,6,6,/,/
2026-06-28T2300,2476A,113.0348,25.7757,郴州市,市环保局,,39,NA,32,27,29,50,50,103,74,9,13,6,7,0.9,0.9
2026-06-28T2300,4252A,113.0138,25.8011,郴州市,好美居路49号,,40,40,42,20,26,38,38,103,76,15,11,9,8,/,/
2026-06-28T2300,1431A,103.9727,30.7242,成都市,金泉两河,,36,36,30,10,26,73,73,129,117,20,14,2,3,0.3,0.4
2026-06-28T2300,1432A,104.1423,30.6765,成都市,十里店,,34,34,41,20,29,95,95,121,114,14,13,5,5,0.6,0.6
2026-06-28T2300,1433A,104.0594,30.5765,成都市,三瓦窑,,28,26,36,12,25,88,88,121,110,16,19,5,6,0.6,0.6
2026-06-28T2300,1434A,104.1122,30.6306,成都市,沙河铺,,36,36,41,17,23,80,80,113,104,25,14,4,4,0.4,0.4
2026-06-28T2300,2880A,104.0219,30.6561,成都市,大石西路,,37,37,45,13,34,76,76,115,105,23,13,4,5,0.4,0.5
2026-06-28T2300,3136A,104.2724,30.559,成都市,龙泉驿区区政府,,26,19,20,17,17,81,81,120,113,10,7,7,7,0.4,0.4
2026-06-28T2300,3357A,104.0028,30.6891,成都市,金博路,,26,11,33,10,28,82,82,124,115,21,16,7,8,0.5,0.8
2026-06-28T2300,3359A,104.056,30.5228,成都市,华阳,,28,22,28,11,21,88,88,124,115,11,8,2,2,0.4,0.4
2026-06-28T2300,3488A,104.387954,30.746684,成都市,青白江技师分院,,27,27,34,18,27,83,83,120,115,16,14,6,5,0.6,0.6
2026-06-28T2300,3489A,104.0788,30.4054,成都市,科学城,,24,16,19,13,16,74,74,120,111,12,6,6,6,0.3,0.3
2026-06-28T2300,4011A,103.8505,30.6946,成都市,光华大道三段,,28,22,49,9,36,87,87,128,113,12,11,4,5,0.4,0.5
2026-06-28T2300,4144A,104.3257,30.6406,成都市,八角井街185号,,44,44,37,15,21,74,74,119,111,15,10,4,4,0.5,0.5
2026-06-28T2300,4224A,104.2433276,30.53529463,成都市,鲸龙路1057号,,28,20,25,13,16,89,89,126,120,11,14,8,8,0.7,0.7
2026-06-28T2300,1062A,117.9531,40.908,承德市,铁路,细颗粒物(PM2.5),80,76,53,50,29,147,147,182,176,17,17,5,6,0.7,0.5
2026-06-28T2300,1063A,117.9397,40.9763,承德市,中国银行,细颗粒物(PM2.5),70,72,52,45,29,95,95,180,163,12,12,2,4,0.8,0.5
2026-06-28T2300,4073A,117.9462,40.95,承德市,杏林街1号,细颗粒物(PM2.5),80,67,50,50,35,154,154,194,188,10,11,5,5,0.7,0.5
2026-06-28T2300,4274A,117.7994,40.9605,承德市,滨河大街98号,细颗粒物(PM2.5),80,59,46,50,27,125,125,181,126,8,10,5,7,0.7,0.5
2026-06-28T2300,2314A,117.4698,30.6617,池州市,池州学院,细颗粒物(PM2.5),60,59,51,40,36,93,93,195,163,28,18,4,5,1.0,1.2
2026-06-28T2300,3237A,117.4918,30.6617,池州市,展览馆,,50,50,45,33,29,76,76,198,149,24,14,3,4,0.6,0.9
2026-06-28T2300,3333A,117.5626,30.695,池州市,第八中学,细颗粒物(PM2.5),70,61,48,45,34,120,120,192,165,20,12,5,5,0.6,0.6
2026-06-28T2300,3334A,117.5037,30.6242,池州市,第十二中学,细颗粒物(PM2.5),56,49,51,38,33,80,80,194,147,25,20,6,6,1.5,1.1
2026-06-28T2300,1744A,118.9229,42.2816,赤峰市,松山一中,,44,39,39,14,27,138,138,177,149,10,20,13,35,0.6,0.8
2026-06-28T2300,1745A,118.9588,42.2733,赤峰市,哈达街,,38,38,41,25,26,119,119,165,136,17,24,29,40,0.5,0.6
2026-06-28T2300,1746A,118.8792,42.2551,赤峰市,天义路,,39,NA,25,25,22,124,124,173,148,15,17,8,14,0.7,0.7
2026-06-28T2300,3058A,119.2656,42.0356,赤峰市,银河街,颗粒物(PM10),51,51,44,33,27,123,123,180,156,18,15,21,20,1.0,0.7
2026-06-28T2300,3286A,118.9359,42.3146,赤峰市,桥北物流园区,,42,32,33,22,24,132,132,170,134,10,20,6,15,0.5,0.7
2026-06-28T2300,2521A,107.3473,22.4137,崇左市,市环保局江州分局,,22,20,22,15,8,39,39,74,63,12,6,6,4,0.6,0.6
2026-06-28T2300,4256A,107.375,22.3736,崇左市,石景林东路7号,,19,NA,18,13,7,46,46,72,61,8,7,5,5,0.6,0.6
2026-06-28T2300,3207A,118.31131,32.3033,滁州市,市政府原办公楼,细颗粒物(PM2.5),109,75,57,69,51,121,121,223,190,25,17,5,6,0.8,0.7
2026-06-28T2300,3331A,118.3268,32.2633,滁州市,图书馆,细颗粒物(PM2.5),106,80,58,66,36,115,115,200,181,24,15,10,10,0.7,0.6
2026-06-28T2300,4101A,118.3196,32.3335,滁州市,银山路666号,细颗粒物(PM2.5),88,89,65,54,44,73,73,221,186,16,17,1,3,0.5,0.4
2026-06-28T2300,4102A,118.3426,32.2979,滁州市,黄山路555号,细颗粒物(PM2.5),105,81,70,65,47,136,136,221,207,22,19,8,9,0.6,0.5
2026-06-28T2300,2606A,101.5379,25.0492,楚雄彝族自治州,市经济开发区,,16,16,10,8,6,39,39,45,44,14,6,34,3,0.4,0.4
2026-06-28T2300,4153A,101.5536,25.0343,楚雄彝族自治州,团结路562号,,15,NA,9,3,7,47,47,50,50,9,3,6,4,0.6,0.6
2026-06-28T2300,2549A,107.5087,31.2186,达州市,市环境监测站,,27,27,28,3,15,71,71,97,80,15,19,6,7,0.5,0.6
2026-06-28T2300,2550A,107.4988,31.2132,达州市,凤凰小区,,34,34,29,23,11,65,65,91,78,15,16,7,5,0.5,0.4
2026-06-28T2300,2551A,107.5081,31.1987,达州市,达县机关宾馆,,40,39,28,28,13,62,62,97,81,25,22,6,4,0.4,0.3
2026-06-28T2300,2552A,107.4644,31.2124,达州市,市政中心,,30,30,34,11,5,80,80,98,89,11,18,3,4,0.3,0.3
2026-06-28T2300,2614A,100.2168,25.5818,大理白族自治州,大理市环境监测站,,19,9,9,3,5,58,58,63,62,8,6,5,5,0.5,0.5
2026-06-28T2300,2615A,100.1542,25.7055,大理白族自治州,大理古城,,19,19,12,8,7,34,34,62,45,13,9,4,4,0.6,0.5
2026-06-28T2300,1109A,121.6119,38.974,大连市,甘井子,,25,19,29,10,15,80,80,136,107,12,10,9,9,0.6,0.7
2026-06-28T2300,1110A,121.565,38.9509,大连市,周水子,,28,28,33,18,20,55,55,141,96,30,14,5,7,0.7,0.7
2026-06-28T2300,1111A,121.5637,38.8849,大连市,星海三站,,40,40,34,8,13,99,99,152,137,15,13,7,8,0.7,0.8
2026-06-28T2300,1112A,121.6301,38.9117,大连市,青泥洼桥,,25,21,26,12,14,80,80,145,115,10,9,7,8,0.5,0.5
2026-06-28T2300,1113A,121.6248,38.8643,大连市,傅家庄,,29,17,20,9,14,91,91,138,117,12,10,12,11,0.4,0.5
2026-06-28T2300,1114A,121.5117,38.8636,大连市,七贤岭,,29,29,31,12,13,89,89,138,115,10,8,4,5,0.7,0.9
2026-06-28T2300,1116A,121.7507,39.1339,大连市,金州,,31,31,28,13,18,82,82,162,120,10,10,8,9,0.6,0.6
2026-06-28T2300,1117A,121.7811,39.0495,大连市,开发区,,33,33,46,11,19,76,76,132,103,12,17,7,10,0.3,0.4
2026-06-28T2300,1118A,121.9762,39.0631,大连市,双D港,,16,16,23,8,15,38,38,124,82,4,7,6,6,0.5,0.6
2026-06-28T2300,4082A,121.2548,38.8188,大连市,旅顺,,30,19,22,12,16,93,93,142,123,4,5,6,6,0.4,0.5
2026-06-28T2300,1789A,124.8085,46.0381,大庆市,大同区,,36,22,31,17,14,114,114,132,125,14,19,5,5,0.7,0.6
2026-06-28T2300,1790A,125.1166,46.5255,大庆市,龙凤区,,36,36,36,20,11,90,90,105,102,13,14,8,7,0.2,0
2026-06-28T2300,1791A,124.8894,46.4007,大庆市,红岗区,,27,27,24,18,12,71,71,111,100,16,12,8,9,0.5,0.4
2026-06-28T2300,1792A,125.1391,46.578,大庆市,萨尔图区,,40,40,28,19,12,103,103,110,108,12,14,5,6,0.4,0.4
2026-06-28T2300,1793A,124.9026,46.6217,大庆市,让胡路区,,40,40,33,26,14,82,82,118,109,19,13,4,4,0.7,0.5
2026-06-28T2300,3481A,125.127,46.6277,大庆市,萨区政府监测点,,34,34,27,23,14,107,107,120,119,10,10,5,5,0.4,0.2
2026-06-28T2300,1723A,113.2926,40.0759,大同市,云冈宾馆,,39,24,44,20,16,122,122,153,127,11,21,8,9,0.3,0.4
2026-06-28T2300,1724A,113.3437,40.0921,大同市,大同大学,,38,24,40,12,16,121,121,151,128,12,19,6,7,0.5,0.5
2026-06-28T2300,1725A,113.2637,40.129,大同市,安家小村,,33,28,44,15,21,103,103,150,119,17,20,16,17,0.5,0.5
2026-06-28T2300,3282A,113.3399,40.0586,大同市,大同市卫生学校,,36,26,41,17,17,114,114,157,129,16,19,10,10,0.6,0.6
2026-06-28T2300,3565A,113.1371,40.1122,大同市,云冈站,,34,34,36,10,15,71,71,137,108,11,16,6,7,0.6,0.6
2026-06-28T2300,3566A,113.1186,40.2556,大同市,图书馆,,33,24,32,17,15,103,103,149,125,16,14,8,7,0.6,0.6
2026-06-28T2300,3567A,113.5931,40.0459,大同市,区一中,,29,24,30,17,14,92,92,155,120,22,14,8,9,0.5,0.5
2026-06-28T2300,4199A,113.2798248,40.09972476,大同市,魏都大道141号,,39,21,43,8,21,122,122,149,124,12,27,8,9,0.4,0.5
2026-06-28T2300,2269A,124.1068,50.4091,大兴安岭地区,科技局,,31,31,23,12,9,33,33,71,62,8,5,5,4,0.3,0.2
2026-06-28T2300,3663A,124.117,50.4279,大兴安岭地区,红旗社区,,12,12,10,7,6,22,22,79,66,13,7,6,6,0.1,0.1
2026-06-28T2300,1600A,124.33,40.0625,丹东市,江湾东路,,34,34,31,22,23,49,49,124,90,13,11,6,7,0.5,0.6
2026-06-28T2300,1601A,124.4242,40.1513,丹东市,临江后街,颗粒物(PM10),68,74,36,36,22,53,53,122,89,12,10,4,5,0.8,0.5
2026-06-28T2300,1602A,124.3935,40.1461,丹东市,元宝山,,35,35,31,22,20,46,46,116,86,17,10,6,5,0.8,0.7
2026-06-28T2300,1603A,124.3634,40.1093,丹东市,民主桥,,28,28,37,18,23,31,31,121,79,27,11,7,7,0.8,0.8
2026-06-28T2300,3541A,109.5726195,19.51688767,儋州市,第一中学子站,,14,NA,17,3,10,43,43,74,52,6,6,2,3,0.6,0.6
2026-06-28T2300,3542A,109.5567,19.5187,儋州市,东坡学校子站,,15,12,18,3,9,47,47,80,58,4,5,2,2,0.6,0.6
2026-06-28T2300,2616A,98.5611,24.4273,德宏傣族景颇族自治州,德宏州监测站,,23,NA,11,16,13,28,28,42,38,12,10,7,7,0.6,0.6
2026-06-28T2300,3677A,98.5887,24.4366,德宏傣族景颇族自治州,芒市人民政府综合楼,,32,32,35,14,12,17,17,39,33,11,9,2,2,0.7,0.6
2026-06-28T2300,1901A,104.424,31.1209,德阳市,东山公园,,25,24,37,17,30,80,80,137,115,21,14,3,4,0.7,0.7
2026-06-28T2300,1902A,104.3827,31.1318,德阳市,西小区,,40,40,50,22,36,81,81,128,107,16,18,8,8,0.9,1
2026-06-28T2300,1904A,104.3553,31.1091,德阳市,耐火材料厂,,34,34,45,20,39,80,80,157,126,15,13,4,5,0.4,0.5
2026-06-28T2300,4145A,104.4144,31.1495,德阳市,市林业局,,33,33,38,21,33,100,100,162,135,16,17,10,10,0.8,0.9
2026-06-28T2300,1622A,116.3034,37.4675,德州市,儿童乐园,,49,NA,59,12,31,154,154,234,203,5,13,8,12,0.7,0.8
2026-06-28T2300,1624A,116.2992,37.4449,德州市,监理站,,48,NA,60,10,28,152,152,227,199,5,18,11,17,0.3,0.4
2026-06-28T2300,3066A,116.2722,37.438,德州市,九衢泉纯净水厂,,44,12,64,12,30,139,139,203,188,9,28,8,14,0.7,0.8
2026-06-28T2300,3371A,116.3693,37.44,德州市,开发区人民医院,,45,NA,59,11,28,143,143,225,192,9,17,8,12,0.4,0.6
2026-06-28T2300,3511A,116.5687,37.3331,德州市,陵城艺术中心,,50,NA,50,12,25,157,157,226,195,7,13,3,5,0.4,0.5
2026-06-28T2300,4292A,116.352738,37.420875,德州市,新河东路,,45,14,54,10,27,144,144,224,195,12,21,9,13,0.5,0.8
2026-06-28T2300,2621A,99.7054,27.8319,迪庆藏族自治州,迪庆州站,,20,12,14,10,6,61,61,74,67,8,7,6,6,0.2,0.2
2026-06-28T2300,3180A,99.7122,27.8129,迪庆藏族自治州,质量技术监督局,,24,12,13,6,6,74,74,79,74,6,9,10,10,0.3,0.4
2026-06-28T2300,4257A,104.6092,35.5962,定西市,将台街,,42,41,43,12,14,134,134,150,141,5,14,4,5,0.2,0.2
2026-06-28T2300,4309A,104.6159,35.5701,定西市,正龙路62号,,43,43,51,7,14,137,137,145,138,6,10,4,5,0.1,0.1
2026-06-28T2300,4071A,114.9883,38.5232,定州市,交通局,,36,21,44,3,18,114,114,213,182,9,19,4,6,0.3,0.6
2026-06-28T2300,4072A,115.0045,38.5136,定州市,第五中学,,37,22,53,11,19,116,116,205,179,9,21,3,5,0.2,0.4
2026-06-28T2300,1390A,113.7943,23.0132,东莞市,东城石井,,32,30,16,22,12,15,15,67,37,22,16,1,2,0.7,0.6
2026-06-28T2300,1391A,113.7384,22.9659,东莞市,南城西平,,29,29,19,20,9,9,9,43,27,46,24,3,3,0.7,0.4
2026-06-28T2300,3319A,113.7283,23.041,东莞市,万江金泰,,26,26,37,12,11,51,51,80,67,40,24,6,5,0.4,0.4
2026-06-28T2300,4129A,113.8666,23.1062,东莞市,裕兴路,,20,20,24,11,10,36,36,56,43,18,21,8,8,0.7,0.7
2026-06-28T2300,4130A,114.0076,22.9739,东莞市,教育路1号,,26,26,25,15,13,13,13,56,30,35,24,6,6,0.7,0.7
2026-06-28T2300,4131A,113.7981,22.8124,东莞市,长怡路1号,,37,37,22,20,10,9,9,56,32,36,19,4,3,0.7,0.6
2026-06-28T2300,1666A,118.6612,37.4313,东营市,市环保局,细颗粒物(PM2.5),54,53,57,37,28,134,134,236,189,18,22,6,8,0.6,0.7
2026-06-28T2300,3036A,118.6903,37.4337,东营市,开发区管委会,颗粒物(PM10),55,57,63,28,26,136,136,239,192,20,25,16,15,0.5,0.6
2026-06-28T2300,3365A,118.5721,37.5654,东营市,垦利区民丰路,细颗粒物(PM2.5),64,51,61,42,30,132,132,238,185,20,20,14,14,0.5,0.5
2026-06-28T2300,3498A,118.5063,37.8606,东营市,河口城区,细颗粒物(PM2.5),62,NA,49,41,29,133,133,258,205,14,16,6,9,0.8,0.9
2026-06-28T2300,3646A,118.4979,37.4623,东营市,胜利站,细颗粒物(PM2.5),54,42,61,37,20,144,144,222,178,15,24,7,10,0.8,0.8
2026-06-28T2300,3734A,118.5753,37.4405,东营市,理想之城,细颗粒物(PM2.5),66,51,48,43,21,124,124,237,186,24,25,8,11,0.5,0.6
2026-06-28T2300,1591A,110.0024,39.8127,鄂尔多斯市,综合楼,,41,41,42,18,19,120,120,138,130,25,18,10,12,0.5,0.5
2026-06-28T2300,1592A,109.9485,39.8259,鄂尔多斯市,巴音孟克林场办事处,,40,34,36,14,18,126,126,136,135,21,13,4,6,0.4,0.4
2026-06-28T2300,1593A,109.7734,39.5987,鄂尔多斯市,康泽苑,,36,19,35,10,14,113,113,141,137,22,12,9,10,0.3,0.3
2026-06-28T2300,1594A,109.8121,39.5987,鄂尔多斯市,华泰汽车城,,36,22,35,8,16,113,113,128,126,20,14,9,7,0.5,0.5
2026-06-28T2300,1595A,109.9734,39.7884,鄂尔多斯市,奥林花园,,46,46,45,19,17,84,84,128,112,29,16,3,5,0.4,0.5
2026-06-28T2300,2436A,114.894,30.3989,鄂州市,市政府,颗粒物(PM10),65,71,71,41,41,102,102,194,160,30,29,18,9,0.7,0.7
2026-06-28T2300,2437A,114.8986,30.3714,鄂州市,赵家坝,NA,NA,NA,61,NA,35,116,116,199,165,NA,17,13,13,0.7,0.8
2026-06-28T2300,3654A,114.8093,30.4091,鄂州市,精准医疗中心,颗粒物(PM10),57,59,61,33,42,98,98,195,156,34,25,5,10,1.0,1
2026-06-28T2300,2454A,109.4978,30.2979,恩施土家族苗族自治州,湖北民院,,33,33,32,20,18,52,52,95,78,8,7,4,4,0.5,0.5
2026-06-28T2300,3549A,109.5061,30.3771,恩施土家族苗族自治州,龙凤新区,,32,32,28,21,19,30,30,91,64,11,8,6,6,0.5,0.5
2026-06-28T2300,2499A,108.3411,21.6159,防城港市,沙万,,19,NA,27,13,17,51,51,71,66,35,15,5,4,0.6,0.8
2026-06-28T2300,2500A,108.3515,21.7733,防城港市,防城档案局,,30,30,25,20,11,53,53,57,55,8,6,10,6,0.7,0.7
2026-06-28T2300,2501A,108.3506,21.6414,防城港市,大海花园,,22,15,25,15,18,62,62,82,78,26,9,8,10,0.6,0.8
2026-06-28T2300,1371A,113.1293,23.0065,佛山市,湾梁,,28,NA,12,19,14,26,26,55,48,27,19,/,/,/,/
2026-06-28T2300,1372A,113.1082,23.0477,佛山市,华材职中,,26,NA,13,18,17,44,44,58,53,11,14,6,7,0.5,0.5
2026-06-28T2300,1373A,113.1439,23.045,佛山市,南海气象局,,33,23,19,23,16,29,29,50,44,28,23,/,/,/,/
2026-06-28T2300,1374A,113.2879,22.8094,佛山市,顺德苏岗,,26,NA,8,18,14,5,5,49,38,46,26,/,/,0.9,0.9
2026-06-28T2300,1376A,112.8384,22.8678,佛山市,高明孔堂,,19,19,20,10,12,26,26,49,41,10,10,/,/,/,/
2026-06-28T2300,1377A,112.8835,23.1584,佛山市,三水监测站,,26,NA,19,18,20,11,11,50,30,27,22,4,6,0.8,0.7
2026-06-28T2300,1378A,112.8668,23.185,佛山市,三水云东海,,27,27,24,18,19,9,9,56,36,22,17,/,/,/,/
2026-06-28T2300,3625A,113.2568,22.7629,佛山市,容桂街道办,,35,24,11,24,18,18,18,49,37,35,27,/,/,/,/
2026-06-28T2300,1282A,119.2681,26.0506,福州市,师大,,50,35,24,35,16,95,95,100,94,10,11,4,4,0.6,0.6
2026-06-28T2300,1283A,119.2983,26.1028,福州市,五四北路,,46,32,21,32,16,67,67,96,78,18,15,4,4,0.7,0.6
2026-06-28T2300,1284A,119.2648,26.0769,福州市,杨桥西路,,50,NA,21,35,15,96,96,102,90,10,12,3,3,/,/
2026-06-28T2300,3048A,119.5799,26.0937,福州市,九龙,,49,35,23,34,16,80,80,109,92,7,6,6,6,0.3,0.4
2026-06-28T2300,3526A,119.5188,25.9666,福州市,吴航,,39,35,30,27,23,85,85,107,98,10,14,6,6,0.6,0.6
2026-06-28T2300,4104A,119.3106,26.0648,福州市,路通桥巷6号,,49,43,26,34,20,89,89,100,90,9,10,/,/,/,/
2026-06-28T2300,1755A,123.7974,41.8494,抚顺市,望花区,,43,43,45,19,25,91,91,153,120,19,25,17,10,0.7,0.9
2026-06-28T2300,1756A,123.9161,41.8827,抚顺市,顺城区,,38,38,41,18,21,88,88,168,137,20,23,11,11,0.7,0.8
2026-06-28T2300,1757A,124.0437,41.8615,抚顺市,东洲区,,33,22,27,16,16,105,105,166,140,11,13,15,12,0.2,0.4
2026-06-28T2300,1758A,123.9246,41.8638,抚顺市,新抚区,,42,37,37,29,24,77,77,178,138,16,21,6,7,0.8,0.8
2026-06-28T2300,1759A,124.0972,41.8961,抚顺市,大伙房水库,,26,20,25,15,18,82,82,170,142,20,18,11,12,0.6,0.7
2026-06-28T2300,1760A,123.708,41.8386,抚顺市,沈抚新城,,44,44,47,19,24,73,73,165,122,32,31,8,11,0.7,0.9
2026-06-28T2300,2377A,116.3544,27.9833,抚州市,市站,,35,35,43,14,28,43,43,104,82,1,3,2,7,0.5,0.6
2026-06-28T2300,2378A,116.3562,27.9631,抚州市,血防站,,29,29,43,6,27,38,38,108,75,10,10,4,7,0.7,0.8
2026-06-28T2300,2379A,116.3561,28.0007,抚州市,采茶剧团,,39,39,46,13,27,48,48,113,90,10,11,4,4,0.6,0.7
2026-06-28T2300,2380A,116.3854,27.9648,抚州市,医学分院,,24,24,43,15,24,40,40,108,75,5,6,4,4,0.8,0.9
2026-06-28T2300,2207A,121.6095,41.9978,阜新市,工业园区,细颗粒物(PM2.5),90,69,44,55,28,98,98,175,156,43,17,10,9,0.5,0.5
2026-06-28T2300,2208A,121.6567,42.0188,阜新市,长青街,细颗粒物(PM2.5),80,66,43,50,27,144,144,188,180,24,14,10,10,0.6,0.6
2026-06-28T2300,2209A,121.6672,42.07,阜新市,农业园区,细颗粒物(PM2.5),76,61,48,48,29,169,169,182,180,18,13,9,7,1.0,0.9
2026-06-28T2300,2211A,121.6343,42.0455,阜新市,玉龙新城,细颗粒物(PM2.5),96,69,46,58,27,102,102,165,151,36,16,6,7,0.8,0.8
2026-06-28T2300,2301A,115.8276,32.8929,阜阳市,市监测站,颗粒物(PM10),58,60,51,27,29,135,135,188,166,14,15,5,6,0.4,0.4
2026-06-28T2300,2303A,115.8551,32.8606,阜阳市,开发区,颗粒物(PM10),63,68,57,30,29,147,147,190,170,13,13,4,4,0.4,0.4
2026-06-28T2300,2875A,115.783962,32.889217,阜阳市,阜阳职业技术学院,臭氧1小时(O3_1h),55,51,52,30,30,164,164,192,179,6,7,4,4,0.5,0.5
2026-06-28T2300,3468A,115.79,32.8614,阜阳市,市规划展馆,颗粒物(PM10),63,68,55,31,32,144,144,190,169,13,14,3,3,0.5,0.5
2026-06-28T2300,3469A,115.835101,32.918568,阜阳市,枣园社区,颗粒物(PM10),55,56,52,32,34,91,91,186,160,55,20,2,2,0.4,0.4
2026-06-28T2300,2669A,102.9097,34.9841,甘南藏族自治州,州政府,,31,27,34,12,15,98,98,124,118,12,16,4,4,0.2,0.3
2026-06-28T2300,3380A,102.8915,34.9618,甘南藏族自治州,甘肃民族师范学院,,26,26,38,11,15,83,83,130,117,20,22,4,4,0.3,0.3
2026-06-28T2300,2570A,101.96,30.048,甘孜藏族自治州,水桥子,,13,8,11,3,4,36,36,62,53,25,15,2,2,0.1,0.2
2026-06-28T2300,3065A,101.9534,29.9976,甘孜藏族自治州,州环保局,,16,6,12,3,5,49,49,63,57,24,16,2,2,0.3,0.3
2026-06-28T2300,2363A,114.9368,25.8663,赣州市,地委,,17,9,32,3,14,52,52,87,70,5,8,3,4,0.6,0.8
2026-06-28T2300,2364A,114.946,25.8483,赣州市,气象台,,22,22,29,6,19,46,46,80,66,8,11,2,4,0.5,0.6
2026-06-28T2300,2365A,114.932,25.8332,赣州市,市图书馆,,18,9,26,3,13,56,56,82,71,6,8,3,5,0.9,0.9
2026-06-28T2300,2366A,114.8905,25.8472,赣州市,华坚鞋城,,15,13,34,3,18,48,48,86,70,11,12,2,1,0.3,0.4
2026-06-28T2300,3109A,115.0094,25.8614,赣州市,赣县区卫计委,,19,6,22,3,11,58,58,83,69,3,9,1,3,0.3,0.4
2026-06-28T2300,2684A,106.2753,36.0057,固原市,监测站,,38,16,37,10,14,120,120,136,132,12,7,5,6,0.3,0.3
2026-06-28T2300,2685A,106.2384,36.0189,固原市,新区,,35,11,33,3,13,110,110,131,127,6,6,6,6,0.3,0.3
2026-06-28T2300,2544A,106.6307,30.4577,广安市,市委,,37,37,30,20,22,54,54,97,83,13,11,6,6,0.7,0.2
2026-06-28T2300,2545A,106.6266,30.4662,广安市,友谊中学,,38,31,27,26,21,65,65,100,89,12,11,8,8,0.5,0.6
2026-06-28T2300,2547A,106.6386,30.4551,广安市,广电花园,,32,26,20,22,23,52,52,93,80,13,11,8,8,0.6,0.6
2026-06-28T2300,2902A,106.6347,30.4868,广安市,北辰小学,,33,29,26,23,24,68,68,102,91,13,11,7,6,0.5,0.5
2026-06-28T2300,2524A,105.8211,32.4444,广元市,老城,颗粒物(PM10),52,52,28,29,19,52,52,112,95,23,13,12,10,0.6,0.6
2026-06-28T2300,2526A,105.8629,32.429,广元市,监测站,颗粒物(PM10),56,58,44,28,18,67,67,101,90,13,12,6,7,0.7,0.7
2026-06-28T2300,3617A,105.8047,32.4167,广元市,经开区,,34,34,36,23,24,67,67,105,91,19,17,7,11,0.5,0.6
2026-06-28T2300,1345A,113.2346,23.1423,广州市,广雅中学,,23,21,14,16,11,40,40,55,50,20,19,5,4,0.7,0.7
2026-06-28T2300,1346A,113.2611,23.105,广州市,市五中,,23,17,13,16,11,42,42,64,58,22,17,4,3,/,/
2026-06-28T2300,1348A,113.3477,23.0916,广州市,广东商学院,,22,22,14,15,9,11,11,53,41,40,19,4,4,0.6,0.6
2026-06-28T2300,1349A,113.4332,23.105,广州市,市八十六中,,29,23,10,13,7,4,4,50,29,58,29,8,6,/,/
2026-06-28T2300,1350A,113.3506,22.9488,广州市,番禺中学,,17,17,11,9,9,24,24,55,42,29,18,5,5,0.7,0.7
2026-06-28T2300,1351A,113.2147,23.3918,广州市,花都师范,,18,16,20,12,13,26,26,62,56,32,22,3,2,0.8,0.8
2026-06-28T2300,1352A,113.2599,23.1329,广州市,市监测站,,23,21,15,16,11,41,41,61,58,18,15,4,3,/,/
2026-06-28T2300,1353A,113.5618,23.3119,广州市,九龙镇镇龙,,16,14,11,11,9,28,28,43,37,18,19,6,6,0.6,0.6
2026-06-28T2300,1354A,113.2764,23.1544,广州市,麓湖,,20,20,15,14,10,28,28,56,48,25,21,6,6,1.1,0.9
2026-06-28T2300,2846A,113.3209,23.1323,广州市,体育西,,20,16,13,14,9,27,27,49,43,31,23,5,4,0.5,0.5
2026-06-28T2300,3298A,113.5718,23.5493,广州市,从化街口,,18,17,14,12,10,21,21,55,46,19,13,7,7,0.6,0.6
2026-06-28T2300,3299A,113.3463,23.369,广州市,白云竹料,,26,24,15,18,11,23,23,58,52,25,18,2,2,0.7,0.7
2026-06-28T2300,3300A,113.2981,23.2365,广州市,白云嘉禾,,23,23,15,16,10,20,20,53,43,33,25,12,12,/,/
2026-06-28T2300,3301A,113.4256,23.1716,广州市,黄埔科学城,NA,NA,30,14,NA,9,9,9,56,36,NA,20,9,7,0.7,0.6
2026-06-28T2300,3302A,113.3942,23.0485,广州市,番禺大学城,,22,17,16,10,6,11,11,58,35,44,20,4,4,0.3,0.4
2026-06-28T2300,3303A,113.4923,22.8169,广州市,南沙黄阁,,24,18,13,7,8,13,13,52,43,48,20,7,6,/,/
2026-06-28T2300,3304A,113.534,22.7893,广州市,南沙街,,28,19,14,8,8,6,6,52,39,55,18,8,8,0.5,0.5
2026-06-28T2300,3443A,113.2905,23.5541,广州市,花都梯面,,14,14,17,8,11,41,41,65,55,12,12,9,8,/,/
2026-06-28T2300,3445A,113.786,23.7479,广州市,从化良口,,16,16,8,7,6,21,21,66,44,8,10,4,4,/,/
2026-06-28T2300,3446A,113.805,23.2614,广州市,增城荔城,,18,17,13,12,10,19,19,52,34,22,15,8,8,0.5,0.5
2026-06-28T2300,2506A,109.604387,23.066791,贵港市,江南子站,,17,17,31,6,19,43,43,100,80,14,15,4,5,0.8,0.9
2026-06-28T2300,2508A,109.5669,23.1065,贵港市,荷城子站,,15,9,22,7,12,48,48,98,80,8,14,6,6,0.7,0.8
2026-06-28T2300,3405A,109.5886,23.1172,贵港市,新世纪学校,,16,12,22,9,13,49,49,97,77,7,12,/,/,0.6,0.7
2026-06-28T2300,4260A,109.5933,23.095,贵港市,中山路155-3号,,16,16,38,9,20,49,49,107,84,10,17,/,/,0.7,0.9
2026-06-28T2300,1439A,106.6863,26.6035,贵阳市,马鞍山,,24,24,25,12,16,24,24,57,45,10,9,7,8,/,/
2026-06-28T2300,1441A,106.6241,26.6266,贵阳市,鉴湖路,,36,36,39,16,17,43,43,60,53,10,10,7,7,0.8,0.8
2026-06-28T2300,1442A,106.7468,26.6344,贵阳市,燕子冲,,39,39,36,17,17,26,26,64,52,15,10,8,8,0.7,0.6
2026-06-28T2300,1443A,106.6556,26.4362,贵阳市,碧云窝,,48,48,43,23,20,31,31,72,58,19,11,6,7,/,/
2026-06-28T2300,1445A,106.6963,26.6063,贵阳市,红边门,,31,31,29,17,18,34,34,66,55,20,11,6,6,/,/
2026-06-28T2300,1446A,106.7162383,26.56964667,贵阳市,新华路,,44,44,38,19,17,29,29,74,56,22,11,5,18,0.6,0.4
2026-06-28T2300,1447A,106.6742,26.542,贵阳市,太慈桥,,32,31,28,22,18,6,6,70,42,17,13,3,3,/,/
2026-06-28T2300,4230A,106.688212,26.56952,贵阳市,花果园大街66号,,44,44,36,22,19,55,55,75,68,14,10,2,2,/,/
2026-06-28T2300,4231A,106.687268,26.516892,贵阳市,漓江路57号,,32,31,29,22,19,44,44,62,54,16,15,2,2,0.8,0.8
2026-06-28T2300,1864A,110.3091,25.2705,桂林市,龙隐路小学,,49,37,32,34,23,79,79,102,90,7,6,4,5,0.7,0.6
2026-06-28T2300,1865A,110.2849361,25.22909545,桂林市,八中,,36,36,35,17,12,78,78,114,95,11,11,4,7,0.9,0.8
2026-06-28T2300,3531A,110.296,25.1254,桂林市,旅游学院,,43,39,37,30,28,75,75,110,86,6,6,8,13,0.5,0.5
2026-06-28T2300,4222A,110.1835,25.2444,桂林市,环湖路276号,,34,34,34,23,29,76,76,110,95,10,9,7,23,0.6,0.6
2026-06-28T2300,4301A,110.2803,25.2773,桂林市,信义路13号,细颗粒物(PM2.5),62,NA,33,41,21,78,78,107,96,9,8,5,7,0.7,0.7
2026-06-28T2300,2674A,100.2262,34.4854,果洛藏族自治州,玛沁县大武镇,,28,28,25,7,9,83,83,123,110,1,2,13,13,0.3,0.3
2026-06-28T2300,1130A,126.5557,45.8109,哈尔滨市,松北商大,,38,38,22,20,15,53,53,103,91,21,20,5,5,0.5,0.4
2026-06-28T2300,1132A,126.6162,45.719,哈尔滨市,南岗学府路,颗粒物(PM10),52,52,35,32,10,57,57,120,104,53,29,7,6,0.5,0.2
2026-06-28T2300,1133A,126.6894,45.7733,哈尔滨市,太平宏伟公园,,45,45,28,24,8,21,21,112,95,68,26,6,6,0.3,0.3
2026-06-28T2300,1134A,126.6361,45.7672,哈尔滨市,道外承德广场,,46,46,43,20,9,90,90,116,112,28,28,4,5,0.4,0.3
2026-06-28T2300,1136A,126.644,45.7261,哈尔滨市,动力和平路,颗粒物(PM10),59,62,31,25,10,44,44,122,104,55,26,6,6,0.6,0.4
2026-06-28T2300,1137A,126.5933,45.7479,哈尔滨市,道里建国路,,32,28,27,22,13,102,102,115,106,7,19,4,5,0.3,0.5
2026-06-28T2300,1138A,126.6127,45.6119,哈尔滨市,平房东轻厂,,41,41,30,27,11,19,19,101,52,37,36,7,7,0.9,0.6
2026-06-28T2300,1139A,126.5875,45.9827,哈尔滨市,呼兰师专,,22,13,19,12,5,24,24,100,80,44,22,3,3,0.6,0.3
2026-06-28T2300,1140A,126.6299,45.6799,哈尔滨市,省农科院,颗粒物(PM10),60,63,44,28,12,4,4,109,80,93,35,5,6,0.7,0.4
2026-06-28T2300,4282A,126.6769,45.7379,哈尔滨市,华山路1号,颗粒物(PM10),56,58,26,22,8,41,41,131,109,58,21,6,6,0.3,0.2
2026-06-28T2300,4283A,126.9717,45.5356,哈尔滨市,解放大街52号,,47,47,44,9,7,49,49,114,86,32,31,4,4,0.4,0.3
2026-06-28T2300,2688A,93.5124,42.8176,哈密市,地区监测站,,32,21,17,12,8,101,101,133,129,20,8,5,6,0.5,0.4
2026-06-28T2300,2689A,93.5014,42.8312,哈密市,哈密师范学校,颗粒物(PM10),52,52,27,24,13,62,62,124,111,37,13,7,7,0.4,0.1
2026-06-28T2300,2671A,100.9016,36.9464,海北藏族自治州,海晏县西海镇,,34,20,18,18,9,107,107,155,142,3,3,7,8,0.3,0.4
2026-06-28T2300,3867A,102.074,36.5056,海东市,平安区公安局北苑,,33,26,22,19,12,104,104,139,129,10,5,8,7,0.5,0.5
2026-06-28T2300,4163A,102.0984,36.5119,海东市,滨河路,,30,30,21,10,12,70,70,136,111,43,16,9,6,0.5,0.5
2026-06-28T2300,1410A,110.3189,20.0596,海口市,海南大学,,18,10,18,3,11,56,56,96,72,12,10,4,5,0.3,0.4
2026-06-28T2300,1411A,110.2827,20.0051,海口市,秀英海南医院,,18,14,16,6,13,55,55,94,64,11,10,5,5,0.3,0.3
2026-06-28T2300,1412A,110.3391,19.9979,海口市,海南师范大学,,18,11,20,3,10,57,57,96,66,6,9,3,3,0.3,0.4
2026-06-28T2300,1413A,110.3303,20.0359,海口市,龙华路环保局宿舍,,19,13,20,8,11,60,60,101,74,8,9,/,/,0.3,0.3
2026-06-28T2300,3539A,110.5111,19.9737,海口市,桂林洋子站,,16,11,22,3,11,49,49,96,62,7,9,/,/,/,/
2026-06-28T2300,4134A,110.1952,20.0451,海口市,长滨二路9号,,16,6,16,3,9,51,51,87,62,6,8,/,/,/,/
2026-06-28T2300,2673A,100.6158,36.2985,海南藏族自治州,共和县恰卜恰镇,,40,29,23,17,9,128,128,144,141,7,5,12,11,0.4,0.4
2026-06-28T2300,2676A,97.373,37.376,海西蒙古族藏族自治州,德令哈市,颗粒物(PM10),60,64,31,12,10,129,129,141,140,2,2,21,20,0.3,0.3
2026-06-28T2300,1049A,114.492,36.5712,邯郸市,矿院,臭氧1小时(O3_1h),55,NA,28,23,18,164,164,216,188,2,5,2,7,0.6,0.6
2026-06-28T2300,1050A,114.4839,36.6136,邯郸市,丛台公园,,48,25,29,22,11,152,152,211,184,7,10,5,10,0.5,0.6
2026-06-28T2300,3458A,114.7893,36.5592,邯郸市,香泉濮院小区,,48,20,43,17,24,152,152,208,180,12,18,3,6,0.3,0.7
2026-06-28T2300,3580A,114.1998,36.4439,邯郸市,峰峰矿区临水派出所,,38,38,25,24,13,115,115,200,160,21,10,24,11,3.0,0.5
2026-06-28T2300,4068A,114.5209,36.7697,邯郸市,建安街268号,,39,23,41,12,13,122,122,210,181,8,15,3,6,0.4,0.7
2026-06-28T2300,4069A,114.5488,36.6177,邯郸市,丛台东路558号,,47,22,32,12,16,149,149,206,180,7,13,3,7,0.6,0.6
2026-06-28T2300,2635A,107.0155,33.0707,汉中市,市监测站,细颗粒物(PM2.5),54,53,34,37,22,36,36,103,80,12,13,4,7,0.5,0.5
2026-06-28T2300,2636A,107.0083,33.114,汉中市,鑫源开发区,细颗粒物(PM2.5),72,NA,32,46,17,38,38,115,88,25,15,6,9,0.5,0.4
2026-06-28T2300,2637A,107.0072,33.0323,汉中市,南郑大河坎水厂,细颗粒物(PM2.5),52,40,30,36,19,29,29,95,68,11,10,3,4,0.6,0.6
2026-06-28T2300,1223A,120.2073,30.2111,杭州市,滨江,,30,25,42,18,28,94,94,173,146,14,21,5,5,0.5,0.6
2026-06-28T2300,1224A,120.0625,30.2737,杭州市,西溪,细颗粒物(PM2.5),68,49,38,44,29,80,80,157,137,14,15,4,4,0.7,0.6
2026-06-28T2300,1226A,120.3417,30.315,杭州市,下沙,,30,28,38,21,36,60,60,174,132,20,22,5,5,0.6,0.6
2026-06-28T2300,1227A,120.1252,30.2465,杭州市,卧龙桥,,48,38,36,33,27,38,38,179,127,14,11,8,8,0.6,0.5
2026-06-28T2300,1228A,120.1902,30.2691,杭州市,浙江农大,,46,46,40,32,30,51,51,160,123,33,26,7,7,0.6,0.5
2026-06-28T2300,1230A,120.1195,30.3121,杭州市,和睦小学,,45,39,36,31,29,72,72,183,155,18,13,9,8,0.7,0.6
2026-06-28T2300,1231A,120.3076,30.4146,杭州市,临平镇,,36,34,54,25,36,86,86,192,150,13,21,7,7,0.5,0.6
2026-06-28T2300,1232A,120.2753,30.1839,杭州市,城厢镇,,32,32,41,18,29,84,84,162,135,16,21,6,6,0.8,0.8
2026-06-28T2300,1233A,120.0883,30.1808,杭州市,云栖,,42,42,36,28,22,32,32,155,93,27,22,5,5,0.7,0.6
2026-06-28T2300,3557A,119.9463,30.0496,杭州市,镇二中,NA,NA,38,36,NA,23,42,42,143,108,53,27,5,6,0.8,0.7
2026-06-28T2300,3558A,119.7184,30.2367,杭州市,市府大楼,,46,40,26,32,23,83,83,144,131,18,11,8,8,0.6,0.6
2026-06-28T2300,3656A,120.1554,30.2863,杭州市,消防大队,,43,36,38,30,29,58,58,172,142,24,16,8,8,0.9,0.8
2026-06-28T2300,1270A,117.1957,31.7845,合肥市,明珠广场,细颗粒物(PM2.5),98,78,68,59,47,136,136,195,183,26,18,8,8,0.8,0.7
2026-06-28T2300,1271A,117.307,31.8765,合肥市,三里街,细颗粒物(PM2.5),72,63,67,46,47,139,139,174,167,22,22,9,9,0.8,0.8
2026-06-28T2300,1272A,117.2587,31.8703,合肥市,琥珀山庄,细颗粒物(PM2.5),56,56,60,38,39,138,138,182,172,16,11,7,7,0.8,0.8
2026-06-28T2300,1275A,117.2593,31.9376,合肥市,庐阳区,颗粒物(PM10),63,68,68,35,40,131,131,194,174,33,29,8,11,0.7,0.7
2026-06-28T2300,1276A,117.345251,31.861615,合肥市,瑶海区,细颗粒物(PM2.5),72,53,68,46,43,115,115,182,163,38,22,8,9,0.9,0.8
2026-06-28T2300,1277A,117.3033,31.7967,合肥市,包河区,颗粒物(PM10),72,80,71,38,40,65,65,174,142,98,54,10,10,0.9,0.9
2026-06-28T2300,1278A,117.278,31.7392,合肥市,滨湖新区,颗粒物(PM10),67,73,63,40,38,130,130,176,170,23,11,11,12,0.9,0.8
2026-06-28T2300,1279A,117.1324,31.8395,合肥市,高新区,细颗粒物(PM2.5),66,68,68,43,42,140,140,184,175,25,16,7,8,0.8,0.7
2026-06-28T2300,3464A,117.3802,31.9148,合肥市,高教基地,细颗粒物(PM2.5),72,63,61,46,36,113,113,187,158,22,13,5,6,0.8,0.7
2026-06-28T2300,4098A,117.2518,31.8404,合肥市,中国科学技术大学,"颗粒物(PM10),细颗粒物(PM2.5)",56,58,64,38,45,163,163,203,193,20,15,10,10,0.7,0.8
2026-06-28T2300,3614A,79.9241,37.0878,和田地区,地区环保局,颗粒物(PM10),255,388,159,44,26,129,129,147,141,3,6,7,8,0.1,0.1
2026-06-28T2300,3615A,79.9132,37.1137,和田地区,市环保局,颗粒物(PM10),137,215,135,38,28,128,128,144,140,7,8,1,2,0.2,0.3
2026-06-28T2300,2517A,108.0496,24.6957,河池市,市环保站,,26,26,19,16,8,21,21,56,44,14,9,3,3,1.0,0.9
2026-06-28T2300,4302A,108.0901,24.6945,河池市,上任中路54号,,30,30,19,10,8,15,15,72,54,26,11,2,3,0.9,0.8
2026-06-28T2300,1697A,114.6962,23.7538,河源市,东埔,,12,9,12,6,7,37,37,55,49,8,7,4,4,0.6,0.7
2026-06-28T2300,1698A,114.6895,23.7232,河源市,老城,,15,12,15,10,9,31,31,56,47,11,9,11,8,0.6,0.7
2026-06-28T2300,3374A,115.5562,35.089,菏泽市,定陶老年大学,细颗粒物(PM2.5),70,68,54,45,29,173,173,196,194,13,11,3,3,0.4,0.2
2026-06-28T2300,4114A,115.4239,35.2593,菏泽市,黄河路600号,颗粒物(PM10),62,66,58,31,30,162,162,185,178,10,9,6,5,0.4,0.4
2026-06-28T2300,4115A,115.5025,35.2727,菏泽市,菏泽市人社局,颗粒物(PM10),60,63,54,34,31,150,150,168,165,15,15,7,7,0.4,0.4
2026-06-28T2300,4184A,115.479691,35.244011,菏泽市,永昌路1号,颗粒物(PM10),104,130,62,38,30,168,168,191,184,14,12,6,7,0.3,0.2
2026-06-28T2300,4193A,115.471542,35.280012,菏泽市,长城路999号,臭氧1小时(O3_1h),62,63,48,30,29,169,169,184,180,13,11,11,12,0.6,0.6
2026-06-28T2300,2514A,111.5264,24.4178,贺州市,环保小区,,17,10,30,6,15,52,52,98,77,6,10,4,4,0.4,0.5
2026-06-28T2300,2515A,111.561,24.4074,贺州市,政协大楼,NA,NA,NA,25,NA,16,NA,NA,101,88,NA,13,NA,13,NA,0.8
2026-06-28T2300,3534A,111.4744,24.455,贺州市,西湾,,37,37,36,12,17,46,46,84,67,7,9,8,9,0.4,0.5
2026-06-28T2300,2385A,114.17,35.9019,鹤壁市,市监测站,,39,36,44,25,28,122,122,178,150,5,7,6,5,0.5,0.5
2026-06-28T2300,2386A,114.2953,35.7512,鹤壁市,市交警支队,,48,48,51,14,35,99,99,202,169,19,16,6,8,0.4,0.6
2026-06-28T2300,2387A,114.2877,35.7302,鹤壁市,迎宾馆,,36,36,46,23,25,106,106,212,179,11,12,5,8,0.6,0.7
2026-06-28T2300,3474A,114.2616,35.6824,鹤壁市,大新区,,37,37,48,17,32,111,111,209,176,16,16,7,8,0.4,0.4
2026-06-28T2300,3596A,114.1573,35.9607,鹤壁市,南山宾馆,,38,NA,35,26,34,111,111,171,140,7,8,8,10,0.4,0.4
2026-06-28T2300,2244A,130.2537,47.3416,鹤岗市,哈啤分公司,,39,39,24,15,11,23,23,73,57,18,9,1,5,0.7,0.4
2026-06-28T2300,2245A,130.2683,47.3087,鹤岗市,斯达机电,,30,30,20,18,8,39,39,72,62,12,8,5,5,0.2,0.2
2026-06-28T2300,2246A,130.3114,47.3388,鹤岗市,东山纸板厂,NA,NA,NA,34,35,12,1,1,62,39,32,15,6,6,0.4,0.3
2026-06-28T2300,2263A,127.4832,50.2524,黑河市,交通局,,35,35,19,3,9,28,28,76,56,15,10,5,5,0.4,0.2
2026-06-28T2300,2264A,127.5146,50.2339,黑河市,环保局,颗粒物(PM10),55,56,17,25,11,17,17,72,58,38,10,22,8,0.5,0.3
2026-06-28T2300,1074A,115.6839,37.754,衡水市,电机北厂,,49,45,75,3,30,154,154,218,196,12,19,6,9,0.6,0.6
2026-06-28T2300,1075A,115.6303,37.7318,衡水市,市监测站,,47,44,66,3,26,150,150,213,188,9,16,9,12,0.8,0.9
2026-06-28T2300,3188A,115.6684,37.7216,衡水市,市城管局,,47,47,72,6,27,148,148,216,195,11,14,8,12,0.2,0.5
2026-06-28T2300,3459A,115.599,37.5491,衡水市,地表水厂,,49,49,71,14,32,156,156,223,197,13,21,8,12,0.3,0.5
2026-06-28T2300,2457A,112.6209,26.9268,衡阳市,衡阳化工总厂,细颗粒物(PM2.5),54,52,46,37,29,83,83,126,107,8,10,7,5,0.9,0.9
2026-06-28T2300,2458A,112.621,26.8957,衡阳市,珠晖区环保局,,36,36,44,25,26,86,86,129,110,13,21,6,7,0.9,0.9
2026-06-28T2300,2459A,112.628,26.8654,衡阳市,市委党校,,46,38,44,32,28,88,88,133,118,10,9,11,9,0.6,0.7
2026-06-28T2300,2460A,112.6007,26.8977,衡阳市,市监测站,,43,NA,35,30,30,102,102,135,119,7,12,7,8,1.3,1.3
2026-06-28T2300,2461A,112.5658,26.9013,衡阳市,真空机电公司,,43,35,42,30,30,102,102,142,120,10,13,6,7,1.1,1.1
2026-06-28T2300,3399A,112.6703,26.8817,衡阳市,师范学院,,40,36,48,28,30,98,98,136,121,8,11,9,10,0.8,0.8
2026-06-28T2300,3038A,103.3757,23.3679,红河哈尼族彝族自治州,州图书馆,,12,12,8,7,7,36,36,47,42,4,3,3,3,0.4,0.3
2026-06-28T2300,4154A,103.401,23.3561,红河哈尼族彝族自治州,蒙自市朝阳路,,16,13,12,11,7,32,32,46,39,3,2,6,6,0.3,0.3
2026-06-28T2300,1090A,111.6506,40.7517,呼和浩特市,呼市一监,,36,12,28,9,13,115,115,160,134,11,12,11,12,0.4,0.5
2026-06-28T2300,1094A,111.7516,40.8369,呼和浩特市,如意水处理厂,,25,22,32,16,18,79,79,172,132,27,19,8,9,0.6,0.5
2026-06-28T2300,1095A,111.727798,40.806187,呼和浩特市,二十九中,,29,21,33,17,21,92,92,162,130,20,17,10,11,1.0,0.8
2026-06-28T2300,1097A,111.717,40.7617,呼和浩特市,化肥厂生活区,,32,22,31,8,20,102,102,164,134,12,15,12,13,0.8,0.7
2026-06-28T2300,3699A,111.6519,40.8389,呼和浩特市,海东办,,30,17,30,3,9,95,95,160,128,20,17,7,8,0.5,0.5
2026-06-28T2300,4275A,111.591512,40.827312,呼和浩特市,成吉思汗西街8号,,25,17,33,7,11,58,58,154,114,50,28,4,7,0.3,0.4
2026-06-28T2300,4276A,111.6597,40.8077,呼和浩特市,公园东路75号,,36,19,30,11,12,113,113,167,144,16,16,11,12,0.8,0.8
2026-06-28T2300,4277A,111.5427,40.7846,呼和浩特市,金海路35号,,31,31,37,10,16,89,89,147,120,22,21,5,7,0.5,0.5
2026-06-28T2300,3061A,119.7511,49.1576,呼伦贝尔市,国华电力东,,32,32,26,18,16,86,86,99,88,9,9,5,5,0.3,0.4
2026-06-28T2300,4279A,119.7569,49.2222,呼伦贝尔市,伊敏大街东7号,,35,35,29,20,17,74,74,99,84,16,13,6,5,0.4,0.4
2026-06-28T2300,1250A,120.075,30.867,湖州市,城西水厂,,41,36,55,22,40,130,130,224,198,6,9,5,6,0.5,0.6
2026-06-28T2300,2873A,120.083,30.8929,湖州市,仁皇山新区,,32,32,50,21,38,91,91,184,158,10,13,5,6,0.6,0.6
2026-06-28T2300,2907A,120.1846,30.8592,湖州市,吴兴区站,NA,NA,23,40,19,34,NA,NA,174,159,15,17,6,7,0.5,0.5
2026-06-28T2300,3562A,120.4146,30.8538,湖州市,南浔区站,,28,28,38,14,32,80,80,156,125,15,16,9,9,0.7,0.7
2026-06-28T2300,1607A,120.904878,40.721091,葫芦岛市,龙港区,颗粒物(PM10),55,56,37,29,27,142,142,188,175,12,9,9,10,0.7,0.6
2026-06-28T2300,1608A,120.8382,40.7521,葫芦岛市,化工街,颗粒物(PM10),67,73,46,33,26,115,115,172,144,40,20,15,16,0.6,0.5
2026-06-28T2300,1609A,120.8339,40.7078,葫芦岛市,新区,细颗粒物(PM2.5),66,53,37,43,29,111,111,168,149,22,10,6,6,0.6,0.5
2026-06-28T2300,1610A,120.8697,40.7679,葫芦岛市,东城区,NA,NA,61,41,52,31,NA,NA,172,NA,33,16,4,4,0.8,0.7
2026-06-28T2300,2483A,109.9297,27.5383,怀化市,河西地税局,,40,36,29,28,20,61,61,98,85,9,8,8,10,/,/
2026-06-28T2300,2484A,109.9783,27.5342,怀化市,市四医院,,50,50,42,31,24,59,59,107,91,10,13,7,8,0.6,0.5
2026-06-28T2300,2485A,109.9971,27.5579,怀化市,监测楼,,43,40,38,30,23,58,58,112,88,9,10,9,8,0.6,0.6
2026-06-28T2300,1210A,119.0566,33.5991,淮安市,钵池山,细颗粒物(PM2.5),52,44,43,36,30,98,98,172,154,16,13,8,10,0.5,0.7
2026-06-28T2300,1211A,119.0083,33.578,淮安市,北京南路,细颗粒物(PM2.5),56,41,45,38,34,114,114,198,176,10,11,7,8,0.8,0.9
2026-06-28T2300,1212A,118.9938,33.6083,淮安市,市监测站,细颗粒物(PM2.5),54,39,39,37,32,119,119,194,176,10,13,7,9,0.9,1
2026-06-28T2300,1213A,119.135,33.5038,淮安市,楚州区监测站,细颗粒物(PM2.5),64,49,44,42,36,105,105,190,164,11,13,6,6,0.7,0.8
2026-06-28T2300,3426A,118.8757,33.2897,淮安市,新华书店,颗粒物(PM10),55,56,49,29,29,128,128,190,173,10,14,8,9,0.8,0.8
2026-06-28T2300,4092A,119.119691,33.550006,淮安市,枚皋中路89号,细颗粒物(PM2.5),74,NA,47,47,34,117,117,188,167,11,12,8,9,0.7,0.8
2026-06-28T2300,4206A,119.028838,33.631911,淮安市,承德北路606号,细颗粒物(PM2.5),58,41,44,39,32,105,105,170,151,6,9,6,7,0.7,0.8
2026-06-28T2300,2282A,116.8005,33.9749,淮北市,监测站,细颗粒物(PM2.5),56,54,44,38,30,154,154,219,202,15,12,8,8,0.9,0.7
2026-06-28T2300,2283A,116.8094,33.9008,淮北市,烈山区政府,颗粒物(PM10),63,68,46,41,25,147,147,225,202,18,13,3,6,0.7,0.6
2026-06-28T2300,4017A,116.7926,33.9534,淮北市,市博物馆,颗粒物(PM10),59,62,43,39,29,155,155,230,210,13,10,5,5,0.7,0.5
2026-06-28T2300,4100A,116.8322,33.9884,淮北市,杜集区第一实验学校,细颗粒物(PM2.5),58,59,47,39,23,151,151,225,203,16,12,9,9,0.6,0.5
2026-06-28T2300,2277A,116.8304,32.7726,淮南市,潘集区政府,细颗粒物(PM2.5),80,74,52,50,32,122,122,195,170,16,12,9,8,0.4,0.3
2026-06-28T2300,2279A,116.8569,32.5949,淮南市,谢家集区政府,细颗粒物(PM2.5),70,53,42,45,33,156,156,192,179,14,14,7,8,0.3,0.3
2026-06-28T2300,2280A,116.8279,32.6333,淮南市,八公山区政府,细颗粒物(PM2.5),74,62,58,47,33,144,144,195,177,14,11,14,9,0.5,0.3
2026-06-28T2300,2894A,117.0561,32.6536,淮南市,经济技术开发区消防队,细颗粒物(PM2.5),94,58,39,57,34,118,118,187,167,20,14,8,8,0.7,0.5
2026-06-28T2300,3329A,117.011,32.5891,淮南市,山南新区,细颗粒物(PM2.5),86,70,44,53,32,154,154,191,180,10,9,10,10,0.5,0.5
2026-06-28T2300,4209A,117.003137,32.644456,淮南市,国庆中路369号,细颗粒物(PM2.5),84,76,46,52,28,124,124,180,163,19,14,8,8,0.5,0.4
2026-06-28T2300,2446A,114.9021,30.474,黄冈市,职工中心,NA,NA,44,49,NA,37,128,128,200,173,9,14,10,12,0.7,0.8
2026-06-28T2300,2929A,114.8858,30.4519,黄冈市,红卫路,细颗粒物(PM2.5),60,NA,43,40,41,115,115,189,157,3,14,7,9,0.6,0.5
2026-06-28T2300,3398A,114.9134,30.4446,黄冈市,市林业局,细颗粒物(PM2.5),64,54,58,42,43,117,117,192,160,10,15,4,8,0.5,0.6
2026-06-28T2300,2672A,102.02,35.5101,黄南藏族自治州,同仁县隆务镇,NA,NA,NA,21,NA,10,NA,NA,156,NA,NA,2,NA,10,NA,0.2
2026-06-28T2300,2295A,118.2905,29.6965,黄山市,延安路89号,,24,24,27,14,18,48,48,115,83,10,6,6,6,0.4,0.4
2026-06-28T2300,2297A,118.1369,30.2755,黄山市,黄山区政府5号楼,细颗粒物(PM2.5),52,36,39,36,30,36,36,132,85,8,5,3,3,0.7,0.6
2026-06-28T2300,4210A,118.335445,29.720283,黄山市,滨江东路7-2号,,42,42,40,24,21,36,36,107,71,7,4,/,/,/,/
2026-06-28T2300,2423A,115.0547,30.2332,黄石市,沈家营,颗粒物(PM10),68,75,70,40,38,71,71,180,137,32,27,6,8,0.7,0.7
2026-06-28T2300,2426A,114.899,30.211,黄石市,铁山,,49,48,50,34,30,114,114,168,149,23,11,4,4,0.5,0.5
2026-06-28T2300,2427A,115.0259,30.2108,黄石市,团城山,颗粒物(PM10),58,61,68,36,38,129,129,204,181,16,17,5,6,0.8,0.8
2026-06-28T2300,3149A,115.0174,30.1591,黄石市,笔架山北路,颗粒物(PM10),68,74,72,30,34,134,134,205,179,7,10,5,5,0.6,0.5
2026-06-28T2300,4185A,115.078022,30.21118,黄石市,磁湖东路29号,颗粒物(PM10),63,67,69,31,40,79,79,196,166,50,26,5,6,1.1,0.9
2026-06-28T2300,1392A,114.4181,23.0528,惠州市,河南岸金山湖子站,,12,12,15,7,9,36,36,53,46,10,10,7,9,0.5,0.5
2026-06-28T2300,1393A,114.4055,23.0824,惠州市,下埔横江三路子站,,20,20,19,10,9,43,43,55,50,8,8,14,6,0.6,0.6
2026-06-28T2300,1395A,114.4645,22.7832,惠州市,惠阳区承修路船湖子站,,16,12,16,7,8,51,51,62,47,8,10,3,3,0.6,0.6
2026-06-28T2300,1396A,114.5316,22.7423,惠州市,大亚湾管委会子站,NA,NA,10,15,3,6,NA,NA,62,52,7,10,5,5,0.6,0.6
2026-06-28T2300,3314A,114.4334,22.8134,惠州市,惠阳秋长,,18,14,12,12,7,35,35,61,44,20,13,/,/,/,/
2026-06-28T2300,3452A,114.6521,22.7755,惠州市,大亚湾霞涌,,15,15,13,3,5,32,32,66,52,13,7,/,/,/,/
2026-06-28T2300,4300A,114.4089,23.1147,惠州市,文华一路1号,,14,14,15,7,8,38,38,52,46,10,9,/,/,/,/
2026-06-28T2300,2240A,130.9618,45.2926,鸡西市,环保局,,18,18,19,3,9,36,36,90,73,15,8,9,9,0.3,0.2
2026-06-28T2300,2243A,130.9294,45.2959,鸡西市,第一中学,,26,26,18,8,10,47,47,84,71,15,7,7,8,0.3,0.3
2026-06-28T2300,3707A,131.0069,45.2988,鸡西市,欧美日汽修厂,NA,NA,51,21,3,7,NA,NA,86,NA,23,8,7,6,0.5,0.4
2026-06-28T2300,2367A,114.9753,27.0803,吉安市,红声器材厂,颗粒物(PM10),51,51,58,21,34,87,87,129,111,14,10,8,8,0.5,0.5
2026-06-28T2300,2369A,114.9903,27.1313,吉安市,市环境监测站,,41,41,53,23,35,66,66,119,98,17,10,14,13,/,/
2026-06-28T2300,2370A,115.009527,27.096792,吉安市,青原区法院,,48,48,57,27,37,63,63,118,95,29,13,11,8,0.4,0.5
2026-06-28T2300,1772A,126.54,43.8622,吉林市,哈达湾,,26,26,38,18,26,74,74,104,87,16,25,6,7,0.4,0.4
2026-06-28T2300,1773A,126.5843,43.8358,吉林市,东局子,,33,32,37,23,26,63,63,100,76,13,18,4,4,0.8,0.8
2026-06-28T2300,1774A,126.5051,43.8243,吉林市,电力学院,,36,32,44,25,27,64,64,111,81,10,25,5,6,0.9,0.9
2026-06-28T2300,1775A,126.6133,43.8971,吉林市,江北,,46,NA,32,32,33,56,56,102,63,10,17,6,7,0.5,0.6
2026-06-28T2300,1776A,126.5549,43.8304,吉林市,江南公园,,34,34,40,20,26,71,71,106,82,16,16,5,6,0.1,0.1
2026-06-28T2300,2868A,126.4737,43.953,吉林市,九站,细颗粒物(PM2.5),62,47,42,41,30,58,58,104,80,15,31,2,8,0.3,0.3
2026-06-28T2300,1299A,116.9866,36.6118,济南市,科干所,,48,22,37,19,21,152,152,199,180,11,13,3,5,0.7,0.7
2026-06-28T2300,1300A,116.9379,36.6652,济南市,农科所,,48,NA,44,22,21,151,151,191,176,10,11,2,4,0.2,0.3
2026-06-28T2300,1301A,117.1265,36.6736,济南市,开发区,,35,NA,44,21,22,112,112,168,145,6,7,5,6,0.5,0.5
2026-06-28T2300,1303A,117.0616,36.6865,济南市,省种子仓库,,44,NA,49,22,20,138,138,188,166,8,9,4,6,0.4,0.4
2026-06-28T2300,1304A,116.9495185,36.644937,济南市,机床二厂,,42,NA,49,21,21,132,132,185,165,9,10,4,6,0.3,0.4
2026-06-28T2300,1305A,117.0496,36.6629,济南市,市监测站,,43,20,43,19,20,137,137,188,168,10,9,3,4,0.4,0.4
2026-06-28T2300,1306A,116.7674,36.5458,济南市,长清党校,细颗粒物(PM2.5),58,NA,44,39,19,160,160,191,180,8,10,3,5,0.3,0.3
2026-06-28T2300,1961A,117.5323,36.6865,济南市,东山小学,,48,NA,52,31,24,152,152,203,185,8,12,3,6,0.3,0.3
2026-06-28T2300,3059A,117.7181,36.205,济南市,泰兴公司,细颗粒物(PM2.5),52,NA,57,36,28,160,160,211,201,13,32,10,13,0.8,0.5
2026-06-28T2300,3064A,117.6861,36.2172,济南市,莱芜战役纪念馆,,46,41,53,29,25,147,147,214,202,8,20,3,4,0.8,0.5
2026-06-28T2300,3494A,117.1673,36.9782,济南市,济阳区政府,,42,17,60,14,22,133,133,184,151,10,20,2,4,0.2,0.3
2026-06-28T2300,3495A,117.1168,36.6299,济南市,锦屏中学,,41,NA,46,23,20,130,130,159,153,6,6,7,8,0.1,0.2
2026-06-28T2300,4108A,117.7107,36.2385,济南市,山财大街5号,细颗粒物(PM2.5),52,NA,48,36,25,160,160,218,206,13,24,8,10,0.6,0.4
2026-06-28T2300,4109A,116.9744,36.6889,济南市,无影山路12号,,42,NA,39,22,22,134,134,178,160,8,10,2,3,0.4,0.4
2026-06-28T2300,1653A,116.6229,35.4288,济宁市,火炬城,臭氧1小时(O3_1h),58,41,46,28,19,166,166,189,188,28,14,1,3,0.7,0.6
2026-06-28T2300,3500A,116.5808,35.3703,济宁市,北湖一中,臭氧1小时(O3_1h),77,44,36,30,19,181,181,210,208,10,6,5,6,0.4,0.4
2026-06-28T2300,3501A,116.8251,35.5592,济宁市,服务中心,臭氧1小时(O3_1h),67,45,45,29,20,173,173,191,188,9,9,3,3,0.5,0.5
2026-06-28T2300,3678A,116.5907,35.4054,济宁市,市第七中学,臭氧1小时(O3_1h),79,49,44,30,19,183,183,212,210,11,8,3,3,0.3,0.3
2026-06-28T2300,4111A,116.6075,35.4566,济宁市,任和路,臭氧1小时(O3_1h),84,59,45,31,20,187,187,211,211,12,10,3,4,0.5,0.5
2026-06-28T2300,4112A,116.5648,35.3921,济宁市,文体南路1号,臭氧1小时(O3_1h),72,50,38,40,16,177,177,199,199,8,5,4,5,0.7,0.7
2026-06-28T2300,4122A,112.6071,35.1015,济源市,市委党校,颗粒物(PM10),66,72,50,30,23,111,111,178,148,18,14,11,11,0.6,0.6
2026-06-28T2300,4123A,112.596,35.0702,济源市,沁园中路1号,颗粒物(PM10),51,51,42,25,23,89,89,195,160,28,16,5,4,0.7,0.7
2026-06-28T2300,2255A,130.2749,46.8028,佳木斯市,佳纺,,34,34,21,17,10,11,11,73,51,36,17,2,2,0.3,0.2
2026-06-28T2300,2257A,130.3258,46.7975,佳木斯市,环保局,,23,23,20,8,10,28,28,75,62,31,19,5,4,0.2,0.1
2026-06-28T2300,4285A,130.363,46.806,佳木斯市,顺和街,,21,21,14,11,8,21,21,75,60,32,15,3,2,0.2,0.2
2026-06-28T2300,4286A,130.3952,46.8268,佳木斯市,长安路196号,,25,25,16,10,6,24,24,78,62,28,17,6,6,0.3,0.2
2026-06-28T2300,1252A,120.7439,30.778,嘉兴市,清河小学,,29,27,36,3,17,92,92,164,128,12,15,5,6,0.5,0.6
2026-06-28T2300,1253A,120.7261,30.7477,嘉兴市,嘉兴学院,,29,21,26,17,23,91,91,172,134,14,16,5,5,0.7,0.7
2026-06-28T2300,2872A,120.7845,30.7524,嘉兴市,南湖区残联,,31,21,30,14,23,99,99,179,138,8,11,6,7,0.7,0.7
2026-06-28T2300,3407A,120.6915,30.7741,嘉兴市,秀洲住建,,30,24,33,13,22,93,93,175,139,14,15,7,7,0.6,0.7
2026-06-28T2300,1945A,98.291,39.7705,嘉峪关市,气象局,,35,31,39,13,13,110,110,142,131,11,9,5,12,0.5,0.5
2026-06-28T2300,2884A,98.2672,39.7978,嘉峪关市,酒钢宾馆,颗粒物(PM10),51,51,44,14,17,100,100,140,132,14,6,7,17,0.6,0.7
2026-06-28T2300,3248A,98.2644,39.7723,嘉峪关市,雄关区,,37,37,43,11,11,97,97,141,130,17,10,4,10,0.1,0.1
2026-06-28T2300,1383A,113.1063,22.6058,江门市,北街,,25,20,17,17,11,23,23,52,41,19,12,/,/,/,/
2026-06-28T2300,1384A,113.073,22.5835,江门市,西区,,22,16,13,15,12,30,30,55,42,20,18,/,/,/,/
2026-06-28T2300,1385A,113.0218,22.531,江门市,圭峰西,,22,22,16,15,11,24,24,58,45,16,11,/,/,/,/
2026-06-28T2300,1386A,113.0826,22.5947,江门市,东湖,,23,23,18,16,11,20,20,54,40,18,14,5,6,0.6,0.6
2026-06-28T2300,3311A,113.1077,22.5647,江门市,江海富民,,25,25,28,17,13,31,31,61,46,18,15,/,/,0.9,0.8
2026-06-28T2300,3449A,113.0496,22.4669,江门市,新会银湖,,29,NA,18,20,11,6,6,46,25,36,21,3,2,0.7,0.7
2026-06-28T2300,3335A,113.3137,35.2643,焦作市,马村街道办,颗粒物(PM10),51,51,40,35,23,116,116,185,161,16,14,7,9,0.6,0.4
2026-06-28T2300,3336A,113.2464,35.2374,焦作市,焦作技师学院,颗粒物(PM10),54,55,33,28,20,123,123,182,165,13,13,8,9,0.8,0.5
2026-06-28T2300,3477A,113.1656,35.2536,焦作市,中站许衡医院,,49,32,35,31,21,154,154,185,170,10,8,8,8,0.5,0.4
2026-06-28T2300,3981A,113.2456,35.18,焦作市,原李万街道办,颗粒物(PM10),65,70,42,25,20,130,130,192,172,13,9,13,10,0.6,0.5
2026-06-28T2300,4264A,113.234,35.219,焦作市,新安路1731号,,50,50,46,30,21,136,136,202,183,8,5,10,11,0.8,0.6
2026-06-28T2300,4295A,113.2722,35.2121,焦作市,人民路3066号,NA,NA,89,42,31,23,NA,NA,178,NA,23,16,6,7,0.5,0.5
2026-06-28T2300,1708A,116.3701,23.5345,揭阳市,新兴,,29,29,26,13,15,23,23,65,47,20,15,6,7,0.6,0.5
2026-06-28T2300,1709A,116.3261,23.5442,揭阳市,西马,,28,28,26,16,15,25,25,67,50,20,13,11,7,0.8,0.7
2026-06-28T2300,1710A,116.361,23.5627,揭阳市,东兴,,23,23,22,14,18,23,23,60,44,18,15,4,4,/,/
2026-06-28T2300,1711A,116.4151,23.5295,揭阳市,渔湖,,24,24,30,11,18,18,18,57,41,20,14,2,3,/,/
2026-06-28T2300,3320A,116.4028,23.5699,揭阳市,曲溪,,20,20,21,12,14,22,22,60,43,17,11,6,7,0.5,0.5
2026-06-28T2300,1944A,102.1691,38.5166,金昌市,天庆家园,,44,44,88,14,22,130,130,136,130,4,12,7,30,0.2,0.3
2026-06-28T2300,4022A,102.1648,38.5369,金昌市,金川区人防中心,,40,34,88,17,25,127,127,138,129,5,7,3,12,0.2,0.3
2026-06-28T2300,4239A,102.193042,38.531887,金昌市,长春路96号,,49,49,80,12,23,118,118,130,121,5,8,3,13,0.3,0.3
2026-06-28T2300,1262A,119.6478,29.0773,金华市,十五中,,24,24,35,12,19,54,54,118,82,8,14,1,1,0.6,0.6
2026-06-28T2300,1263A,119.6859,29.1032,金华市,监测站,,21,21,36,8,21,50,50,120,87,12,18,4,4,0.4,0.5
2026-06-28T2300,3659A,119.656,29.1132,金华市,气象局,,20,20,41,11,25,54,54,119,90,8,20,2,3,0.4,0.5
2026-06-28T2300,1767A,121.1114,41.0879,锦州市,南山,细颗粒物(PM2.5),113,NA,44,74,31,92,92,184,158,46,17,8,9,0.6,0.5
2026-06-28T2300,1768A,121.060361,40.842794,锦州市,开发区,细颗粒物(PM2.5),80,88,67,50,29,140,140,182,158,29,19,8,10,0.1,0.1
2026-06-28T2300,1769A,121.1836,41.1118,锦州市,百股街道,细颗粒物(PM2.5),105,NA,45,65,35,116,116,198,166,26,15,9,10,0.7,0.6
2026-06-28T2300,1770A,121.1176,41.1224,锦州市,天安街道,细颗粒物(PM2.5),110,NA,49,70,33,121,121,189,169,30,15,7,10,0.8,0.7
2026-06-28T2300,1771A,121.1303,41.1385,锦州市,北湖公园,细颗粒物(PM2.5),102,NA,45,62,31,132,132,191,177,23,12,5,7,0.5,0.5
2026-06-28T2300,2160A,112.8496,35.5051,晋城市,自来水公司,,42,42,33,20,12,117,117,177,167,11,9,4,6,0.4,0.7
2026-06-28T2300,2162A,112.8509,35.4886,晋城市,市环保局,,37,37,32,7,16,116,116,176,167,10,10,4,7,0.3,0.5
2026-06-28T2300,3620A,112.8258,35.4804,晋城市,泽州一中,,37,29,28,14,15,118,118,176,168,19,13,4,6,0.4,0.6
2026-06-28T2300,4078A,112.8246,35.5152,晋城市,前书院路,,37,35,31,9,11,118,118,185,172,10,8,4,6,0.3,0.8
2026-06-28T2300,4079A,112.8864,35.4773,晋城市,祥云街666号,NA,NA,28,26,22,16,NA,NA,168,NA,10,8,2,3,0.4,0.5
2026-06-28T2300,2174A,112.6992,37.6984,晋中市,榆次区政府,,35,NA,34,19,23,110,110,162,133,7,13,7,11,0.5,0.7
2026-06-28T2300,2865A,112.7195,37.683,晋中市,榆次三中,,38,12,33,9,22,119,119,180,169,5,12,7,11,0.4,0.7
2026-06-28T2300,4080A,112.7375,37.7215,晋中市,广安街188号,,32,24,35,7,19,101,101,165,133,10,15,6,10,0.1,0.3
2026-06-28T2300,4200A,112.7478,37.6954,晋中市,迎宾街26号,,35,14,34,12,21,109,109,158,132,8,16,5,10,0.4,0.6
2026-06-28T2300,2439A,112.2012,31.048,荆门市,竹园小学,,50,50,52,32,37,106,106,162,148,16,13,4,4,1.1,0.8
2026-06-28T2300,2440A,112.1968,30.9892,荆门市,掇刀,,50,48,48,35,39,115,115,163,150,12,9,10,10,0.7,0.7
2026-06-28T2300,3012A,112.1849,31.0361,荆门市,西山林语,,48,48,46,32,34,87,87,153,134,10,7,8,9,0.6,0.6
2026-06-28T2300,3547A,112.1631,31.0134,荆门市,龙泉中学南校,,40,40,44,24,27,101,101,171,153,11,9,6,6,0.9,0.9
2026-06-28T2300,4124A,112.2213,31.0654,荆门市,新台西路6号,细颗粒物(PM2.5),56,45,52,38,40,120,120,164,148,9,10,5,6,1.1,1.1
2026-06-28T2300,1844A,112.2493,30.3198,荆州市,市图书馆,细颗粒物(PM2.5),54,NA,41,37,36,119,119,157,135,8,10,5,5,0.7,0.7
2026-06-28T2300,1845A,112.2009,30.3543,荆州市,市委党校,,49,44,44,34,33,98,98,134,117,18,12,8,9,0.6,0.5
2026-06-28T2300,3194A,112.2749,30.3124,荆州市,管委会,,50,50,49,29,37,116,116,152,130,7,10,9,10,0.6,0.6
2026-06-28T2300,4268A,112.1722,30.3366,荆州市,学苑路85号,细颗粒物(PM2.5),52,42,39,36,34,61,61,151,118,40,19,5,8,0.6,0.6
2026-06-28T2300,2343A,117.2114,29.2931,景德镇市,老干部活动中心,NA,NA,34,28,27,26,NA,NA,120,105,17,8,10,5,0.7,0.7
2026-06-28T2300,2344A,117.1893,29.2789,景德镇市,兽医站,,44,44,34,21,24,35,35,122,90,25,9,4,4,0.6,0.6
2026-06-28T2300,2346A,117.246,29.2958,景德镇市,陶研所,,28,28,26,16,19,44,44,109,79,7,6,3,4,0.7,0.7
2026-06-28T2300,4289A,117.154766,29.256967,景德镇市,青少年活动中心,颗粒物(PM10),53,54,44,25,29,27,27,119,88,38,20,42,26,/,/
2026-06-28T2300,1803A,115.9873,29.6816,九江市,十里,,50,44,48,35,32,70,70,147,114,34,19,4,3,0.6,0.6
2026-06-28T2300,1804A,115.9583,29.7047,九江市,茅山头,,37,37,40,25,29,83,83,166,130,20,13,4,4,0.5,0.6
2026-06-28T2300,1805A,115.9877,29.7295,九江市,西园,二氧化氮(NO2),53,30,38,25,30,11,11,142,101,106,39,4,5,0.5,0.5
2026-06-28T2300,1808A,115.9112,29.6038,九江市,综合工业园,,45,45,32,28,29,72,72,158,110,26,18,1,2,0.3,0.4
2026-06-28T2300,3190A,116.0254,29.6995,九江市,外国语学校,细颗粒物(PM2.5),58,NA,42,39,33,70,70,136,108,18,15,7,7,0.8,0.8
2026-06-28T2300,4253A,116.010205,29.659402,九江市,莲花大道8号,,40,NA,35,28,33,73,73,123,102,9,10,2,5,0.5,0.6
2026-06-28T2300,4240A,98.495752,39.733935,酒泉市,玉门东路5号,,34,34,40,13,15,104,104,136,125,13,9,6,10,0.1,0.2
2026-06-28T2300,4241A,98.5099,39.7506,酒泉市,北大街108号,,33,29,48,12,14,105,105,140,126,14,10,11,15,0.2,0.3
2026-06-28T2300,2698A,76.0071,39.466,喀什地区,巡警大队,颗粒物(PM10),51,51,46,21,15,114,114,151,144,22,9,3,3,0.2,0.1
2026-06-28T2300,2699A,75.9756,39.4693,喀什地区,吾办,颗粒物(PM10),55,57,44,24,19,107,107,143,136,18,4,3,3,0.4,0.2
2026-06-28T2300,4027A,75.9485,39.4688,喀什地区,老干局,颗粒物(PM10),65,70,48,21,8,102,102,142,132,22,6,4,4,0.3,0.2
2026-06-28T2300,1824A,114.3389,34.778,开封市,肿瘤医院,颗粒物(PM10),80,92,49,44,32,142,142,183,167,24,14,7,5,0.4,1.2
2026-06-28T2300,1826A,114.2884,34.7966,开封市,世纪星幼儿园,细颗粒物(PM2.5),60,56,63,40,42,150,150,189,177,17,18,8,8,0.5,0.5
2026-06-28T2300,3147A,114.3434,34.8101,开封市,龙亭公园,颗粒物(PM10),58,61,63,36,36,159,159,206,195,18,15,6,6,0.5,0.6
2026-06-28T2300,3210A,114.3645,34.7955,开封市,汴京公园,细颗粒物(PM2.5),66,64,66,43,42,145,145,197,180,20,16,9,9,0.8,0.7
2026-06-28T2300,3473A,114.2485,34.8306,开封市,技师学院,臭氧1小时(O3_1h),63,53,73,28,36,170,170,201,194,11,14,9,10,0.6,0.7
2026-06-28T2300,3592A,114.4518,34.7503,开封市,祥符区生态环境局,细颗粒物(PM2.5),74,66,57,47,43,120,120,185,162,42,22,11,11,0.5,0.6
2026-06-28T2300,1951A,84.886,45.6029,克拉玛依市,长征新村,,35,30,18,24,10,106,106,122,116,2,6,3,3,0.3,0.3
2026-06-28T2300,1952A,84.8894,45.5827,克拉玛依市,南林小区,,33,32,19,14,4,103,103,114,109,1,6,5,5,0.2,0.1
2026-06-28T2300,1954A,84.896,44.3328,克拉玛依市,独山子区,,40,37,26,28,8,33,33,116,85,56,10,8,8,0.8,0.4
2026-06-28T2300,1955A,85.6888,46.0909,克拉玛依市,乌尔禾区商贸楼,,38,38,24,25,16,110,110,117,108,5,8,7,7,0.2,0.2
2026-06-28T2300,3612A,85.1045,45.6895,克拉玛依市,白碱滩区新站,,37,25,17,8,4,117,117,132,127,2,3,7,8,0.2,0.2
2026-06-28T2300,2697A,76.1457,39.7143,克孜勒苏柯尔克孜自治州,市人民政府,,38,36,36,21,15,119,119,154,143,11,4,8,7,0.2,0.1
2026-06-28T2300,3665A,76.1654,39.7157,克孜勒苏柯尔克孜自治州,克州文化中心,,43,35,37,15,15,135,135,159,151,3,2,7,8,0.1,0.1
2026-06-28T2300,1450A,102.8203,24.889,昆明市,呈贡新区,,22,22,13,8,7,12,12,53,30,19,12,3,2,0.8,0.7
2026-06-28T2300,1452A,102.7253,25.0904,昆明市,龙泉镇,,43,41,16,30,8,3,3,43,22,22,14,5,5,0.7,0.5
2026-06-28T2300,1453A,102.7267,25.0378,昆明市,东风东路,,27,27,13,16,8,0,0,45,18,38,20,3,2,0.6,0.4
2026-06-28T2300,1454A,102.6744,25.0671,昆明市,金鼎山,,37,37,20,17,9,7,7,50,26,38,18,4,4,0.7,0.6
2026-06-28T2300,1455A,102.6643,25.0401,昆明市,碧鸡广场,,25,25,11,13,8,16,16,45,30,30,14,3,2,0.8,0.7
2026-06-28T2300,3179A,102.7491,25.012,昆明市,官渡区博物馆,,29,29,15,9,7,2,2,46,19,37,20,3,3,0.7,0.5
2026-06-28T2300,3375A,102.8016,24.8336,昆明市,青年创业园,,17,17,8,8,5,2,2,48,20,20,11,3,4,0.4,0.4
2026-06-28T2300,3550A,102.8,24.9787,昆明市,昆明学院,,27,27,13,12,4,15,15,51,28,25,13,7,5,0.4,0.4
2026-06-28T2300,3551A,102.5969,24.6738,昆明市,晋宁区生态环境分局,,23,17,14,16,10,29,29,52,41,11,8,4,4,0.7,0.6
2026-06-28T2300,3552A,102.6673,24.9861,昆明市,云天化总部,,17,17,10,7,4,12,12,48,31,30,13,5,5,0.6,0.5
2026-06-28T2300,1456A,91.132,29.6515,拉萨市,八廓街,,44,16,9,12,6,140,140,142,139,6,7,5,5,0.4,0.4
2026-06-28T2300,1457A,91.1221,29.6748,拉萨市,市环保局,,42,10,9,3,6,133,133,139,135,8,9,7,7,0.2,0.3
2026-06-28T2300,1458A,91.0874,29.6476,拉萨市,区监测站,,40,7,9,3,6,125,125,135,131,11,10,5,5,0.3,0.3
2026-06-28T2300,1459A,91.1774,29.6541,拉萨市,西藏大学,,45,NA,8,10,6,141,141,146,144,8,9,4,5,0.3,0.2
2026-06-28T2300,1460A,90.9798,29.6586,拉萨市,区辐射站,,42,NA,10,11,6,132,132,135,130,11,12,6,6,0.3,0.3
2026-06-28T2300,1461A,91.0831,29.6292,拉萨市,拉萨火车站,,40,11,8,11,6,125,125,136,130,11,8,4,4,0.2,0.3
2026-06-28T2300,2520A,109.2203,23.7252,来宾市,来宾技工学校,,49,49,44,21,26,62,62,104,84,14,12,24,12,0.8,0.9
2026-06-28T2300,3535A,109.1781,23.7293,来宾市,兴宾区政府,,38,38,37,16,24,62,62,113,84,8,10,6,7,0.7,0.7
2026-06-28T2300,4002A,109.2312,23.7428,来宾市,中南小学,,48,48,40,23,27,68,68,108,90,15,12,7,6,0.8,0.9
2026-06-28T2300,1479A,103.8309,36.0467,兰州市,铁路设计院,,37,36,45,15,22,118,118,154,140,15,23,8,11,0.7,0.8
2026-06-28T2300,3241A,103.7439,36.0841,兰州市,百合公园,,41,41,46,17,20,114,114,158,137,18,23,6,9,0.6,0.6
2026-06-28T2300,3242A,103.9613,35.9985,兰州市,和平,,37,28,34,14,19,118,118,150,140,10,9,13,15,0.3,0.3
2026-06-28T2300,4236A,103.629272,36.093822,兰州市,庄浪东路808号,,38,38,46,20,20,111,111,160,128,10,18,10,13,0.2,0.3
2026-06-28T2300,4237A,103.7251,36.104344,兰州市,安宁西路88号,颗粒物(PM10),56,58,46,20,18,129,129,168,147,10,28,10,10,0.3,0.3
2026-06-28T2300,4238A,103.846982,36.067567,兰州市,北滨河东路1号,,37,37,42,18,19,99,99,148,126,27,38,13,15,0.4,0.4
2026-06-28T2300,1067A,116.6712,39.5109,廊坊市,药材公司,臭氧1小时(O3_1h),84,66,66,44,36,187,187,226,215,13,20,4,3,0.6,0.5
2026-06-28T2300,1068A,116.7215,39.5592,廊坊市,开发区,细颗粒物(PM2.5),104,95,73,64,39,162,162,252,233,36,22,5,3,0.7,0.5
2026-06-28T2300,1070A,116.7246,39.5273,廊坊市,北华航天学院,细颗粒物(PM2.5),82,65,67,51,37,180,180,255,237,15,25,5,3,0.6,0.5
2026-06-28T2300,2919A,116.7022,39.5454,廊坊市,河北工业大学,细颗粒物(PM2.5),96,67,67,58,39,181,181,249,234,20,25,6,4,0.7,0.5
2026-06-28T2300,2536A,103.7629,29.5844,乐山市,牛耳桥,,20,15,19,3,8,61,61,77,71,9,8,5,5,0.7,0.7
2026-06-28T2300,2537A,103.7501,29.6002,乐山市,市第三水厂,,20,13,20,6,11,64,64,73,70,7,10,3,4,0.7,0.7
2026-06-28T2300,2538A,103.7571,29.5664,乐山市,市监测站,,20,16,21,3,8,62,62,72,70,6,6,2,3,0.7,0.7
2026-06-28T2300,3361A,103.7313,29.563,乐山市,理工大学,,18,14,19,6,11,57,57,78,73,7,6,4,4,0.5,0.5
2026-06-28T2300,2599A,100.2497,26.8802,丽江市,丽江古城,,13,10,14,3,8,41,41,63,57,9,8,9,10,0.7,0.6
2026-06-28T2300,2600A,100.2203,26.8906,丽江市,市中心,,13,NA,14,3,10,40,40,60,56,8,7,6,6,0.8,0.7
2026-06-28T2300,1267A,119.9141,28.4513,丽水市,监测站大楼,,23,14,24,7,14,73,73,99,78,8,7,4,4,0.4,0.3
2026-06-28T2300,1268A,119.93,28.4589,丽水市,莲都小学,,26,15,25,7,13,81,81,98,82,5,7,/,/,/,/
2026-06-28T2300,1269A,119.8794,28.4232,丽水市,余庄前,,16,16,26,7,14,44,44,88,68,11,10,7,7,0.5,0.5
2026-06-28T2300,1173A,119.1759,34.5885,连云港市,市环境监测站,,42,29,32,29,27,103,103,183,143,8,9,8,9,0.5,0.6
2026-06-28T2300,3000A,119.3577,34.6971,连云港市,德源药业,,46,46,44,29,29,87,87,161,118,18,12,6,8,1.2,0.5
2026-06-28T2300,3007A,119.178,34.8442,连云港市,新城一中,,47,47,43,21,21,91,91,152,119,22,14,6,5,0.6,0.6
2026-06-28T2300,3008A,119.3607,34.7519,连云港市,胡沟管理处,,43,22,30,9,16,136,136,125,110,9,22,9,12,0.5,0.5
2026-06-28T2300,3009A,119.1478,34.5913,连云港市,矿山设计院,,44,44,39,22,22,101,101,170,136,8,9,5,5,0.4,0.4
2026-06-28T2300,3434A,119.2414,34.6539,连云港市,工贸学校,,37,25,34,23,23,117,117,182,148,10,11,4,6,0.5,0.5
2026-06-28T2300,3664A,119.4171,34.734,连云港市,连云街道,,36,36,37,16,19,110,110,159,137,11,10,15,12,0.5,0.4
2026-06-28T2300,2573A,102.2629,27.8981,凉山彝族自治州,西昌市政府,,20,20,12,12,6,44,44,72,62,8,7,4,5,0.6,0.5
2026-06-28T2300,2574A,102.2686,27.885,凉山彝族自治州,凉山州政府,,19,14,9,10,6,58,58,72,64,6,7,5,6,0.5,0.5
2026-06-28T2300,4229A,102.2342,27.8859,凉山彝族自治州,凯乐南路30号,NA,NA,NA,14,NA,2,NA,NA,53,NA,NA,6,NA,5,NA,0.0
2026-06-28T2300,2212A,123.1978,41.2036,辽阳市,宏伟区,,34,17,22,11,12,108,108,129,107,5,6,6,7,0.6,0.6
2026-06-28T2300,2213A,123.1684,41.2497,辽阳市,新华园,,34,NA,28,13,14,107,107,142,110,6,10,7,8,0.4,0.4
2026-06-28T2300,2214A,123.2355,41.2663,辽阳市,滨河路,,32,16,23,9,13,100,100,124,95,9,12,8,8,0.4,0.4
2026-06-28T2300,4083A,123.153,41.2874,辽阳市,铁西路150号,,33,14,29,12,12,104,104,138,113,6,9,6,7,0.4,0.5
2026-06-28T2300,2227A,125.1359,42.8845,辽源市,环保局,,27,27,28,14,19,63,63,95,82,22,31,7,7,0.4,0.5
2026-06-28T2300,4085A,125.0998,42.9134,辽源市,安宁大街333号,NA,NA,22,30,15,21,61,61,91,83,NA,34,4,5,0.5,0.6
2026-06-28T2300,1625A,115.9789,36.4372,聊城市,区政府,NA,NA,NA,55,12,26,142,142,191,171,3,9,8,11,0.5,0.5
2026-06-28T2300,3200A,115.9772,36.4986,聊城市,监控中心,,50,44,52,14,25,160,160,215,193,4,10,8,10,0.5,0.5
2026-06-28T2300,3513A,116.0443,36.436,聊城市,九州社区,NA,NA,NA,53,NA,25,NA,NA,207,186,NA,8,NA,5,NA,0.4
2026-06-28T2300,4018A,116.0564,36.4609,聊城市,星美广场,,47,41,50,9,23,148,148,207,182,7,10,7,8,0.3,0.3
2026-06-28T2300,4113A,116.0091,36.4495,聊城市,利民路,颗粒物(PM10),54,55,40,12,24,152,152,203,180,7,11,9,13,0.3,0.4
2026-06-28T2300,2632A,94.3683,29.6373,林芝市,林芝监测站,,20,6,6,3,5,62,62,77,74,7,6,4,4,0.4,0.4
2026-06-28T2300,2633A,94.3616,29.6634,林芝市,林芝人民医院,,32,NA,7,22,7,64,64,81,77,7,7,4,4,0.2,0.2
2026-06-28T2300,2603A,100.0779,23.8981,临沧市,市环保局,,20,20,17,14,10,21,21,41,36,7,6,4,4,0.4,0.4
2026-06-28T2300,2604A,100.0894,23.882,临沧市,市气象局,,16,15,20,11,13,36,36,53,48,7,6,5,6,0.4,0.2
2026-06-28T2300,1733A,111.5552,36.0791,临汾市,临钢医院,,29,19,38,17,13,91,91,159,116,15,12,5,6,0.5,0.5
2026-06-28T2300,1734A,111.4984,36.0734,临汾市,技工学校,颗粒物(PM10),53,54,41,16,18,87,87,157,118,15,13,6,7,0.5,0.6
2026-06-28T2300,1736A,111.5017,36.0857,临汾市,市委,颗粒物(PM10),60,63,47,16,13,88,88,161,122,16,13,7,10,0.7,0.7
2026-06-28T2300,3018A,111.5048,36.1015,临汾市,唐尧大酒店,颗粒物(PM10),62,66,52,16,13,83,83,158,116,15,12,6,7,0.6,0.6
2026-06-28T2300,4244A,111.4879,36.053,临汾市,启星学校,,33,33,38,15,17,91,91,158,122,13,10,5,7,0.7,0.7
2026-06-28T2300,4271A,103.2464,35.6123,临夏回族自治州,滨河东路1号,,46,46,51,7,16,53,53,118,98,20,12,12,13,0.3,0.3
2026-06-28T2300,4310A,103.207136,35.599807,临夏回族自治州,新华街21号,,29,29,44,17,18,88,88,111,99,10,11,9,10,0.4,0.4
2026-06-28T2300,1618A,118.3429,35.0532,临沂市,沂河小区,细颗粒物(PM2.5),52,51,57,36,31,97,97,204,166,17,19,10,17,0.3,0.3
2026-06-28T2300,1619A,118.2962,35.0568,临沂市,鲁南制药厂,,49,48,51,34,29,97,97,215,174,19,22,12,20,0.6,0.5
2026-06-28T2300,1620A,118.2793,34.9976,临沂市,新光毛纺厂,细颗粒物(PM2.5),74,58,51,47,37,98,98,211,174,20,19,10,17,0.4,0.4
2026-06-28T2300,1621A,118.3955,35.0889,临沂市,河东保险公司,,50,36,49,35,34,100,100,219,174,16,19,8,14,0.2,0.2
2026-06-28T2300,3370A,118.3563,35.0215,临沂市,十里堡居委,细颗粒物(PM2.5),54,48,48,37,33,93,93,209,167,26,28,12,20,0.6,0.6
2026-06-28T2300,3496A,118.359,35.1067,临沂市,南坊新区,,50,44,52,35,38,93,93,208,167,18,20,6,13,0.5,0.6
2026-06-28T2300,3860A,118.3915,35.0297,临沂市,皇山花园小区,细颗粒物(PM2.5),66,46,54,43,39,97,97,211,170,18,20,9,16,0.5,0.4
2026-06-28T2300,1870A,109.4854,24.3898,柳州市,柳东小学,,36,27,22,25,18,45,45,99,88,24,9,6,6,0.8,0.7
2026-06-28T2300,1871A,109.4109,24.3304,柳州市,环保监测站,,32,29,32,22,19,39,39,111,90,23,16,7,8,0.8,0.9
2026-06-28T2300,1872A,109.3886,24.3408,柳州市,河西水厂,NA,NA,37,34,NA,23,21,21,123,108,32,13,8,9,1.0,0.8
2026-06-28T2300,1873A,109.4263,24.2951,柳州市,市四中,,33,33,37,22,23,42,42,122,97,16,15,6,7,0.7,0.8
2026-06-28T2300,1874A,109.396,24.3658,柳州市,市九中,,44,44,36,25,20,50,50,104,94,19,12,8,7,0.6,0.6
2026-06-28T2300,1875A,109.4912,24.3164,柳州市,古亭山,,32,NA,29,22,19,21,21,108,75,25,15,3,4,0.8,0.7
2026-06-28T2300,3402A,109.5422,24.3994,柳州市,市二中,,41,41,31,23,19,24,24,100,66,29,15,6,6,1.0,0.9
2026-06-28T2300,2307A,116.5078,31.7369,六安市,监测大楼,细颗粒物(PM2.5),100,NA,33,60,32,161,161,166,166,10,11,3,4,0.6,0.5
2026-06-28T2300,2308A,116.4738,31.7642,六安市,皖西学院,细颗粒物(PM2.5),92,NA,43,56,30,177,177,183,183,6,8,5,6,0.6,0.4
2026-06-28T2300,2309A,116.4997,31.7904,六安市,朝阳厂,细颗粒物(PM2.5),84,NA,37,52,32,154,154,162,162,17,13,7,7,0.5,0.4
2026-06-28T2300,2310A,116.5566,31.7885,六安市,开发区,细颗粒物(PM2.5),66,58,51,43,37,152,152,178,174,23,20,7,6,0.4,0.4
2026-06-28T2300,2577A,104.8293,26.592,六盘水市,黄土坡,,16,NA,19,7,12,51,51,62,49,10,13,5,5,0.5,0.5
2026-06-28T2300,2579A,104.8481,26.5898,六盘水市,民中,,18,9,16,3,11,57,57,64,50,8,13,1,1,0.5,0.5
2026-06-28T2300,2580A,104.9541,26.5506,六盘水市,双水,,16,7,16,7,8,50,50,70,56,4,7,4,4,0.3,0.3
2026-06-28T2300,4151A,104.8899,26.5685,六盘水市,钟山大道中段564号,,14,13,18,9,10,42,42,67,52,13,6,6,5,1.0,0.6
2026-06-28T2300,2336A,117.022,25.1031,龙岩市,龙岩市监测站,,13,13,14,8,8,26,26,69,48,12,8,4,5,0.4,0.4
2026-06-28T2300,2337A,117.0257,25.0662,龙岩市,闽西职业技术学院,,18,18,15,8,8,13,13,65,44,12,6,5,5,0.4,0.4
2026-06-28T2300,2338A,117.0195,25.0306,龙岩市,龙岩学院,,20,20,15,3,6,11,11,62,40,9,5,3,4,/,/
2026-06-28T2300,2885A,104.9344,33.3827,陇南市,滨江中学,,36,36,27,21,16,74,74,96,88,6,9,8,9,0.5,0.5
2026-06-28T2300,3247A,104.9551,33.3709,陇南市,市总工会,,29,29,30,20,13,79,79,96,88,4,6,10,9,0.4,0.4
2026-06-28T2300,2488A,111.9984,27.7346,娄底市,市监测站,细颗粒物(PM2.5),58,44,55,39,35,66,66,129,100,26,21,3,12,0.8,1.3
2026-06-28T2300,2491A,111.9888,27.7035,娄底市,市政府,细颗粒物(PM2.5),104,65,46,64,34,32,32,144,92,13,9,21,15,0.9,0.8
2026-06-28T2300,4127A,111.9812,27.7591,娄底市,涟钢职大,,50,50,43,35,29,55,55,155,108,14,10,4,7,0.8,2.6
2026-06-28T2300,4128A,112.0303,27.7457,娄底市,娄底体校,细颗粒物(PM2.5),78,72,52,49,32,34,34,148,98,14,12,3,4,0.8,0.8
2026-06-28T2300,1894A,105.4427,28.9063,泸州市,小市上码头,,18,18,22,8,10,49,49,75,57,8,14,5,5,0.4,0.4
2026-06-28T2300,1895A,105.4241,28.8573,泸州市,兰田宪桥,,42,42,36,20,18,17,17,72,46,15,15,1,2,0.5,0.4
2026-06-28T2300,1896A,105.4378,28.8833,泸州市,市环监站,,22,22,22,6,7,41,41,75,49,16,14,5,5,0.7,0.6
2026-06-28T2300,4272A,105.3689,28.7783,泸州市,纳溪中医医院,,43,NA,22,30,20,28,28,68,49,16,16,2,2,0.7,0.7
2026-06-28T2300,2183A,111.1447,37.5212,吕梁市,环保局,,31,31,45,19,16,53,53,150,120,44,16,4,6,0.3,0.3
2026-06-28T2300,2185A,111.1285,37.5338,吕梁市,自来水公司,,42,42,41,16,14,84,84,152,126,19,14,3,5,0.5,0.4
2026-06-28T2300,2867A,111.1225,37.5093,吕梁市,马茂庄小学,,42,42,43,16,12,76,76,154,126,25,17,2,3,0.2,0.1
2026-06-28T2300,1812A,112.3934,34.6517,洛阳市,市委党校,,43,43,44,26,26,127,127,169,152,9,13,7,9,0.5,0.6
2026-06-28T2300,1815A,112.494,34.6883,洛阳市,河南林校,,45,45,47,30,23,116,116,181,162,16,15,10,12,0.3,0.3
2026-06-28T2300,1816A,112.3843,34.623,洛阳市,开发区管委会,,40,38,40,24,24,127,127,189,164,10,9,11,12,0.5,0.6
2026-06-28T2300,1817A,112.4263,34.6249,洛阳市,市委新办公区,,40,35,37,28,25,123,123,166,150,8,9,10,11,0.4,0.4
2026-06-28T2300,3340A,112.6005,34.6323,洛阳市,伊滨,,48,48,46,30,24,129,129,172,155,9,10,4,5,0.4,0.5
2026-06-28T2300,3341A,112.495,34.6338,洛阳市,中移产业园,,43,34,41,30,24,129,129,174,161,14,12,6,10,0.7,0.7
2026-06-28T2300,3593A,112.5736,34.8993,洛阳市,吉利监测站,细颗粒物(PM2.5),52,51,52,36,21,91,91,196,161,26,14,6,9,0.3,0.4
2026-06-28T2300,3635A,112.3678,34.6623,洛阳市,河科大西苑校区,,43,43,47,25,28,134,134,178,160,10,14,11,14,0.6,0.6
2026-06-28T2300,3636A,112.4387,34.678,洛阳市,英才小学,,40,36,44,28,26,115,115,163,147,8,12,8,10,0.5,0.6
2026-06-28T2300,4214A,112.460027,34.694929,洛阳市,春都路1号院,,47,47,39,26,25,103,103,176,156,16,11,6,7,0.4,0.4
2026-06-28T2300,2399A,114.051,33.5721,漯河市,三五一五工厂,颗粒物(PM10),55,56,48,25,34,63,63,202,154,55,36,12,8,0.3,0.2
2026-06-28T2300,2400A,114.0055,33.5698,漯河市,漯河大学,,45,38,42,31,34,74,74,206,177,44,35,6,8,0.7,0.7
2026-06-28T2300,2401A,114.0134,33.5826,漯河市,市水利局,,46,46,46,30,34,81,81,210,168,38,30,6,7,0.3,0.3
2026-06-28T2300,2402A,114.0261,33.5697,漯河市,市广电局,,46,46,46,26,29,93,93,209,168,29,35,6,8,0.5,0.5
2026-06-28T2300,3478A,113.9691,33.568,漯河市,市图书馆,,36,35,51,25,31,70,70,205,166,42,33,9,9,0.7,0.7
2026-06-28T2300,4250A,114.089259,33.588274,漯河市,韶山路11号,,41,41,63,25,33,82,82,206,164,33,27,8,8,0.5,0.4
2026-06-28T2300,1798A,118.5084,31.6838,马鞍山市,湖东路四小,颗粒物(PM10),60,64,70,39,51,120,120,214,172,22,15,8,10,0.7,0.7
2026-06-28T2300,1799A,118.5019,31.6449,马鞍山市,开发区,细颗粒物(PM2.5),96,89,79,58,61,110,110,215,168,25,15,6,7,0.7,0.8
2026-06-28T2300,3633A,118.4914,31.681,马鞍山市,雨山,颗粒物(PM10),64,69,60,33,42,124,124,221,183,19,13,5,6,0.8,0.8
2026-06-28T2300,4191A,118.527362,31.722269,马鞍山市,慈湖高新区,细颗粒物(PM2.5),60,61,81,40,54,152,152,218,176,18,19,7,9,0.5,0.6
2026-06-28T2300,1686A,111.0285,21.469,茂名市,电白南海,,23,17,30,14,21,72,72,84,84,8,10,6,10,0.9,0.9
2026-06-28T2300,1687A,110.9294,21.6533,茂名市,茂石化七小,,39,39,37,22,24,63,63,70,61,10,13,8,17,0.6,0.6
2026-06-28T2300,1688A,110.9108,21.6688,茂名市,健康路,,29,22,24,20,22,72,72,77,63,7,11,6,13,0.6,0.6
2026-06-28T2300,1689A,110.8592,21.6826,茂名市,高岭,,36,36,35,18,20,52,52,73,47,16,11,4,10,/,/
2026-06-28T2300,3450A,111.0101,21.5165,茂名市,电白水东,,25,14,25,8,22,80,80,84,84,6,10,2,10,/,/
2026-06-28T2300,2540A,103.8414,30.0871,眉山市,气象局,,24,20,26,3,19,74,74,107,96,10,12,7,6,0.6,0.7
2026-06-28T2300,3148A,103.829,30.0563,眉山市,区人社局,,35,35,39,3,12,62,62,99,86,14,14,7,7,0.6,0.6
2026-06-28T2300,4148A,103.8836,30.0695,眉山市,眉职院,,18,15,25,3,11,55,55,99,85,12,12,6,7,0.7,0.8
2026-06-28T2300,1690A,116.1248,24.3307,梅州市,梅江月梅,,20,20,15,10,7,35,35,64,52,10,9,/,/,/,/
2026-06-28T2300,1691A,116.0798,24.2719,梅州市,梅县新城,,20,20,16,14,10,40,40,67,50,11,9,9,8,0.5,0.5
2026-06-28T2300,3315A,116.1234,24.2994,梅州市,梅龙,,17,17,13,10,9,38,38,60,50,8,7,7,7,0.6,0.6
2026-06-28T2300,1878A,104.7775,31.4741,绵阳市,富乐山,,37,37,38,25,26,100,100,154,131,9,14,10,11,0.9,0.8
2026-06-28T2300,1880A,104.6698,31.4668,绵阳市,高新区自来水公司,,41,41,51,25,30,94,94,155,137,16,27,11,11,0.5,0.5
2026-06-28T2300,3491A,104.6899,31.5324,绵阳市,西科大附属小学,,39,39,54,24,29,97,97,154,135,17,25,6,6,0.4,0.4
2026-06-28T2300,3492A,104.5647,31.5343,绵阳市,安州区旅游局,,44,44,43,19,27,111,111,151,141,9,8,7,7,0.6,0.6
2026-06-28T2300,4146A,104.7092,31.4972,绵阳市,科技城新区公安局,,40,40,51,26,28,106,106,155,141,15,22,11,12,0.8,0.8
2026-06-28T2300,4226A,104.765114,31.453094,绵阳市,绵阳市气象局,,40,30,45,28,27,100,100,136,123,11,18,8,8,0.7,0.7
2026-06-28T2300,1784A,129.61,44.561,牡丹江市,环保大楼,,32,NA,26,22,12,58,58,108,87,18,14,5,7,0.3,0.3
2026-06-28T2300,1787A,129.6364,44.6075,牡丹江市,机车工厂,,42,42,33,16,12,49,49,107,85,23,13,8,9,0.3,0.2
2026-06-28T2300,1788A,129.6386,44.5462,牡丹江市,第一中学,,29,29,29,17,9,55,55,110,86,22,15,7,8,0.4,0.4
2026-06-28T2300,4287A,129.5992,44.5964,牡丹江市,东晓云街98号,,35,35,28,19,11,53,53,108,90,16,10,5,6,0.2,0.2
2026-06-28T2300,2531A,105.0703,29.61,内江市,市监测站,,18,15,22,12,18,47,47,83,71,15,12,8,8,0.5,0.5
2026-06-28T2300,2533A,105.0657,29.5807,内江市,内江二中,,27,27,23,10,17,45,45,88,76,15,10,8,8,0.4,0.4
2026-06-28T2300,2534A,105.0407,29.5828,内江市,内江日报社,,20,NA,19,11,19,64,64,88,80,9,10,6,7,0.4,0.4
2026-06-28T2300,4147A,105.0433,29.6105,内江市,玉峰路西段888号,,21,15,22,10,17,65,65,86,79,10,11,8,8,0.5,0.5
2026-06-28T2300,2628A,92.0653,31.4846,那曲市,那曲监测站,,35,21,10,15,9,109,109,125,110,12,8,5,4,0.3,0.3
2026-06-28T2300,4243A,92.0515,31.4787,那曲市,那曲市委宣传部,,33,NA,6,16,7,103,103,120,108,10,6,4,3,0.4,0.3
2026-06-28T2300,1291A,115.8887,28.7006,南昌市,省林业公司,,42,41,35,29,27,52,52,123,101,23,22,4,4,0.7,0.8
2026-06-28T2300,1292A,115.813,28.7443,南昌市,林科所,,30,27,27,21,21,65,65,129,94,15,16,7,8,0.7,0.7
2026-06-28T2300,1294A,115.8518,28.687,南昌市,建工学校,,50,47,36,35,26,50,50,123,90,29,19,6,6,0.9,0.9
2026-06-28T2300,1295A,115.8926,28.6425,南昌市,象湖,,42,NA,28,29,25,73,73,120,98,22,21,9,10,0.6,0.6
2026-06-28T2300,3046A,115.9084,28.6062,南昌市,机电学校,细颗粒物(PM2.5),56,49,44,38,27,50,50,126,91,22,20,6,7,0.7,0.7
2026-06-28T2300,3690A,115.9718,28.7032,南昌市,外国语学校,,47,47,35,32,25,59,59,111,96,15,7,12,12,0.8,0.8
2026-06-28T2300,4106A,115.7923,28.6873,南昌市,工业二路,,38,38,37,19,19,28,28,124,82,46,18,6,6,0.6,0.6
2026-06-28T2300,4192A,115.931587,28.686774,南昌市,南京东路235号,,48,43,28,33,25,75,75,122,102,19,13,4,5,0.6,0.6
2026-06-28T2300,1906A,106.0791,30.8022,南充市,南充市委,,25,25,30,15,18,65,65,90,82,10,11,9,7,0.2,0.3
2026-06-28T2300,1907A,106.1038,30.8215,南充市,南充炼油厂,,24,24,27,13,19,69,69,97,88,9,11,7,8,0.2,0.3
2026-06-28T2300,4227A,106.108336,30.788436,南充市,梨树横街98号,,22,19,30,10,18,69,69,95,86,8,10,6,8,0.3,0.3
2026-06-28T2300,4304A,106.1172,30.843,南充市,清泉寺北路188号,,31,31,32,12,20,70,70,97,87,11,11,8,8,0.4,0.4
2026-06-28T2300,4305A,106.067,30.7616,南充市,同庆路1号,,26,26,28,15,18,66,66,94,86,9,10,11,8,0.4,0.4
2026-06-28T2300,1151A,118.8033,32.1085,南京市,迈皋桥,细颗粒物(PM2.5),58,57,52,39,43,106,106,206,172,23,16,6,6,0.4,0.4
2026-06-28T2300,1152A,118.7487,32.057,南京市,草场门,,48,48,57,32,41,141,141,207,183,16,16,5,5,0.6,0.6
2026-06-28T2300,1154A,118.770105,32.004342,南京市,中华门,细颗粒物(PM2.5),52,44,53,36,42,125,125,191,167,10,10,6,6,0.3,0.3
2026-06-28T2300,1155A,118.8059,32.0329,南京市,瑞金路,细颗粒物(PM2.5),56,53,59,38,40,101,101,184,159,30,17,4,4,0.6,0.5
2026-06-28T2300,1156A,118.7946,32.0774,南京市,玄武湖,,50,48,57,35,37,132,132,178,160,11,11,6,7,0.4,0.5
2026-06-28T2300,1157A,118.6415,32.0964,南京市,浦口,细颗粒物(PM2.5),64,57,56,42,43,107,107,213,172,23,24,4,4,0.2,0.3
2026-06-28T2300,1158A,118.730129,32.000956,南京市,奥体中心,颗粒物(PM10),53,53,59,30,38,130,130,200,175,22,17,8,8,0.3,0.3
2026-06-28T2300,1159A,118.9072,32.1047,南京市,仙林大学城,细颗粒物(PM2.5),74,68,58,47,35,138,138,206,183,16,10,6,7,0.8,0.8
2026-06-28T2300,3422A,118.8443,31.919,南京市,江宁彩虹桥,,46,40,50,32,40,142,142,191,173,12,10,5,4,0.5,0.6
2026-06-28T2300,3427A,118.8497,32.3599,南京市,六合雄州,细颗粒物(PM2.5),107,99,66,67,45,112,112,216,182,20,25,4,4,0.6,0.6
2026-06-28T2300,4086A,118.7641,32.0841,南京市,新模范马路66号,臭氧1小时(O3_1h),60,51,59,28,34,168,168,217,202,5,8,4,4,0.5,0.5
2026-06-28T2300,4249A,118.8707617,31.34017673,南京市,汶溪路181号,臭氧1小时(O3_1h),69,56,54,42,45,175,175,219,208,10,11,8,7,0.8,0.9
2026-06-28T2300,4312A,119.019,31.6512,南京市,中山西路1号,细颗粒物(PM2.5),66,56,56,43,46,151,151,194,172,18,13,4,4,0.6,0.6
2026-06-28T2300,1401A,108.3098,22.788,南宁市,二十一中,,23,18,26,16,16,51,51,83,61,12,12,1,1,0.8,0.9
2026-06-28T2300,1402A,108.3135,22.8529,南宁市,北湖,,29,27,34,20,23,32,32,88,50,20,18,3,3,0.8,0.8
2026-06-28T2300,1403A,108.3205,22.8222,南宁市,市监测站,,20,15,26,11,17,63,63,100,74,7,9,2,3,0.7,0.8
2026-06-28T2300,1404A,108.3828,22.8038,南宁市,大自然花园,,20,13,23,6,15,64,64,96,71,7,8,4,4,0.8,0.9
2026-06-28T2300,1406A,108.2397,22.8462,南宁市,区农职院,,31,31,33,21,22,25,25,102,62,20,13,7,4,1.0,1
2026-06-28T2300,1407A,108.3285,22.7356,南宁市,英华嘉园,,20,20,30,13,17,47,47,86,65,15,14,5,4,0.7,0.6
2026-06-28T2300,3401A,108.4829,22.762,南宁市,红星社区,,26,26,26,18,17,49,49,99,70,10,9,4,5,0.6,0.6
2026-06-28T2300,4132A,108.2927,23.1477,南宁市,起凤路9号,,16,13,32,6,23,50,50,90,79,9,10,5,7,0.6,0.7
2026-06-28T2300,4221A,108.2177,22.7774,南宁市,乐贤路16号,,25,25,33,13,18,38,38,100,63,17,18,4,5,0.6,0.6
2026-06-28T2300,2332A,118.1682,26.6371,南平市,南平市监测站,,19,19,9,11,5,26,26,71,47,9,5,5,4,0.5,0.5
2026-06-28T2300,2334A,118.1757,26.6276,南平市,南平七中,,32,32,12,10,5,26,26,70,46,7,4,3,3,0.5,0.5
2026-06-28T2300,1168A,120.9056,31.9669,南通市,狼山街道,,38,NA,31,26,30,80,80,205,159,21,18,5,6,0.8,0.8
2026-06-28T2300,1170A,120.8635,32.0231,南通市,城中,,39,38,50,27,41,86,86,203,158,13,13,3,3,0.5,0.5
2026-06-28T2300,1171A,120.9376,31.9301,南通市,星湖花园,,40,34,41,28,30,70,70,196,148,23,15,4,5,0.3,0.4
2026-06-28T2300,1172A,120.8053,32.046,南通市,紫琅学院,,35,34,43,24,28,86,86,188,146,18,23,6,7,0.7,0.8
2026-06-28T2300,3291A,121.0631,32.0644,南通市,通州监测站,,31,31,41,18,29,95,95,185,150,6,8,6,7,0.4,0.5
2026-06-28T2300,3432A,120.9348,31.9874,南通市,环境教育馆,,38,36,45,26,32,81,81,192,149,18,18,5,6,0.5,0.6
2026-06-28T2300,4091A,120.8692,31.9885,南通市,洪江路,,42,32,40,29,32,83,83,192,158,18,20,4,5,0.8,0.8
2026-06-28T2300,2404A,112.5338,33.0086,南阳市,瓦房庄,,46,46,42,30,26,111,111,162,141,11,7,6,6,0.5,0.5
2026-06-28T2300,2405A,112.5002,32.9734,南阳市,汉画馆,颗粒物(PM10),55,56,53,31,28,104,104,163,139,23,16,6,6,0.6,0.6
2026-06-28T2300,2406A,112.5778,33.0144,南阳市,气象站,颗粒物(PM10),57,59,47,26,26,106,106,167,140,19,12,6,6,0.5,0.4
2026-06-28T2300,2407A,112.548,32.9687,南阳市,理工学院,颗粒物(PM10),53,54,46,30,30,92,92,168,138,30,15,7,7,0.6,0.5
2026-06-28T2300,4008A,112.5233,32.9921,南阳市,卧龙区政府,颗粒物(PM10),55,56,42,24,26,103,103,161,137,16,9,5,6,0.7,0.4
2026-06-28T2300,1234A,121.8352,29.9111,宁波市,区环保大楼,,33,14,30,6,19,104,104,122,108,9,12,4,4,0.9,1
2026-06-28T2300,1235A,121.5595,29.8208,宁波市,万里学院,,33,23,29,12,17,105,105,127,116,9,7,10,11,0.6,0.7
2026-06-28T2300,1236A,121.713,29.9564,宁波市,龙赛医院,,32,20,32,11,21,101,101,132,119,9,10,4,5,0.2,0.3
2026-06-28T2300,1240A,121.5855,29.8635,宁波市,太古小学,,32,15,26,7,17,102,102,116,109,9,8,4,4,0.5,0.6
2026-06-28T2300,1241A,121.5239,29.8673,宁波市,市环境监测中心,,30,24,30,11,19,96,96,118,106,8,9,4,7,0.3,0.3
2026-06-28T2300,2871A,121.6156,29.9015,宁波市,万里国际学校,,35,14,27,7,17,111,111,130,120,4,4,6,6,0.4,0.5
2026-06-28T2300,3710A,121.5593,29.8976,宁波市,白沙活动中心,,34,20,42,8,18,108,108,124,115,7,9,6,7,0.5,0.6
2026-06-28T2300,4095A,121.8962,29.7529,宁波市,中科路88号,,35,13,23,3,18,111,111,136,133,4,7,6,6,0.4,0.4
2026-06-28T2300,2341A,119.5387,26.6611,宁德市,宁德市监测站,,33,28,22,23,18,80,80,114,102,15,13,3,4,0.9,0.9
2026-06-28T2300,3209A,119.5231,26.6562,宁德市,宁德一中,,38,35,21,26,19,92,92,114,96,6,7,8,9,0.4,0.4
2026-06-28T2300,2618A,98.859,25.8541,怒江傈僳族自治州,州监测站,,26,26,26,17,10,42,42,46,42,11,11,5,5,0.5,0.4
2026-06-28T2300,2619A,98.8607,25.8168,怒江傈僳族自治州,泸水一中,,19,16,21,13,13,23,23,42,34,13,11,4,4,0.7,0.6
2026-06-28T2300,1888A,101.6891,26.571,攀枝花市,弄弄坪,,34,34,45,3,13,32,32,64,56,18,15,4,6,0.7,0.6
2026-06-28T2300,1889A,101.577,26.5914,攀枝花市,河门口,,29,29,34,9,20,28,28,66,54,14,19,19,26,0.7,1.8
2026-06-28T2300,1891A,101.7365,26.4986,攀枝花市,仁和,,43,34,22,20,12,18,18,52,45,34,10,44,6,4.3,0.8
2026-06-28T2300,2835A,101.7222,26.567,攀枝花市,四十中小,,18,18,21,3,13,48,48,65,58,12,10,9,10,0.9,1.1
2026-06-28T2300,1604A,122.0303,41.1489,盘锦市,开发区,细颗粒物(PM2.5),74,NA,36,47,28,174,174,207,202,13,11,8,9,0.5,0.4
2026-06-28T2300,1605A,122.0486,41.0883,盘锦市,兴隆台,,50,42,39,35,21,107,107,179,163,40,20,6,7,0.7,0.5
2026-06-28T2300,1606A,121.8297,41.1026,盘锦市,新生街道,细颗粒物(PM2.5),60,NA,28,40,25,134,134,192,170,16,12,7,7,0.6,0.5
2026-06-28T2300,1832A,113.3257,33.7423,平顶山市,新华旅馆,颗粒物(PM10),53,54,47,30,30,96,96,187,152,33,16,2,3,0.6,0.6
2026-06-28T2300,1833A,113.2917,33.737,平顶山市,规划设计院,颗粒物(PM10),53,54,43,23,28,91,91,183,149,35,17,5,6,0.5,0.5
2026-06-28T2300,1834A,113.182,33.7738,平顶山市,平顶山工学院,,48,41,35,33,30,80,80,184,150,37,19,6,6,0.4,0.4
2026-06-28T2300,3594A,112.8736,33.9068,平顶山市,石龙区,细颗粒物(PM2.5),54,43,50,37,32,124,124,165,148,12,17,6,7,0.6,0.6
2026-06-28T2300,4116A,113.284,33.7139,平顶山市,姚电大道23号,颗粒物(PM10),55,56,52,36,29,46,46,185,135,68,30,7,8,0.6,0.6
2026-06-28T2300,2656A,106.6633,35.5338,平凉市,聚贤嘉苑,NA,NA,NA,75,12,18,138,138,132,131,9,24,6,8,0.5,0.6
2026-06-28T2300,2657A,106.7021,35.5307,平凉市,博物馆,,44,37,52,13,16,140,140,140,137,7,19,6,6,0.3,0.5
2026-06-28T2300,2348A,113.8384,27.6436,萍乡市,中医院,,48,42,46,33,31,132,132,147,141,8,11,13,10,0.6,0.7
2026-06-28T2300,2350A,113.8677,27.6438,萍乡市,市环保局,细颗粒物(PM2.5),54,42,36,37,38,128,128,148,142,6,10,15,15,0.5,0.5
2026-06-28T2300,2351A,113.8663,27.6202,萍乡市,安源区政府,细颗粒物(PM2.5),62,56,48,41,36,112,112,150,138,23,13,19,18,1.1,0.8
2026-06-28T2300,4107A,113.8686,27.6668,萍乡市,联洪村委会,细颗粒物(PM2.5),54,53,52,37,34,125,125,138,132,8,9,13,11,0.3,0.4
2026-06-28T2300,2319A,119.0142,25.4324,莆田市,荔城区仓后路,,32,NA,23,22,25,99,99,111,104,8,11,/,/,/,/
2026-06-28T2300,2320A,119.0016,25.4553,莆田市,莆田市监测站,,31,22,24,18,13,97,97,110,100,6,6,3,3,0.6,0.5
2026-06-28T2300,2321A,119.112,25.4561,莆田市,涵江区六中,,46,NA,20,32,18,88,88,118,104,11,13,/,/,0.6,0.5
2026-06-28T2300,2322A,119.1014,25.3215,莆田市,秀屿区政府,,30,30,25,20,20,80,80,103,92,6,8,4,5,0.6,0.6
2026-06-28T2300,2392A,115.0312,35.7636,濮阳市,环保局,,43,39,54,22,30,136,136,194,178,11,12,5,7,0.5,0.5
2026-06-28T2300,3021A,115,35.7667,濮阳市,濮水河管理处,,41,32,55,20,30,131,131,198,169,13,12,4,6,0.3,0.4
2026-06-28T2300,4118A,115.0552,35.7816,濮阳市,中原东路68号,,46,46,64,16,25,136,136,200,182,18,15,6,7,0.3,0.3
2026-06-28T2300,4216A,115.0923632,35.76857718,濮阳市,任丘路479号,,46,46,62,26,32,144,144,212,189,14,13,4,5,0.6,0.6
2026-06-28T2300,2601A,100.9801,22.7634,普洱市,市环保局,,32,32,25,16,11,18,18,43,33,6,4,5,5,0.7,0.7
2026-06-28T2300,2602A,100.9763,22.8237,普洱市,普洱第二中学,,34,34,25,10,8,12,12,45,32,9,6,8,7,0.8,0.8
2026-06-28T2300,3345A,131.0413,45.7795,七台河市,中波台,,28,28,15,10,12,42,42,83,68,20,14,5,5,0.4,0.4
2026-06-28T2300,3637A,131.0136,45.7688,七台河市,人民广场,,30,30,25,10,7,45,45,86,74,23,13,9,8,0.5,0.4
2026-06-28T2300,3684A,130.8639,45.8144,七台河市,新建矿广场,NA,NA,NA,16,12,8,35,35,87,68,25,16,7,5,0.6,0.2
2026-06-28T2300,1779A,123.9307,47.3641,齐齐哈尔市,安居小区,,39,39,25,16,7,82,82,98,94,13,12,4,4,0.5,0.4
2026-06-28T2300,1780A,123.9497,47.3389,齐齐哈尔市,中心广场,,43,43,24,14,7,88,88,97,95,14,16,4,4,0.4,0.3
2026-06-28T2300,1781A,123.9483,47.3229,齐齐哈尔市,农牧车辆厂,,30,27,27,15,7,96,96,103,102,10,12,4,4,0.2,0.2
2026-06-28T2300,1783A,123.9442,47.2994,齐齐哈尔市,市环境监测站,,29,28,22,20,9,90,90,101,99,11,12,3,3,0.3,0.3
2026-06-28T2300,3662A,123.6341,47.2079,齐齐哈尔市,富区青少年活动中心,颗粒物(PM10),80,91,30,45,11,66,66,99,94,29,19,11,6,0.8,0.3
2026-06-28T2300,2591A,107.9765,26.5724,黔东南苗族侗族自治州,市环境监测站,,33,33,27,23,19,15,15,91,64,31,12,2,3,0.7,0.6
2026-06-28T2300,2881A,107.8909,26.531,黔东南苗族侗族自治州,凯里学院,,31,31,22,21,19,38,38,89,68,17,10,3,3,0.5,0.5
2026-06-28T2300,2593A,107.5223,26.2371,黔南布依族苗族自治州,小围寨,,31,31,22,21,15,34,34,64,58,14,12,5,6,0.6,0.6
2026-06-28T2300,3538A,107.5175,26.2977,黔南布依族苗族自治州,沙坝,,35,31,24,24,14,25,25,60,50,12,6,3,3,0.6,0.6
2026-06-28T2300,2589A,104.9022,25.0943,黔西南布依族苗族自治州,场坝街,,15,12,13,9,8,47,47,52,45,12,9,2,2,0.3,0.3
2026-06-28T2300,2590A,104.8812,25.0994,黔西南布依族苗族自治州,坪东大道,,18,18,16,12,8,52,52,55,52,2,5,6,5,0.4,0.4
2026-06-28T2300,2502A,108.6238,21.9667,钦州市,市环保站,,22,12,26,11,12,69,69,96,84,9,13,3,4,0.6,0.8
2026-06-28T2300,2503A,108.655,21.9481,钦州市,沙埠小学,,31,31,34,12,18,60,60,100,85,11,13,4,6,0.6,0.7
2026-06-28T2300,2504A,108.5989,21.7435,钦州市,港区一小,,28,28,31,17,16,76,76,88,86,16,12,6,4,1.0,0.5
2026-06-28T2300,3404A,108.5959,21.9634,钦州市,北职校,,24,24,31,6,14,72,72,95,84,8,11,4,4,0.5,0.6
2026-06-28T2300,1046A,119.5247,39.9346,秦皇岛市,建设大厦,颗粒物(PM10),73,82,72,31,31,89,89,161,145,54,27,7,8,0.5,0.5
2026-06-28T2300,3132A,119.5979,39.938,秦皇岛市,文明里,颗粒物(PM10),80,91,62,46,30,90,90,170,158,56,20,8,9,0.5,0.4
2026-06-28T2300,4066A,119.7458,39.9952,秦皇岛市,南园路157号,细颗粒物(PM2.5),66,62,55,43,30,89,89,156,133,40,27,9,10,0.4,0.4
2026-06-28T2300,4067A,119.5131,39.8858,秦皇岛市,翠岛大街1号,细颗粒物(PM2.5),82,66,42,51,29,141,141,170,168,25,16,6,6,0.5,0.5
2026-06-28T2300,4198A,119.509013,39.825305,秦皇岛市,北戴河轮滑馆,颗粒物(PM10),67,73,52,25,25,138,138,172,169,18,9,11,11,0.4,0.4
2026-06-28T2300,1310A,120.404,36.0625,青岛市,市南区东部子站,,25,19,16,9,7,80,80,91,80,2,6,6,6,0.2,0.3
2026-06-28T2300,1311A,120.362344,36.10282,青岛市,四方区子站,,31,17,17,12,10,97,97,113,97,3,4,8,8,0.6,0.6
2026-06-28T2300,1312A,120.294373,36.054183,青岛市,市南区西部子站,,30,9,14,7,7,94,94,93,85,8,16,5,5,0.4,0.4
2026-06-28T2300,1313A,120.4581,36.0858,青岛市,崂山区子站,,28,NA,13,11,8,87,87,102,91,2,4,6,7,0.2,0.3
2026-06-28T2300,1315A,120.3945,36.3083,青岛市,城阳区子站,,30,19,24,12,11,96,96,134,111,2,5,7,8,0.3,0.3
2026-06-28T2300,3642A,120.3454,36.0735,青岛市,市北区南部,,28,19,17,9,7,89,89,103,90,10,9,4,4,0.6,0.6
2026-06-28T2300,3643A,120.3897,36.18,青岛市,李沧区北部,,25,NA,14,12,10,77,77,94,80,7,9,5,6,0.4,0.4
2026-06-28T2300,4110A,120.5222,36.4089,青岛市,盟旺路653号,,29,18,26,12,13,91,91,147,108,3,7,6,7,0.6,0.7
2026-06-28T2300,4290A,120.196923,35.954556,青岛市,珠江路669号,,28,12,15,9,9,87,87,100,86,4,8,4,4,0.3,0.3
2026-06-28T2300,4291A,120.0424,35.8656,青岛市,黄岛区人民政府广场,,27,19,20,11,9,86,86,103,87,7,10,5,5,0.6,0.6
2026-06-28T2300,1703A,113.0218,23.7086,清远市,凤城街办,,16,15,18,11,13,50,50,73,70,14,13,/,/,/,/
2026-06-28T2300,3025A,113.0479,23.6343,清远市,技师学院,,12,11,18,7,12,36,36,70,62,21,16,5,5,0.5,0.6
2026-06-28T2300,3318A,112.9898,23.7403,清远市,清新太和,,14,13,18,7,11,43,43,76,70,14,11,4,6,0.5,0.6
2026-06-28T2300,3455A,113.076,23.72,清远市,清城东城,,15,14,18,6,10,46,46,72,69,11,10,/,/,/,/
2026-06-28T2300,2661A,107.6325,35.7357,庆阳市,庆阳五中,颗粒物(PM10),65,71,48,19,18,126,126,154,138,26,11,7,6,0.4,0.4
2026-06-28T2300,2662A,107.6361,35.7067,庆阳市,市环保局,颗粒物(PM10),70,77,49,37,18,105,105,135,127,33,13,7,6,0.5,0.3
2026-06-28T2300,1916A,103.7897,25.5036,曲靖市,环境监测站,,14,14,16,7,8,31,31,53,42,10,10,2,3,0.5,0.5
2026-06-28T2300,1917A,103.8013,25.5357,曲靖市,烟厂办公区,,13,13,12,3,7,33,33,51,44,8,6,2,3,0.6,0.6
2026-06-28T2300,3376A,103.7926,25.4651,曲靖市,南苑二区,,19,19,12,8,8,34,34,50,42,10,11,4,4,0.6,0.6
2026-06-28T2300,3377A,103.7442,25.5259,曲靖市,曲靖师范学院,,22,22,14,7,8,30,30,54,45,12,9,5,4,0.5,0.5
2026-06-28T2300,1264A,118.8694,28.94,衢州市,环保大楼,,31,31,37,18,23,65,65,126,105,26,18,/,/,/,/
2026-06-28T2300,1266A,118.8622,28.9809,衢州市,衢州学院,NA,NA,30,33,NA,18,64,64,117,94,23,22,3,3,0.4,0.5
2026-06-28T2300,4097A,118.9646,28.9832,衢州市,衢州三中,,30,30,34,20,24,50,50,129,99,32,23,2,2,0.6,0.6
2026-06-28T2300,1611A,118.5818,24.9116,泉州市,涂山街,NA,NA,NA,20,16,17,24,24,104,72,26,9,2,2,0.7,0.7
2026-06-28T2300,1612A,118.597,24.8976,泉州市,津头埔,,39,32,21,27,18,35,35,102,70,27,13,2,2,0.4,0.4
2026-06-28T2300,1613A,118.6669,24.9422,泉州市,万安,,38,32,21,26,15,41,41,103,62,25,14,3,3,0.4,0.3
2026-06-28T2300,4105A,118.6355,24.9148,泉州市,霞新路6号,,33,29,20,23,15,24,24,108,66,32,14,/,/,0.4,0.4
2026-06-28T2300,2626A,88.8873,29.2723,日喀则市,日喀则监测站,,39,NA,6,12,4,122,122,132,127,7,5,6,7,0.5,0.4
2026-06-28T2300,3726A,88.8775,29.2425,日喀则市,林业技术推广中心,,37,10,9,3,3,116,116,137,129,3,3,7,7,0.3,0.4
2026-06-28T2300,1659A,119.4711,35.421,日照市,监测站,,31,NA,29,18,23,97,97,144,116,8,14,9,10,0.3,0.5
2026-06-28T2300,1660A,119.523,35.4216,日照市,市政府广场,,30,27,36,21,25,84,84,124,104,4,21,7,10,0.4,0.6
2026-06-28T2300,1661A,119.5511,35.4113,日照市,港务局,,30,24,41,14,23,93,93,114,95,5,18,5,8,0.7,0.7
2026-06-28T2300,3507A,119.5326,35.4627,日照市,职业技术学院,,31,19,34,13,20,98,98,135,110,7,17,6,8,0.5,0.6
2026-06-28T2300,3604A,119.3267,35.1043,日照市,岚山环保分局,,31,27,39,15,21,98,98,146,116,7,10,9,11,0.6,0.6
2026-06-28T2300,1835A,111.1922,34.7752,三门峡市,市政府,,30,30,42,18,23,88,88,139,122,16,9,9,10,0.7,0.8
2026-06-28T2300,1836A,111.1588,34.794,三门峡市,开发区,,39,39,44,23,25,92,92,145,124,14,11,6,7,0.4,0.5
2026-06-28T2300,3039A,111.1911,34.7829,三门峡市,三门峡市第一小学,,31,NA,45,18,23,98,98,145,128,11,7,8,9,0.6,0.6
2026-06-28T2300,3598A,111.1031,34.719,三门峡市,富达温泉假日酒店,,49,49,45,18,22,59,59,142,112,13,12,7,8,0.7,0.8
2026-06-28T2300,2324A,117.621,26.2626,三明市,三钢,,20,20,14,11,8,18,18,59,47,20,11,6,6,0.5,0.6
2026-06-28T2300,2325A,117.6352,26.2714,三明市,三明二中,,19,18,15,13,11,13,13,56,45,22,10,3,4,0.6,0.6
2026-06-28T2300,2326A,117.6028,26.2377,三明市,三元区政府,,25,25,15,14,10,10,10,60,47,10,8,5,7,0.7,0.6
2026-06-28T2300,1877A,109.4962,18.2682,三亚市,河西子站,,24,20,21,9,12,74,74,88,77,12,10,3,2,0.1,0.2
2026-06-28T2300,3540A,109.7348,18.3443,三亚市,君悦子站,颗粒物(PM10),53,54,21,16,10,19,19,87,60,31,10,2,2,0.3,0.3
2026-06-28T2300,4135A,109.1714,18.3739,三亚市,城东小学站,,20,20,19,11,13,38,38,80,67,11,9,/,/,/,/
2026-06-28T2300,2624A,91.7592,29.234,山南市,山南监测站,,29,7,4,3,2,90,90,128,111,8,5,7,7,0.3,0.3
2026-06-28T2300,2625A,91.7701,29.2436,山南市,山南人民医院,,29,15,8,3,3,91,91,128,111,4,3,6,7,0.2,0.2
2026-06-28T2300,1674A,116.6795,23.3666,汕头市,金平子站,,19,10,15,3,9,58,58,82,64,8,7,3,3,0.6,0.6
2026-06-28T2300,1675A,116.7248,23.3632,汕头市,龙湖子站,,16,9,14,3,10,51,51,77,58,7,4,6,6,/,/
2026-06-28T2300,1676A,116.7257,23.2774,汕头市,濠江子站,,15,8,18,6,10,47,47,68,52,9,9,8,8,/,/
2026-06-28T2300,1677A,116.7518,23.4712,汕头市,澄海子站,,21,21,24,3,11,41,41,77,54,8,6,4,4,0.5,0.5
2026-06-28T2300,1678A,116.6088,23.2539,汕头市,潮阳子站,,17,10,14,6,10,54,54,69,62,6,6,6,6,0.7,0.7
2026-06-28T2300,3444A,116.4539,23.2684,汕头市,潮南峡山,,15,13,18,6,10,48,48,68,59,9,6,6,7,0.6,0.6
2026-06-28T2300,3624A,116.4069,23.2533,汕头市,潮南子站,,15,15,23,7,11,45,45,58,48,8,10,6,6,/,/
2026-06-28T2300,1693A,115.3653,22.7751,汕尾市,市环保局,,18,13,15,6,8,57,57,68,63,5,6,5,5,0.6,0.6
2026-06-28T2300,1695A,115.362,22.7926,汕尾市,新城中学,,19,19,18,9,10,38,38,69,54,7,6,5,6,0.5,0.5
2026-06-28T2300,2645A,109.9155,33.8714,商洛市,监测站,,35,35,33,16,18,41,41,130,79,13,12,4,6,0.9,0.9
2026-06-28T2300,3045A,109.9647,33.8486,商洛市,商州区中学,,31,20,33,13,16,97,97,132,88,26,11,10,6,0.8,0.8
2026-06-28T2300,2408A,115.6701,34.4283,商丘市,环境监测站,"细颗粒物(PM2.5),臭氧1小时(O3_1h)",58,55,54,39,33,166,166,203,199,9,8,4,5,0.5,0.5
2026-06-28T2300,2409A,115.6458,34.4047,商丘市,粮食局,细颗粒物(PM2.5),68,NA,47,44,31,158,158,194,189,10,9,6,6,0.6,0.6
2026-06-28T2300,3171A,115.6069,34.4465,商丘市,梁园区档案局,颗粒物(PM10),53,53,50,33,32,155,155,187,183,10,8,3,3,0.7,0.7
2026-06-28T2300,4119A,115.6701,34.3767,商丘市,北海东路185号,细颗粒物(PM2.5),58,57,47,39,30,147,147,197,189,19,14,4,4,0.5,0.5
2026-06-28T2300,4120A,115.6172,34.3704,商丘市,中山大街3号,颗粒物(PM10),70,77,59,31,26,136,136,186,178,19,11,7,7,0.5,0.5
2026-06-28T2300,1141A,121.401,31.2382,上海市,普陀,,32,22,34,15,24,100,100,169,135,13,15,5,5,0.2,0.2
2026-06-28T2300,1142A,121.4774,31.2043,上海市,十五厂,,28,15,35,11,24,87,87,166,129,12,16,6,6,0.5,0.6
2026-06-28T2300,1143A,121.4673,31.3011,上海市,虹口,,29,23,36,19,26,92,92,177,134,10,9,4,4,0.8,0.8
2026-06-28T2300,1147A,121.4253,31.226,上海市,静安监测站,,32,24,34,18,28,100,100,171,136,11,13,8,8,0.5,0.6
2026-06-28T2300,1148A,121.7029,31.1905,上海市,浦东川沙,,34,17,34,11,23,106,106,177,132,6,17,8,9,0.7,0.8
2026-06-28T2300,1149A,121.5339,31.229,上海市,浦东新区监测站,,28,20,34,15,26,88,88,165,124,9,11,7,7,0.4,0.5
2026-06-28T2300,1150A,121.5776,31.2038,上海市,浦东张江,,33,19,34,12,25,105,105,187,143,9,13,6,7,0.2,0.2
2026-06-28T2300,3265A,121.4242,31.3303,上海市,宝山庙行,,31,31,48,17,26,95,95,178,136,13,12,10,10,0.3,0.3
2026-06-28T2300,3266A,121.8789,31.4662,上海市,崇明上实东滩,,33,16,26,14,23,105,105,156,122,11,10,9,9,0.3,0.3
2026-06-28T2300,3268A,121.316,31.2839,上海市,嘉定南翔,,32,22,34,17,22,100,100,170,136,13,16,5,6,0.2,0.2
2026-06-28T2300,3269A,121.3357,30.7455,上海市,金山新城,,30,16,34,12,27,96,96,167,121,7,8,4,5,0.5,0.6
2026-06-28T2300,3270A,121.4996,31.0741,上海市,闵行浦江,,30,20,32,15,25,94,94,154,124,6,10,6,6,0.3,0.3
2026-06-28T2300,3271A,121.2886,31.1663,上海市,青浦徐泾,,31,22,32,17,25,97,97,161,131,2,6,5,5,0.4,0.5
2026-06-28T2300,3272A,121.2193,31.0382,上海市,松江图书馆,,31,28,44,19,32,97,97,166,137,4,8,7,7,0.4,0.4
2026-06-28T2300,3273A,121.3904,31.206,上海市,长宁仙霞,,31,19,34,16,24,99,99,158,129,8,12,7,8,0.2,0.3
2026-06-28T2300,3274A,121.7964,31.0507,上海市,浦东惠南,,34,22,33,12,23,107,107,166,128,7,11,8,8,0.5,0.6
2026-06-28T2300,3544A,121.4891,30.925,上海市,奉贤南桥新城,,31,20,33,15,26,99,99,168,131,11,13,8,7,0.4,0.5
2026-06-28T2300,4183A,121.417401,31.16637,上海市,冠生园路458号,,31,21,33,15,24,97,97,154,128,10,15,4,4,0.6,0.6
2026-06-28T2300,4205A,121.541914,31.268301,上海市,宁武路151号,,34,34,50,18,27,86,86,163,120,17,23,7,7,0.2,0.3
2026-06-28T2300,2382A,117.9758,28.4439,上饶市,市监测站,,18,18,44,3,27,44,44,93,64,7,8,5,8,/,/
2026-06-28T2300,2383A,117.9521,28.4637,上饶市,凤凰光学,,35,25,40,24,30,61,61,105,74,12,10,10,8,0.7,0.7
2026-06-28T2300,3685A,117.897,28.4316,上饶市,双创科技城,,22,22,47,12,27,55,55,101,70,14,15,9,8,0.6,0.7
2026-06-28T2300,4211A,118.190438,28.444845,上饶市,裕丰大道,,14,14,42,3,28,26,26,70,46,12,10,10,11,0.6,0.7
2026-06-28T2300,1669A,113.5821,24.7733,韶关市,市八中,,19,19,24,13,15,43,43,68,59,18,8,6,6,1.0,0.7
2026-06-28T2300,1671A,113.5916,24.7973,韶关市,园林处,,15,14,20,10,15,43,43,60,54,17,10,6,6,/,/
2026-06-28T2300,1673A,113.5971,24.6864,韶关市,曲江监测站,,20,20,22,11,13,41,41,70,59,15,11,11,18,1.2,1.1
2026-06-28T2300,2809A,113.6668,24.7756,韶关市,大学路288号,,20,20,23,14,14,28,28,72,59,18,10,12,14,/,/
2026-06-28T2300,3622A,113.5556,24.8082,韶关市,碧湖山庄,,22,22,22,14,12,47,47,66,62,13,8,3,4,1.0,0.7
