timepoint,stationcode,longitude,latitude,area,positionname,primarypollutant,aqi,pm10,pm10_24h,pm2_5,pm2_5_24h,o3,o3_24h,o3_8h,o3_8h_24h,no2,no2_24h,so2,so2_24h,co,co_24h
2026-07-24T1500,2568A,102.2503,31.8896,阿坝藏族羌族自治州,马师校,,43,7,22,7,9,136,136,78,78,5,4,4,4,0.1,0.2
2026-07-24T1500,3994A,102.2174,31.9016,阿坝藏族羌族自治州,马尔康中学西区,,43,11,10,11,9,137,137,79,79,3,3,3,4,0.1,0.1
2026-07-24T1500,2695A,80.2899,41.1684,阿克苏地区,电视台,颗粒物(PM10),65,71,70,8,21,125,125,108,108,5,9,5,5,0.4,0.4
2026-07-24T1500,2696A,80.2592,41.1541,阿克苏地区,艺术中心,,44,44,57,18,34,130,130,103,103,5,24,4,4,0.2,0.3
2026-07-24T1500,2205A,105.699,38.8409,阿拉善盟,蒙二幼,臭氧1小时(O3_1h),62,15,34,3,8,169,169,150,150,3,4,11,11,0.3,0.4
2026-07-24T1500,2206A,105.7198,38.8508,阿拉善盟,环保局新楼,,49,26,28,6,7,154,154,149,144,3,4,10,10,0.5,0.5
2026-07-24T1500,2708A,88.1266,47.8515,阿勒泰地区,市站,,33,20,31,3,3,103,103,68,68,8,14,8,7,0.6,0.6
2026-07-24T1500,4166A,88.1198,47.7931,阿勒泰地区,阿勒泰路33号,,33,22,24,3,5,103,103,71,71,4,8,7,7,0.3,0.4
2026-07-24T1500,2630A,80.1171,32.4999,阿里地区,阿里监测站,,27,6,9,3,1,84,84,77,70,2,2,6,6,0.2,0.3
2026-07-24T1500,3192A,80.0906,32.5029,阿里地区,阿里藏医院,,48,NA,10,33,4,82,82,83,75,2,2,6,6,0.3,0.2
2026-07-24T1500,2644A,109.0088,32.6974,安康市,汉滨区检察院,,36,27,22,18,10,114,114,79,79,4,7,3,2,0.3,0.3
2026-07-24T1500,4054A,109.0324,32.6913,安康市,市邮政管理局,,38,24,22,21,11,120,120,86,86,2,7,1,2,0.7,0.7
2026-07-24T1500,2291A,117.0806,30.5181,安庆市,环科院,,31,29,24,14,14,99,99,90,90,7,18,10,10,0.7,0.9
2026-07-24T1500,2292A,117.0331,30.5118,安庆市,马山宾馆,,34,23,21,15,16,108,108,88,88,7,16,2,3,0.7,0.9
2026-07-24T1500,2294A,116.9897,30.6146,安庆市,安庆大学,,32,28,27,14,12,100,100,90,90,6,14,4,4,0.5,0.6
2026-07-24T1500,3173A,117.0598,30.5351,安庆市,市人大,,34,26,24,17,14,108,108,95,95,2,11,6,6,0.6,0.7
2026-07-24T1500,3123A,105.9408,26.2431,安顺市,凤凰山,,21,11,19,9,14,66,66,71,68,4,5,5,5,0.5,0.6
2026-07-24T1500,3124A,105.9443,26.2567,安顺市,金钟山,,40,NA,15,28,19,71,71,77,74,3,4,6,7,0.5,0.5
2026-07-24T1500,3125A,105.8983,26.248,安顺市,娄家坡,,22,NA,16,15,13,69,69,79,75,2,3,5,6,0.5,0.5
2026-07-24T1500,1819A,114.3552,36.1017,安阳市,红庙街,NA,NA,NA,20,28,14,140,140,82,NA,6,7,3,4,1.1,0.6
2026-07-24T1500,1820A,114.361,36.0681,安阳市,银杏小区,细颗粒物(PM2.5),60,51,27,40,16,160,160,101,101,9,9,2,5,1.3,0.8
2026-07-24T1500,3141A,114.3921,36.0879,安阳市,信访局,臭氧1小时(O3_1h),59,51,24,37,18,167,167,109,109,4,6,4,4,1.0,0.7
2026-07-24T1500,3669A,114.4706,36.0634,安阳市,左辅环卫站,细颗粒物(PM2.5),54,51,24,37,16,138,138,80,80,1,4,4,3,1.2,0.9
2026-07-24T1500,4117A,114.2918,36.0769,安阳市,钢三路198号,细颗粒物(PM2.5),56,39,29,38,20,138,138,83,83,3,6,2,2,1.1,1
2026-07-24T1500,1748A,123.0441,41.1201,鞍山市,深沟寺,,31,22,22,14,12,97,97,80,80,11,9,8,7,1.0,0.6
2026-07-24T1500,1749A,123.011,41.0931,鞍山市,太阳城,,34,20,20,11,13,106,106,85,85,8,9,8,7,1.3,0.8
2026-07-24T1500,1750A,123.0483,41.1445,鞍山市,太平,,32,32,32,14,17,97,97,84,84,13,11,7,7,1.0,0.9
2026-07-24T1500,1751A,122.964,41.0968,鞍山市,铁西三道街,,39,39,26,21,16,102,102,90,90,20,11,15,6,2.2,0.9
2026-07-24T1500,1753A,123.0219,41.0822,鞍山市,明达新区,,34,19,20,10,12,107,107,87,87,9,9,4,4,1.1,0.8
2026-07-24T1500,4201A,122.944647,41.082639,鞍山市,兴盛南路290号,,38,35,28,16,18,120,120,101,101,13,19,3,3,0.8,0.6
2026-07-24T1500,2195A,107.4206,40.7609,巴彦淖尔市,附二中,颗粒物(PM10),71,79,49,18,20,176,176,138,138,9,10,16,16,0.7,0.8
2026-07-24T1500,2196A,107.37,40.7372,巴彦淖尔市,市环保大楼,臭氧1小时(O3_1h),68,63,60,15,19,174,174,140,140,6,8,13,12,0.6,0.7
2026-07-24T1500,1956A,86.1476,41.7529,巴音郭楞蒙古自治州,孔雀公园,,42,42,70,16,20,114,114,114,112,5,5,7,7,0.2,0.2
2026-07-24T1500,1957A,86.1971,41.7166,巴音郭楞蒙古自治州,棉纺厂,颗粒物(PM10),68,75,81,16,20,114,114,110,110,3,11,/,/,/,/
2026-07-24T1500,1958A,86.236,41.7172,巴音郭楞蒙古自治州,经济开发区,颗粒物(PM10),56,58,65,18,19,113,113,115,114,6,7,4,5,0.1,0.2
2026-07-24T1500,3181A,106.776805,31.852614,巴中市,市五中,NA,NA,36,42,22,23,121,121,98,98,6,9,9,9,NA,0.5
2026-07-24T1500,3183A,106.7419,31.8654,巴中市,圣泉水务公司,,40,39,40,17,22,127,127,101,101,3,12,10,10,0.5,0.6
2026-07-24T1500,3616A,106.7617,31.8343,巴中市,市中心医院,,39,36,49,22,25,124,124,104,104,4,11,11,11,0.6,0.6
2026-07-24T1500,2235A,122.7909,45.608,白城市,洮北区环保局,,37,19,19,14,12,118,118,104,104,4,5,3,3,0.4,0.4
2026-07-24T1500,2236A,122.8741,45.5725,白城市,市环保局,,37,NA,14,10,12,116,116,110,108,5,10,3,3,0.3,0.3
2026-07-24T1500,2231A,126.4219,41.9172,白山市,喜丰,,28,28,41,3,11,73,73,65,65,8,13,15,15,0.7,0.7
2026-07-24T1500,2232A,126.4082,41.9416,白山市,环保局,,20,15,23,3,9,63,63,62,62,3,7,11,10,0.6,0.7
2026-07-24T1500,2647A,104.1727,36.5448,白银市,第三小学,,39,30,53,16,24,122,122,109,109,7,22,3,25,0.3,0.6
2026-07-24T1500,2648A,104.1467,36.5482,白银市,动力公司,,39,15,51,9,21,122,122,110,110,4,25,3,7,0.7,0.8
2026-07-24T1500,2512A,106.6102,23.901,百色市,市监测站,颗粒物(PM10),52,52,30,23,17,101,101,64,64,7,11,12,13,0.5,0.5
2026-07-24T1500,2513A,106.6524,23.8842,百色市,市中心血站,,49,49,32,21,20,102,102,65,65,6,10,12,13,0.5,0.5
2026-07-24T1500,4133A,106.6273,23.8798,百色市,龙景西路,颗粒物(PM10),56,58,44,25,20,103,103,62,62,8,12,16,17,0.5,0.5
2026-07-24T1500,2270A,117.396,32.9389,蚌埠市,工人疗养院,,38,26,19,8,6,120,120,96,96,6,7,5,10,0.3,0.3
2026-07-24T1500,2271A,117.3606,32.9428,蚌埠市,百货大楼,,37,17,10,7,7,118,118,98,98,5,7,9,9,0.6,0.7
2026-07-24T1500,2273A,117.4183,32.8909,蚌埠市,蚌埠学院,,36,19,12,8,7,114,114,99,99,2,3,6,5,0.3,0.3
2026-07-24T1500,2274A,117.3534,32.9672,蚌埠市,淮上区政府,,40,22,13,11,6,127,127,109,109,1,5,6,7,0.4,0.4
2026-07-24T1500,2275A,117.3143,32.8977,蚌埠市,高新区,,37,24,12,10,6,118,118,94,94,4,7,9,10,0.4,0.4
2026-07-24T1500,3715A,117.3091,32.9314,蚌埠市,蚌埠田家炳中学,,38,26,19,3,6,120,120,100,100,3,6,8,10,0.4,0.4
2026-07-24T1500,1585A,109.8761,40.6533,包头市,市环境监测站,NA,NA,15,27,3,16,174,174,44,NA,NA,31,5,8,0.4,0.7
2026-07-24T1500,1587A,109.9992,40.5843,包头市,包头八中,臭氧1小时(O3_1h),59,14,37,6,18,167,167,129,129,6,26,8,16,0.4,0.8
2026-07-24T1500,1589A,109.8641,40.6288,包头市,惠龙物流,臭氧1小时(O3_1h),60,12,31,3,19,168,168,138,138,5,22,3,9,0.3,0.5
2026-07-24T1500,1590A,110.0376,40.5546,包头市,东河鸿龙湾,臭氧1小时(O3_1h),75,13,22,6,16,180,180,136,136,7,18,8,10,0.4,0.4
2026-07-24T1500,3283A,109.9154,40.5684,包头市,滨河大厦,臭氧1小时(O3_1h),65,11,22,8,15,172,172,131,131,5,24,7,9,0.5,0.6
2026-07-24T1500,3419A,109.9449,40.6259,包头市,包头市委党校,臭氧1小时(O3_1h),67,9,26,3,16,173,173,130,130,6,30,2,9,0.2,0.8
2026-07-24T1500,3683A,109.8332,40.6577,包头市,昆区政府,臭氧1小时(O3_1h),58,13,30,6,20,166,166,140,140,8,34,5,10,0.4,0.8
2026-07-24T1500,1931A,107.0802,34.3129,宝鸡市,竹园沟,臭氧1小时(O3_1h),55,50,36,25,23,164,164,113,113,6,9,8,7,0.7,0.7
2026-07-24T1500,1933A,107.1429,34.3549,宝鸡市,监测站,颗粒物(PM10),56,58,47,29,26,164,164,109,109,10,12,10,9,0.6,0.5
2026-07-24T1500,1934A,107.1172,34.3759,宝鸡市,技工学校,臭氧1小时(O3_1h),72,64,45,28,28,177,177,118,118,6,9,7,7,0.6,0.6
2026-07-24T1500,1936A,107.2025,34.3518,宝鸡市,文理学院,臭氧1小时(O3_1h),69,44,42,26,25,175,175,122,122,10,17,9,8,0.6,0.7
2026-07-24T1500,1937A,107.2396,34.3626,宝鸡市,三迪小学,臭氧1小时(O3_1h),75,65,46,28,28,180,180,126,126,15,17,4,4,0.6,0.6
2026-07-24T1500,4155A,107.1721,34.3558,宝鸡市,滨河北路,臭氧1小时(O3_1h),55,44,48,30,30,164,164,109,109,5,10,7,7,0.7,0.7
2026-07-24T1500,4308A,107.3898,34.3601,宝鸡市,陈仓区北开路21号,颗粒物(PM10),54,55,49,34,32,159,159,112,112,8,18,5,5,0.8,0.7
2026-07-24T1500,1051A,115.4803,38.8568,保定市,游泳馆,,50,28,36,28,27,158,158,120,120,6,7,1,2,0.3,0.4
2026-07-24T1500,1052A,115.509,38.8895,保定市,华电二区,,50,33,35,29,25,160,160,114,114,4,8,2,3,0.7,0.7
2026-07-24T1500,1053A,115.4588,38.9037,保定市,接待中心,,49,34,38,27,28,154,154,118,118,3,7,1,2,0.4,0.7
2026-07-24T1500,1054A,115.4484,38.8344,保定市,地表水厂,,48,39,41,22,25,151,151,122,122,3,7,2,2,0.4,0.4
2026-07-24T1500,3581A,115.3136,38.9511,保定市,满城区生态环境分局,,50,29,33,23,22,160,160,128,128,1,6,1,2,0.3,0.2
2026-07-24T1500,3582A,115.4709,38.7628,保定市,清苑区第二中学,NA,NA,NA,51,NA,26,NA,NA,91,NA,NA,16,NA,2,NA,0.5
2026-07-24T1500,3583A,115.6231,39.0223,保定市,徐水物探局,,48,NA,34,33,26,149,149,114,114,2,12,2,2,0.7,0.6
2026-07-24T1500,4004A,115.4199,38.8665,保定市,双鹰农机,,48,27,33,23,27,152,152,122,122,1,5,1,2,0.3,0.2
2026-07-24T1500,4034A,115.515,38.8589,保定市,植保所站,臭氧1小时(O3_1h),53,NA,39,25,23,162,162,122,122,4,9,3,3,0.3,0.3
2026-07-24T1500,2594A,99.1589,25.1137,保山市,市环境监测站,,33,20,13,8,5,103,103,91,91,7,8,6,6,0.3,0.3
2026-07-24T1500,2595A,99.1616,25.1381,保山市,市环保局,,33,18,15,8,6,104,104,92,92,4,5,6,6,0.4,0.3
2026-07-24T1500,1867A,109.1435,21.4085,北海市,海滩公园,,39,39,33,17,17,88,88,75,75,2,4,2,2,0.6,0.6
2026-07-24T1500,1868A,109.0983,21.466,北海市,新市环保局,,35,35,32,15,15,86,86,74,74,5,7,1,2,0.5,0.6
2026-07-24T1500,1869A,109.1775,21.5232,北海市,北海工业园,,35,35,33,3,11,81,81,70,70,3,6,2,3,0.5,0.5
2026-07-24T1500,3400A,109.1844,21.4396,北海市,龙潭自来水厂,,32,32,32,15,15,77,77,66,66,2,4,4,4,0.5,0.6
2026-07-24T1500,1001A,116.3611,39.8786,北京市,万寿西宫,,43,28,35,22,27,136,136,102,102,9,15,3,3,0.7,0.8
2026-07-24T1500,1003A,116.4174,39.9289,北京市,东四,,46,28,37,19,26,147,147,105,105,8,20,3,3,0.6,0.8
2026-07-24T1500,1004A,116.4073,39.8858,北京市,天坛,,42,39,50,21,25,132,132,96,96,6,12,2,2,1.0,1.2
2026-07-24T1500,1005A,116.4622,39.9364,北京市,农展馆,,42,28,40,19,29,134,134,94,94,8,22,3,1,0.7,0.9
2026-07-24T1500,1006A,116.3399,39.9293,北京市,官园,,45,30,40,19,27,144,144,100,100,7,19,2,3,0.7,0.8
2026-07-24T1500,1007A,116.2879,39.9613,北京市,海淀万柳,,46,22,35,16,23,145,145,87,87,8,22,2,3,0.6,0.7
2026-07-24T1500,1008A,116.6635,40.1349,北京市,顺义新城,,39,27,32,16,23,123,123,80,80,2,6,2,2,0.6,0.7
2026-07-24T1500,1009A,116.6275,40.327,北京市,怀柔镇,,37,31,22,18,14,118,118,83,83,5,6,1,3,0.6,0.6
2026-07-24T1500,1010A,116.2295,40.217,北京市,昌平镇,,33,11,28,3,17,105,105,86,86,2,16,4,2,1.2,1.1
2026-07-24T1500,1011A,116.3968,39.982,北京市,奥体中心,,40,26,33,19,24,125,125,84,84,10,24,2,3,0.7,0.9
2026-07-24T1500,3418A,116.8336,40.4095,北京市,密云新城,,33,30,23,21,14,105,105,77,77,4,5,5,3,0.6,0.6
2026-07-24T1500,3671A,116.0879,39.9725,北京市,门头沟三家店,,45,17,28,11,20,142,142,96,96,8,17,3,3,0.6,0.7
2026-07-24T1500,3672A,116.1507,39.8246,北京市,丰台云岗,,45,34,40,29,23,142,142,95,95,8,14,4,3,0.7,0.6
2026-07-24T1500,3674A,115.9578,39.7602,北京市,房山燕山,,47,40,37,28,27,149,149,94,94,7,10,2,2,0.8,0.7
2026-07-24T1500,3675A,116.4669,39.7734,北京市,大兴旧宫,,41,20,36,14,23,131,131,85,85,5,22,2,2,0.8,1.1
2026-07-24T1500,3694A,115.9859,40.4562,北京市,延庆石河营,,32,16,19,10,14,100,100,85,85,7,6,3,3,0.3,0.3
2026-07-24T1500,3695A,116.6151,40.3052,北京市,怀柔新城,,33,28,20,16,16,104,104,73,73,3,3,2,1,0.7,0.6
2026-07-24T1500,3696A,116.2542,39.8764,北京市,丰台小屯,,46,23,38,15,23,145,145,91,91,2,13,3,3,0.7,0.8
2026-07-24T1500,3697A,116.8399,40.3843,北京市,密云镇,,36,26,24,25,18,104,104,76,76,4,11,5,4,0.7,0.7
2026-07-24T1500,4057A,115.9423,40.4431,北京市,延庆百泉,,37,16,20,9,12,118,118,86,86,1,4,1,1,0.5,0.5
2026-07-24T1500,4058A,116.6598,39.9164,北京市,通州新华,,40,25,45,17,30,127,127,83,83,4,24,5,4,1.1,1.3
2026-07-24T1500,4182A,116.1942,39.9158,北京市,石景山八角,,49,21,36,15,23,155,155,106,106,12,20,3,2,0.7,0.7
2026-07-24T1500,4194A,117.078628,40.151726,北京市,平谷新城,,34,30,34,20,22,106,106,68,68,3,6,1,2,0.9,1
2026-07-24T1500,1761A,123.8274146,41.31234549,本溪市,大峪,,32,9,22,3,10,100,100,78,78,4,13,5,5,0.5,0.6
2026-07-24T1500,1763A,123.7169,41.3094,本溪市,彩屯,,28,13,24,3,10,88,88,73,73,7,14,7,7,0.8,1
2026-07-24T1500,1764A,123.7672166,41.28649327,本溪市,东明,,30,23,25,3,8,93,93,82,82,4,9,5,5,0.5,0.6
2026-07-24T1500,1765A,123.799345,41.266614,本溪市,新立屯,,30,18,18,3,8,94,94,79,79,4,16,7,7,0.6,0.6
2026-07-24T1500,1766A,123.829144,41.336777,本溪市,威宁,,32,6,26,6,12,101,101,77,77,5,13,9,8,0.4,0.6
2026-07-24T1500,2587A,105.287,27.3133,毕节市,八中,,33,23,62,16,23,104,104,83,83,7,16,7,9,0.5,0.6
2026-07-24T1500,2588A,105.3079,27.2987,毕节市,师专,,30,17,38,12,24,95,95,76,76,6,15,7,8,0.5,0.6
2026-07-24T1500,4263A,105.3688,27.3598,毕节市,工业大道,,34,13,31,8,20,108,108,90,90,7,17,7,8,/,/
2026-07-24T1500,1629A,117.9961,37.3604,滨州市,第二水厂,细颗粒物(PM2.5),92,NA,41,56,41,140,140,128,128,6,10,6,7,0.9,0.7
2026-07-24T1500,1630A,117.9789,37.3931,滨州市,北中新校,细颗粒物(PM2.5),72,NA,38,46,34,135,135,126,126,8,10,5,6,0.7,0.6
2026-07-24T1500,3514A,117.9379,37.3959,滨州市,中海酒店,细颗粒物(PM2.5),56,44,30,38,32,112,112,115,115,3,8,8,9,0.5,0.5
2026-07-24T1500,3515A,117.9381509,37.35547456,滨州市,开发区一中,NA,NA,51,40,NA,56,124,124,115,115,3,7,10,11,0.9,0.6
2026-07-24T1500,3516A,118.0914,37.6938,滨州市,金海六路,,34,6,37,3,29,108,108,102,102,2,14,4,5,0.2,0.3
2026-07-24T1500,4028A,117.9955,37.3752,滨州市,滨州市西街道办事处,,48,NA,30,33,34,129,129,123,123,4,7,5,6,0.7,0.7
2026-07-24T1500,2311A,115.8071,33.8399,亳州市,污水处理厂,NA,NA,NA,17,1,4,146,146,123,123,5,8,2,2,0.2,0.4
2026-07-24T1500,2312A,115.7789,33.8519,亳州市,三国揽胜宫,,42,13,19,3,5,133,133,115,115,2,4,4,4,0.2,0.3
2026-07-24T1500,3332A,115.7631,33.803,亳州市,亳州学院,,42,9,9,3,6,134,134,118,118,2,4,1,2,0.3,0.3
2026-07-24T1500,2693A,82.0482,44.8553,博尔塔拉蒙古自治州,市党校,,37,29,57,3,6,118,118,76,76,6,5,3,3,0.1,0.1
2026-07-24T1500,2694A,82.0805,44.8966,博尔塔拉蒙古自治州,市环保局,,36,16,25,3,4,113,113,78,78,7,8,3,3,0.1,0.1
2026-07-24T1500,1071A,116.8733,38.2922,沧州市,沧县城建局,细颗粒物(PM2.5),52,37,37,36,29,159,159,105,105,4,10,3,4,0.7,0.8
2026-07-24T1500,1072A,116.8462,38.3189,沧州市,电视转播站,NA,NA,49,52,31,25,153,153,99,99,NA,10,1,2,0.4,0.5
2026-07-24T1500,1073A,116.8588,38.3161,沧州市,市环保局,臭氧1小时(O3_1h),57,53,62,36,31,165,165,104,104,6,13,3,5,0.3,0.4
2026-07-24T1500,3324A,116.8011,38.294,沧州市,河北水利电力学院,,49,NA,31,29,25,155,155,104,104,5,11,1,2,0.5,0.6
2026-07-24T1500,2622A,97.1813,31.1289,昌都市,昌都监测站,,42,8,11,3,3,132,132,77,77,4,7,3,3,0.3,0.4
2026-07-24T1500,3719A,97.1707,31.1428,昌都市,昌都会议中心,,45,NA,9,7,5,141,141,97,97,3,6,3,2,0.2,0.3
2026-07-24T1500,2692A,87.2722,44.0298,昌吉回族自治州,新区政务中心,,38,28,32,11,14,119,119,83,83,5,12,6,5,0.2,0.2
2026-07-24T1500,3613A,87.3069,44.0093,昌吉回族自治州,亚心广场,,40,29,46,3,8,128,128,98,98,4,11,11,9,0.1,0.1
2026-07-24T1500,4164A,87.2057,43.9289,昌吉回族自治州,财政所,,44,42,38,7,7,138,138,102,102,3,8,8,8,0.0,0
2026-07-24T1500,1120A,125.2874,43.9024,长春市,客车厂,,37,37,27,18,15,115,115,111,111,7,11,4,4,0.6,0.6
2026-07-24T1500,1121A,125.2943,43.8508,长春市,邮电学院,,38,38,24,17,16,116,116,108,108,5,7,6,7,0.5,0.4
2026-07-24T1500,1122A,125.3648,43.8745,长春市,劳动公园,,34,34,20,15,14,97,97,94,94,6,12,5,6,0.5,0.5
2026-07-24T1500,1123A,125.3233,43.8781,长春市,园林处,,36,36,25,16,14,113,113,107,107,8,10,2,2,0.4,0.4
2026-07-24T1500,1124A,125.4604,43.7904,长春市,净月潭,,35,29,24,19,15,110,110,99,99,4,5,6,6,0.4,0.3
2026-07-24T1500,1126A,125.38,43.8422,长春市,经开区环卫处,,45,45,25,15,14,106,106,97,97,5,10,2,2,0.4,0.4
2026-07-24T1500,1127A,125.234,43.7761,长春市,高新区管委会,,35,35,26,13,14,102,102,101,101,6,9,4,4,0.6,0.5
2026-07-24T1500,1128A,125.1695,43.83,长春市,岱山公园,,42,42,31,16,16,107,107,101,101,7,14,1,2,0.3,0.4
2026-07-24T1500,4281A,125.334645,43.916281,长春市,北亚泰大街1068号,,37,37,30,21,17,107,107,103,103,10,15,2,3,0.6,0.6
2026-07-24T1500,1335A,113.082,28.2421,长沙市,经开区环保局,,36,36,30,19,17,108,108,78,78,2,6,5,5,0.7,0.5
2026-07-24T1500,1336A,112.8873,28.2202,长沙市,高开区环保局,,32,32,31,20,17,75,75,64,64,2,4,3,5,0.6,0.7
2026-07-24T1500,1337A,113.0785,28.2012,长沙市,马坡岭,,35,28,31,20,17,112,112,85,85,4,10,7,7,0.3,0.2
2026-07-24T1500,1338A,112.9448,28.1894,长沙市,湖南师范大学,,40,40,33,11,15,87,87,70,70,2,6,6,8,0.2,0.3
2026-07-24T1500,1339A,113.0177,28.1322,长沙市,雨花区环保局,,33,30,30,15,16,104,104,80,80,4,8,8,8,0.8,0.7
2026-07-24T1500,1340A,112.9795,28.2593,长沙市,伍家岭,,30,30,31,17,17,88,88,72,72,3,7,3,6,0.2,0.3
2026-07-24T1500,1341A,113.002,28.1944,长沙市,火车新站,,32,32,32,13,15,94,94,71,71,2,5,5,8,0.4,0.4
2026-07-24T1500,1342A,112.9846,28.1177,长沙市,天心区环保局,,33,30,30,15,16,105,105,80,80,3,7,4,5,0.5,0.3
2026-07-24T1500,1343A,112.8906,28.1307,长沙市,湖南中医药大学,,44,44,34,14,15,84,84,68,68,1,9,6,8,0.5,0.7
2026-07-24T1500,1727A,113.1146,36.1547,长治市,清华站,,43,21,19,3,10,136,136,111,111,3,7,8,9,0.6,0.8
2026-07-24T1500,1730A,113.0887,36.2126,长治市,审计局,,44,21,18,19,13,138,138,110,110,2,5,9,11,0.6,0.7
2026-07-24T1500,1731A,113.0845,36.1856,长治市,长治八中,,41,21,23,10,12,130,130,100,100,3,7,11,11,0.7,0.8
2026-07-24T1500,2845A,113.1561,36.1912,长治市,德盛苑,NA,NA,NA,18,NA,12,124,124,104,104,6,10,11,11,0.8,0.9
2026-07-24T1500,3568A,113.0603,36.0464,长治市,向阳小学,,43,26,27,14,13,136,136,97,97,4,8,6,7,0.2,0.5
2026-07-24T1500,3569A,112.8788,36.315,长治市,屯留一中,,42,18,25,10,12,132,132,107,107,4,12,11,18,0.9,0.9
2026-07-24T1500,4189A,113.113092,36.199482,长治市,英华南巷50号,,44,32,22,16,13,139,139,116,116,5,7,12,12,0.7,0.8
2026-07-24T1500,4190A,113.23666,36.33435,长治市,学府街1号,,45,13,18,10,11,142,142,112,112,1,2,6,6,0.4,0.5
2026-07-24T1500,1854A,111.696,28.9725,常德市,市二中,,28,24,26,10,15,87,87,69,69,1,7,6,7,0.9,0.9
2026-07-24T1500,3138A,111.7152,29.0288,常德市,武陵区永安,,27,22,26,9,14,86,86,71,71,1,6,6,7,0.4,0.4
2026-07-24T1500,3139A,111.6891,28.9881,常德市,鼎城区玉霞,,30,18,27,10,16,93,93,73,73,2,8,9,10,0.7,0.7
2026-07-24T1500,3140A,111.6651,29.0526,常德市,武陵区长庚,NA,NA,NA,22,NA,18,NA,NA,81,NA,NA,1,NA,7,NA,0.6
2026-07-24T1500,1196A,119.9524,31.7586,常州市,市监测站,,39,31,36,3,16,123,123,113,113,1,17,9,8,0.4,0.6
2026-07-24T1500,1200A,119.9351,31.703,常州市,武进监测站,,37,23,33,7,19,116,116,110,110,4,18,6,6,0.4,0.6
2026-07-24T1500,3002A,119.9701,31.813,常州市,行政中心,,36,30,34,8,19,115,115,106,106,3,20,7,7,0.2,0.4
2026-07-24T1500,3003A,120.0434,31.7726,常州市,经开区,,38,23,28,3,18,120,120,105,105,4,27,3,4,0.7,0.9
2026-07-24T1500,3010A,119.8919,31.7892,常州市,钟楼,,32,30,33,3,18,102,102,113,113,5,23,8,8,0.4,0.6
2026-07-24T1500,3429A,119.8595,31.706,常州市,武进经发区,,35,23,41,17,22,109,109,122,122,1,21,6,6,0.6,0.8
2026-07-24T1500,3430A,119.5812,31.7256,常州市,金坛城区,,30,22,32,16,19,94,94,100,100,3,15,6,7,0.6,0.7
2026-07-24T1500,4089A,119.9551,31.863,常州市,崇义南街5-H号,,36,27,32,6,18,114,114,102,102,5,22,6,6,0.6,0.8
2026-07-24T1500,2220A,120.4318,41.588,朝阳市,西梁,,32,30,30,7,17,102,102,88,88,5,7,9,9,0.7,0.8
2026-07-24T1500,2221A,120.452,41.565,朝阳市,河畔小区,,32,32,25,3,21,102,102,90,90,4,6,9,10,0.8,0.9
2026-07-24T1500,2222A,120.4176,41.5648,朝阳市,八里堡,,31,31,30,14,18,96,96,88,88,8,9,6,7,0.7,0.7
2026-07-24T1500,3026A,116.6179,23.6608,潮州市,市政府,,37,37,48,20,26,74,74,74,74,2,10,2,4,0.7,0.8
2026-07-24T1500,4036A,116.646,23.676,潮州市,金山,,41,41,43,18,25,68,68,66,66,1,8,2,3,0.3,0.5
2026-07-24T1500,2473A,113.0116,25.8228,郴州市,市职中,,33,27,32,17,22,104,104,93,93,4,7,7,7,0.5,0.5
2026-07-24T1500,2475A,113.0381,25.8074,郴州市,市审计局,,35,28,32,20,21,109,109,96,96,2,7,6,11,/,/
2026-07-24T1500,2476A,113.0348,25.7757,郴州市,市环保局,,33,20,30,16,21,104,104,97,97,5,9,8,13,0.4,0.5
2026-07-24T1500,4252A,113.0138,25.8011,郴州市,好美居路49号,,34,26,29,12,15,107,107,98,98,4,7,8,8,/,/
2026-07-24T1500,1431A,103.9727,30.7242,成都市,金泉两河,臭氧1小时(O3_1h),118,49,53,29,34,236,236,170,170,8,18,5,6,0.6,0.6
2026-07-24T1500,1432A,104.1423,30.6765,成都市,十里店,臭氧1小时(O3_1h),136,64,58,51,36,272,272,178,178,13,18,10,10,0.7,0.8
2026-07-24T1500,1433A,104.0594,30.5765,成都市,三瓦窑,臭氧1小时(O3_1h),105,38,52,26,31,209,209,154,154,14,35,8,8,0.6,0.7
2026-07-24T1500,1434A,104.1122,30.6306,成都市,沙河铺,臭氧1小时(O3_1h),110,36,50,30,32,219,219,152,152,10,24,8,8,0.6,0.7
2026-07-24T1500,2880A,104.0219,30.6561,成都市,大石西路,NA,NA,48,52,32,34,NA,NA,136,136,17,20,7,8,1.1,1.1
2026-07-24T1500,3136A,104.2724,30.559,成都市,龙泉驿区区政府,臭氧1小时(O3_1h),122,46,41,31,30,244,244,172,172,10,14,6,6,0.6,0.8
2026-07-24T1500,3357A,104.0028,30.6891,成都市,金博路,臭氧1小时(O3_1h),105,NA,43,34,32,210,210,162,162,9,24,10,12,1.0,1
2026-07-24T1500,3359A,104.056,30.5228,成都市,华阳,臭氧1小时(O3_1h),102,44,48,27,30,203,203,153,153,8,20,4,4,0.6,0.7
2026-07-24T1500,3488A,104.387954,30.746684,成都市,青白江技师分院,臭氧1小时(O3_1h),144,55,50,42,32,288,288,174,174,15,25,18,8,0.8,0.8
2026-07-24T1500,3489A,104.0788,30.4054,成都市,科学城,臭氧1小时(O3_1h),106,49,31,48,28,212,212,147,147,5,13,8,9,0.5,0.6
2026-07-24T1500,4011A,103.8505,30.6946,成都市,光华大道三段,臭氧1小时(O3_1h),90,36,47,26,31,192,192,155,155,5,14,4,7,0.6,0.7
2026-07-24T1500,4144A,104.3257,30.6406,成都市,八角井街185号,臭氧1小时(O3_1h),134,62,52,45,30,267,267,174,174,11,15,8,12,0.7,0.7
2026-07-24T1500,4224A,104.2433276,30.53529463,成都市,鲸龙路1057号,臭氧1小时(O3_1h),126,57,50,32,27,252,252,166,166,12,22,10,10,0.7,0.7
2026-07-24T1500,1062A,117.9531,40.908,承德市,铁路,,36,17,49,12,31,114,114,72,72,6,12,5,8,0.4,0.6
2026-07-24T1500,1063A,117.9397,40.9763,承德市,中国银行,,41,17,49,6,32,129,129,88,88,4,9,3,6,0.4,0.6
2026-07-24T1500,4073A,117.9462,40.95,承德市,杏林街1号,,37,22,49,12,37,117,117,79,79,5,10,4,6,0.4,0.6
2026-07-24T1500,4274A,117.7994,40.9605,承德市,滨河大街98号,,39,25,40,3,24,122,122,81,81,2,7,4,7,0.4,0.5
2026-07-24T1500,2314A,117.4698,30.6617,池州市,池州学院,,33,33,22,18,12,76,76,64,64,6,12,4,4,0.4,0.7
2026-07-24T1500,3237A,117.4918,30.6617,池州市,展览馆,,37,37,25,15,11,81,81,64,64,3,9,3,3,0.3,0.5
2026-07-24T1500,3333A,117.5626,30.695,池州市,第八中学,,33,33,25,14,12,54,54,45,45,2,7,4,4,0.2,0.3
2026-07-24T1500,3334A,117.5037,30.6242,池州市,第十二中学,,33,33,27,21,13,78,78,64,64,2,12,5,5,0.6,1.1
2026-07-24T1500,1744A,118.9229,42.2816,赤峰市,松山一中,,44,26,21,20,13,140,140,123,123,6,9,8,9,0.7,0.7
2026-07-24T1500,1745A,118.9588,42.2733,赤峰市,哈达街,,40,24,18,17,15,128,128,108,108,10,12,14,16,0.6,0.6
2026-07-24T1500,1746A,118.8792,42.2551,赤峰市,天义路,,39,NA,13,18,14,123,123,107,107,6,11,8,8,0.7,0.7
2026-07-24T1500,3058A,119.2656,42.0356,赤峰市,银河街,,46,35,36,24,26,146,146,118,118,9,12,12,17,0.9,0.9
2026-07-24T1500,3286A,118.9359,42.3146,赤峰市,桥北物流园区,,45,28,16,14,12,142,142,117,117,11,12,14,9,1.0,0.8
2026-07-24T1500,2521A,107.3473,22.4137,崇左市,市环保局江州分局,,24,16,23,8,13,75,75,52,52,4,12,6,7,0.5,0.6
2026-07-24T1500,4256A,107.375,22.3736,崇左市,石景林东路7号,,23,14,17,8,11,72,72,53,53,4,10,4,4,0.5,0.5
2026-07-24T1500,3207A,118.31131,32.3033,滁州市,市政府原办公楼,,35,26,14,24,21,111,111,86,86,6,11,6,7,0.4,0.5
2026-07-24T1500,3331A,118.3268,32.2633,滁州市,图书馆,,35,22,15,9,11,112,112,89,89,2,10,8,7,0.4,0.4
2026-07-24T1500,4101A,118.3196,32.3335,滁州市,银山路666号,,36,NA,9,23,15,115,115,90,90,3,11,7,5,0.5,0.5
2026-07-24T1500,4102A,118.3426,32.2979,滁州市,黄山路555号,,36,36,30,18,16,110,110,87,87,2,11,7,7,0.4,0.4
2026-07-24T1500,2606A,101.5379,25.0492,楚雄彝族自治州,市经济开发区,,34,10,16,3,7,106,106,103,103,4,7,1,2,0.8,0.8
2026-07-24T1500,4153A,101.5536,25.0343,楚雄彝族自治州,团结路562号,,36,14,13,3,8,113,113,112,112,4,6,3,3,0.7,0.7
2026-07-24T1500,2549A,107.5087,31.2186,达州市,市环境监测站,,38,27,36,15,10,119,119,98,98,6,10,6,8,0.3,0.3
2026-07-24T1500,2550A,107.4988,31.2132,达州市,凤凰小区,,39,31,37,20,14,123,123,104,104,5,9,5,6,0.1,0.2
2026-07-24T1500,2551A,107.5081,31.1987,达州市,达县机关宾馆,,39,31,35,17,15,124,124,104,104,10,16,4,6,0.2,0.3
2026-07-24T1500,2552A,107.4644,31.2124,达州市,市政中心,,43,30,42,23,14,136,136,112,112,9,12,6,8,0.3,0.2
2026-07-24T1500,2614A,100.2168,25.5818,大理白族自治州,大理市环境监测站,,44,11,9,3,6,139,139,114,114,9,10,6,5,0.3,0.3
2026-07-24T1500,2615A,100.1542,25.7055,大理白族自治州,大理古城,,39,8,14,3,6,124,124,107,107,4,9,6,6,0.5,0.6
2026-07-24T1500,1109A,121.6119,38.974,大连市,甘井子,NA,NA,14,13,9,11,123,123,109,109,7,3,NA,8,0.6,0.6
2026-07-24T1500,1110A,121.565,38.9509,大连市,周水子,,34,16,16,11,14,106,106,97,97,13,16,7,7,0.9,0.9
2026-07-24T1500,1111A,121.5637,38.8849,大连市,星海三站,,38,13,13,11,12,120,120,100,100,4,5,6,5,0.9,0.9
2026-07-24T1500,1112A,121.6301,38.9117,大连市,青泥洼桥,,33,12,12,11,12,105,105,101,101,5,3,8,8,0.6,0.7
2026-07-24T1500,1113A,121.6248,38.8643,大连市,傅家庄,,35,NA,10,13,12,110,110,91,91,3,3,7,7,0.7,0.7
2026-07-24T1500,1114A,121.5117,38.8636,大连市,七贤岭,,36,19,16,11,12,115,115,99,99,3,5,6,6,0.5,0.6
2026-07-24T1500,1116A,121.7507,39.1339,大连市,金州,,32,12,11,9,10,100,100,93,93,3,5,8,9,0.5,0.6
2026-07-24T1500,1117A,121.7811,39.0495,大连市,开发区,,33,14,15,7,11,103,103,95,95,7,10,9,9,0.6,0.6
2026-07-24T1500,1118A,121.9762,39.0631,大连市,双D港,,33,16,12,13,10,103,103,91,91,4,3,6,6,0.4,0.4
2026-07-24T1500,4082A,121.2548,38.8188,大连市,旅顺,,32,12,15,9,11,100,100,85,85,7,8,6,6,0.5,0.5
2026-07-24T1500,1789A,124.8085,46.0381,大庆市,大同区,,42,NA,25,11,13,132,132,104,104,7,16,5,6,0.6,0.6
2026-07-24T1500,1790A,125.1166,46.5255,大庆市,龙凤区,,32,8,24,3,14,100,100,94,93,9,13,7,7,0.2,0.2
2026-07-24T1500,1791A,124.8894,46.4007,大庆市,红岗区,,40,16,20,3,12,126,126,108,108,7,7,6,6,0.6,0.6
2026-07-24T1500,1792A,125.1391,46.578,大庆市,萨尔图区,NA,NA,NA,26,NA,15,104,104,107,102,6,15,5,6,0.3,0.4
2026-07-24T1500,1793A,124.9026,46.6217,大庆市,让胡路区,,37,NA,27,11,17,117,117,106,106,4,16,4,4,0.4,0.5
2026-07-24T1500,3481A,125.127,46.6277,大庆市,萨区政府监测点,,35,15,28,8,17,111,111,113,110,6,13,5,6,0.2,0.3
2026-07-24T1500,1723A,113.2926,40.0759,大同市,云冈宾馆,,42,8,23,3,10,134,134,114,114,3,11,6,7,0.6,0.6
2026-07-24T1500,1724A,113.3437,40.0921,大同市,大同大学,,44,11,28,3,10,139,139,116,116,3,10,9,10,0.4,0.5
2026-07-24T1500,1725A,113.2637,40.129,大同市,安家小村,,43,12,30,7,12,136,136,118,118,4,13,6,7,0.2,0.2
2026-07-24T1500,3282A,113.3399,40.0586,大同市,大同市卫生学校,,45,9,22,3,10,142,142,120,120,4,11,5,6,0.4,0.5
2026-07-24T1500,3565A,113.1371,40.1122,大同市,云冈站,,45,20,26,9,12,143,143,118,118,7,12,6,6,0.5,0.6
2026-07-24T1500,3566A,113.1186,40.2556,大同市,图书馆,NA,NA,23,23,8,10,138,138,122,122,6,9,NA,7,0.4,0.7
2026-07-24T1500,3567A,113.5931,40.0459,大同市,区一中,,44,14,13,7,6,139,139,122,122,6,7,7,8,0.4,0.4
2026-07-24T1500,4199A,113.2798248,40.09972476,大同市,魏都大道141号,,40,19,28,7,11,125,125,106,106,8,15,5,6,0.4,0.5
2026-07-24T1500,2269A,124.1068,50.4091,大兴安岭地区,科技局,,28,28,22,17,17,86,86,68,68,3,4,8,6,0.1,0.1
2026-07-24T1500,3663A,124.117,50.4279,大兴安岭地区,红旗社区,,30,19,12,17,13,96,96,79,79,5,7,7,6,0.3,0.3
2026-07-24T1500,1600A,124.33,40.0625,丹东市,江湾东路,,30,7,19,3,10,93,93,78,78,5,8,4,5,0.4,0.5
2026-07-24T1500,1601A,124.4242,40.1513,丹东市,临江后街,,28,10,18,3,10,89,89,64,64,6,6,3,3,0.5,0.6
2026-07-24T1500,1602A,124.3935,40.1461,丹东市,元宝山,,26,10,19,3,10,81,81,63,63,6,7,2,2,0.6,0.7
2026-07-24T1500,1603A,124.3634,40.1093,丹东市,民主桥,,27,13,24,3,10,86,86,68,68,3,6,4,5,0.4,0.6
2026-07-24T1500,3541A,109.5726195,19.51688767,儋州市,第一中学子站,,28,28,33,14,19,58,58,62,62,2,4,2,2,0.3,0.5
2026-07-24T1500,3542A,109.5567,19.5187,儋州市,东坡学校子站,,24,24,32,15,17,57,57,62,62,1,4,2,3,0.5,0.5
2026-07-24T1500,2616A,98.5611,24.4273,德宏傣族景颇族自治州,德宏州监测站,,21,NA,6,9,8,65,65,43,43,5,6,8,11,0.5,0.5
2026-07-24T1500,3677A,98.5887,24.4366,德宏傣族景颇族自治州,芒市人民政府综合楼,,24,24,24,3,5,57,57,43,43,6,7,7,9,0.7,0.7
2026-07-24T1500,1901A,104.424,31.1209,德阳市,东山公园,臭氧1小时(O3_1h),99,45,42,32,34,199,199,136,136,7,11,7,8,0.9,0.8
2026-07-24T1500,1902A,104.3827,31.1318,德阳市,西小区,臭氧1小时(O3_1h),92,40,43,25,32,193,193,142,142,9,19,10,13,0.7,0.7
2026-07-24T1500,1904A,104.3553,31.1091,德阳市,耐火材料厂,臭氧1小时(O3_1h),105,44,50,28,34,210,210,150,150,6,18,4,10,0.8,0.9
2026-07-24T1500,4145A,104.4144,31.1495,德阳市,市林业局,臭氧1小时(O3_1h),102,46,51,27,34,204,204,142,142,9,23,14,14,0.8,0.8
2026-07-24T1500,1622A,116.3034,37.4675,德州市,儿童乐园,,46,NA,19,19,14,145,145,132,132,6,8,10,11,0.7,0.7
2026-07-24T1500,1624A,116.2992,37.4449,德州市,监理站,,45,NA,15,17,12,143,143,134,134,3,6,10,14,0.4,0.3
2026-07-24T1500,3066A,116.2722,37.438,德州市,九衢泉纯净水厂,,47,14,17,14,12,148,148,133,133,14,14,9,12,0.5,0.4
2026-07-24T1500,3371A,116.3693,37.44,德州市,开发区人民医院,,45,12,17,8,12,142,142,126,126,5,9,6,8,0.4,0.5
2026-07-24T1500,3511A,116.5687,37.3331,德州市,陵城艺术中心,,45,12,18,12,19,142,142,123,123,5,7,3,8,0.4,0.4
2026-07-24T1500,4292A,116.352738,37.420875,德州市,新河东路,,44,14,15,8,9,140,140,127,127,8,13,6,7,0.6,0.6
2026-07-24T1500,2621A,99.7054,27.8319,迪庆藏族自治州,迪庆州站,,42,17,16,3,9,132,132,89,89,8,8,8,8,0.1,0.1
2026-07-24T1500,3180A,99.7122,27.8129,迪庆藏族自治州,质量技术监督局,,40,16,14,8,8,126,126,97,97,15,10,8,8,0.2,0.3
2026-07-24T1500,4257A,104.6092,35.5962,定西市,将台街,,45,34,41,9,17,141,141,125,125,4,8,6,6,0.3,0.2
2026-07-24T1500,4309A,104.6159,35.5701,定西市,正龙路62号,,40,39,42,7,14,128,128,119,119,4,8,6,7,0.5,0.4
2026-07-24T1500,4071A,114.9883,38.5232,定州市,交通局,"颗粒物(PM10),细颗粒物(PM2.5)",52,52,67,36,26,149,149,116,116,7,14,1,2,0.7,0.6
2026-07-24T1500,4072A,115.0045,38.5136,定州市,第五中学,,50,50,55,27,27,144,144,112,112,6,14,4,4,0.5,0.4
2026-07-24T1500,1390A,113.7943,23.0132,东莞市,东城石井,臭氧1小时(O3_1h),102,52,37,29,19,204,204,118,118,7,10,5,4,0.6,0.5
2026-07-24T1500,1391A,113.7384,22.9659,东莞市,南城西平,臭氧1小时(O3_1h),73,37,33,19,15,178,178,111,111,12,13,8,10,0.4,0.5
2026-07-24T1500,3319A,113.7283,23.041,东莞市,万江金泰,臭氧1小时(O3_1h),85,57,36,29,20,188,188,123,123,11,12,10,9,0.6,0.6
2026-07-24T1500,4129A,113.8666,23.1062,东莞市,裕兴路,臭氧1小时(O3_1h),60,55,48,22,20,168,168,113,113,8,18,8,7,0.4,0.4
2026-07-24T1500,4130A,114.0076,22.9739,东莞市,教育路1号,臭氧1小时(O3_1h),109,49,51,22,22,217,217,125,125,13,19,8,7,0.8,0.8
2026-07-24T1500,4131A,113.7981,22.8124,东莞市,长怡路1号,臭氧1小时(O3_1h),77,49,44,22,18,181,181,115,115,8,14,5,5,0.6,0.6
2026-07-24T1500,1666A,118.6612,37.4313,东营市,市环保局,臭氧1小时(O3_1h),68,39,27,26,22,174,174,131,131,9,12,6,7,0.5,0.5
2026-07-24T1500,3036A,118.6903,37.4337,东营市,开发区管委会,臭氧1小时(O3_1h),67,45,35,25,22,173,173,131,131,11,14,4,5,0.5,0.6
2026-07-24T1500,3365A,118.5721,37.5654,东营市,垦利区民丰路,,46,39,37,25,32,145,145,129,129,7,15,5,5,0.5,0.5
2026-07-24T1500,3498A,118.5063,37.8606,东营市,河口城区,,41,22,24,17,16,130,130,142,142,8,8,10,11,0.5,0.5
2026-07-24T1500,3646A,118.4979,37.4623,东营市,胜利站,颗粒物(PM10),54,55,32,24,24,140,140,132,132,8,12,3,8,0.8,0.8
2026-07-24T1500,3734A,118.5753,37.4405,东营市,理想之城,臭氧1小时(O3_1h),68,31,27,31,25,174,174,136,136,14,16,10,8,0.7,0.7
2026-07-24T1500,1591A,110.0024,39.8127,鄂尔多斯市,综合楼,臭氧1小时(O3_1h),63,39,41,14,17,170,170,134,134,8,24,7,7,0.7,0.8
2026-07-24T1500,1592A,109.9485,39.8259,鄂尔多斯市,巴音孟克林场办事处,臭氧1小时(O3_1h),73,36,40,18,16,178,178,140,140,8,18,6,8,0.7,0.7
2026-07-24T1500,1593A,109.7734,39.5987,鄂尔多斯市,康泽苑,臭氧1小时(O3_1h),64,36,35,14,16,171,171,133,133,7,18,15,14,0.3,0.3
2026-07-24T1500,1594A,109.8121,39.5987,鄂尔多斯市,华泰汽车城,,50,29,36,13,16,159,159,116,116,6,22,12,11,0.7,0.8
2026-07-24T1500,1595A,109.9734,39.7884,鄂尔多斯市,奥林花园,臭氧1小时(O3_1h),60,36,38,16,16,168,168,127,127,7,21,7,6,0.6,0.6
2026-07-24T1500,2436A,114.894,30.3989,鄂州市,市政府,,33,28,35,11,12,104,104,82,82,6,12,4,4,0.4,0.4
2026-07-24T1500,2437A,114.8986,30.3714,鄂州市,赵家坝,,39,26,27,11,11,122,122,91,91,5,12,8,8,0.6,0.7
2026-07-24T1500,3654A,114.8093,30.4091,鄂州市,精准医疗中心,,23,20,30,6,15,73,73,71,71,3,14,4,7,0.3,0.9
2026-07-24T1500,2454A,109.4978,30.2979,恩施土家族苗族自治州,湖北民院,,34,23,34,19,19,106,106,83,83,2,5,6,5,0.6,0.5
2026-07-24T1500,3549A,109.5061,30.3771,恩施土家族苗族自治州,龙凤新区,,32,28,32,17,18,101,101,85,85,4,5,6,6,0.5,0.4
2026-07-24T1500,2499A,108.3411,21.6159,防城港市,沙万,颗粒物(PM10),53,53,25,17,11,70,70,54,52,8,16,4,3,0.6,0.7
2026-07-24T1500,2500A,108.3515,21.7733,防城港市,防城档案局,,30,30,24,16,12,69,69,57,57,4,11,2,3,0.6,0.7
2026-07-24T1500,2501A,108.3506,21.6414,防城港市,大海花园,,26,25,22,16,15,81,81,59,59,2,13,6,7,0.4,0.6
2026-07-24T1500,1371A,113.1293,23.0065,佛山市,湾梁,臭氧1小时(O3_1h),67,36,41,29,25,173,173,NA,NA,10,12,/,/,/,/
2026-07-24T1500,1372A,113.1082,23.0477,佛山市,华材职中,臭氧1小时(O3_1h),75,51,41,32,24,180,180,104,104,6,9,7,7,0.5,0.5
2026-07-24T1500,1373A,113.1439,23.045,佛山市,南海气象局,颗粒物(PM10),59,62,45,33,24,156,156,102,102,10,13,/,/,/,/
2026-07-24T1500,1374A,113.2879,22.8094,佛山市,顺德苏岗,臭氧1小时(O3_1h),67,46,41,27,22,173,173,111,111,11,13,/,/,0.6,0.6
2026-07-24T1500,1376A,112.8384,22.8678,佛山市,高明孔堂,,43,41,37,22,20,136,136,85,85,7,7,/,/,/,/
2026-07-24T1500,1377A,112.8835,23.1584,佛山市,三水监测站,,46,46,42,26,25,134,134,84,84,7,16,4,5,0.3,0.3
2026-07-24T1500,1378A,112.8668,23.185,佛山市,三水云东海,,40,36,41,23,24,128,128,80,80,6,13,/,/,/,/
2026-07-24T1500,3625A,113.2568,22.7629,佛山市,容桂街道办,臭氧1小时(O3_1h),67,36,34,25,23,173,173,108,108,10,13,/,/,/,/
2026-07-24T1500,1282A,119.2681,26.0506,福州市,师大,,26,26,47,3,22,65,65,76,76,4,10,5,5,0.3,0.5
2026-07-24T1500,1283A,119.2983,26.1028,福州市,五四北路,,20,16,41,6,19,61,61,71,71,6,9,5,5,0.2,0.5
2026-07-24T1500,1284A,119.2648,26.0769,福州市,杨桥西路,,21,19,47,6,19,65,65,73,73,4,10,4,5,/,/
2026-07-24T1500,3048A,119.5799,26.0937,福州市,九龙,,18,18,35,6,15,48,48,55,55,3,8,6,6,0.2,0.3
2026-07-24T1500,3526A,119.5188,25.9666,福州市,吴航,,15,11,39,6,21,48,48,52,52,5,9,6,7,0.4,0.6
2026-07-24T1500,4104A,119.3106,26.0648,福州市,路通桥巷6号,,22,22,41,8,25,61,61,70,70,3,7,/,/,/,/
2026-07-24T1500,1755A,123.7974,41.8494,抚顺市,望花区,,39,21,34,6,18,123,123,97,97,10,16,12,13,0.5,0.8
2026-07-24T1500,1756A,123.9161,41.8827,抚顺市,顺城区,,37,18,28,3,14,117,117,93,93,8,19,10,9,0.6,0.8
2026-07-24T1500,1757A,124.0437,41.8615,抚顺市,东洲区,,41,22,24,6,13,130,130,97,97,9,11,8,9,0.6,0.4
2026-07-24T1500,1758A,123.9246,41.8638,抚顺市,新抚区,,35,23,28,3,15,109,109,90,90,6,13,7,9,0.7,0.9
2026-07-24T1500,1759A,124.0972,41.8961,抚顺市,大伙房水库,颗粒物(PM10),72,80,20,15,11,117,117,89,89,8,12,11,11,0.7,0.6
2026-07-24T1500,1760A,123.708,41.8386,抚顺市,沈抚新城,,42,23,34,3,15,133,133,101,101,9,18,8,8,0.7,0.9
2026-07-24T1500,2377A,116.3544,27.9833,抚州市,市站,,38,38,39,17,19,74,74,66,66,7,7,2,3,0.8,0.8
2026-07-24T1500,2378A,116.3562,27.9631,抚州市,血防站,,38,38,36,13,18,74,74,64,64,2,8,6,6,0.5,0.6
2026-07-24T1500,2379A,116.3561,28.0007,抚州市,采茶剧团,,28,28,40,13,19,84,84,78,78,5,10,10,15,0.3,0.6
2026-07-24T1500,2380A,116.3854,27.9648,抚州市,医学分院,,38,38,38,8,15,88,88,75,75,3,7,4,8,0.6,0.8
2026-07-24T1500,2207A,121.6095,41.9978,阜新市,工业园区,,37,37,33,20,21,101,101,97,97,11,13,10,7,0.8,0.6
2026-07-24T1500,2208A,121.6567,42.0188,阜新市,长青街,,31,14,29,13,21,97,97,96,96,7,11,12,12,0.6,0.5
2026-07-24T1500,2209A,121.6672,42.07,阜新市,农业园区,,32,30,54,9,22,102,102,100,100,9,10,3,4,0.7,0.7
2026-07-24T1500,2211A,121.6343,42.0455,阜新市,玉龙新城,,30,28,32,8,18,93,93,90,90,8,10,3,3,0.7,0.6
2026-07-24T1500,2301A,115.8276,32.8929,阜阳市,市监测站,,41,18,14,8,6,130,130,103,103,7,10,6,6,0.4,0.5
2026-07-24T1500,2303A,115.8551,32.8606,阜阳市,开发区,,43,24,14,3,5,136,136,99,99,7,10,4,4,0.4,0.5
2026-07-24T1500,2875A,115.783962,32.889217,阜阳市,阜阳职业技术学院,,39,NA,16,7,6,124,124,104,104,4,7,4,4,0.4,0.5
2026-07-24T1500,3468A,115.79,32.8614,阜阳市,市规划展馆,,40,38,18,6,7,125,125,99,99,6,11,2,2,0.4,0.4
2026-07-24T1500,3469A,115.835101,32.918568,阜阳市,枣园社区,,41,20,15,6,5,129,129,97,97,6,10,4,4,0.4,0.4
2026-07-24T1500,2669A,102.9097,34.9841,甘南藏族自治州,州政府,,42,9,37,3,14,132,132,83,83,2,17,6,6,0.2,0.3
2026-07-24T1500,3380A,102.8915,34.9618,甘南藏族自治州,甘肃民族师范学院,,41,NA,58,21,25,131,131,91,91,7,31,4,4,0.3,0.3
2026-07-24T1500,2570A,101.96,30.048,甘孜藏族自治州,水桥子,,38,6,16,3,6,121,121,71,71,2,22,2,3,0,0.1
2026-07-24T1500,3065A,101.9534,29.9976,甘孜藏族自治州,州环保局,,35,20,14,3,6,110,110,73,73,13,18,4,4,0.4,0.3
2026-07-24T1500,2363A,114.9368,25.8663,赣州市,地委,,43,43,44,24,24,130,130,121,121,2,10,2,3,0.3,0.4
2026-07-24T1500,2364A,114.946,25.8483,赣州市,气象台,,40,NA,39,28,26,124,124,117,117,5,11,4,5,0.4,0.5
2026-07-24T1500,2365A,114.932,25.8332,赣州市,市图书馆,,42,42,40,25,25,131,131,120,120,4,9,4,4,0.6,0.8
2026-07-24T1500,2366A,114.8905,25.8472,赣州市,华坚鞋城,,45,41,48,31,28,132,132,116,116,6,11,1,2,0.3,0.4
2026-07-24T1500,3109A,115.0094,25.8614,赣州市,赣县区卫计委,,39,23,37,18,20,122,122,107,107,7,14,2,2,0.7,0.7
2026-07-24T1500,2684A,106.2753,36.0057,固原市,监测站,,45,32,36,22,19,142,142,130,130,4,13,6,6,0.3,0.3
2026-07-24T1500,2685A,106.2384,36.0189,固原市,新区,,44,37,33,26,22,138,138,132,132,6,9,6,6,0.5,0.4
2026-07-24T1500,2544A,106.6307,30.4577,广安市,市委,,45,26,37,21,28,144,144,117,117,5,10,12,12,0.4,0.5
2026-07-24T1500,2545A,106.6266,30.4662,广安市,友谊中学,,45,30,36,12,23,141,141,117,117,5,12,13,12,0.5,0.5
2026-07-24T1500,2547A,106.6386,30.4551,广安市,广电花园,,47,32,40,24,25,150,150,120,120,8,13,9,10,0.6,0.6
2026-07-24T1500,2902A,106.6347,30.4868,广安市,北辰小学,,44,33,41,23,30,138,138,117,117,6,11,9,9,0.4,0.4
2026-07-24T1500,2524A,105.8211,32.4444,广元市,老城,,45,29,41,19,23,142,142,112,112,4,15,4,6,0.3,0.3
2026-07-24T1500,2526A,105.8629,32.429,广元市,监测站,,46,40,47,16,21,146,146,111,111,6,11,8,5,0.2,0.4
2026-07-24T1500,3617A,105.8047,32.4167,广元市,经开区,,46,46,50,28,25,146,146,112,112,6,15,7,9,0.4,0.5
2026-07-24T1500,1345A,113.2346,23.1423,广州市,广雅中学,臭氧1小时(O3_1h),102,56,44,35,24,203,203,111,111,15,15,5,4,0.4,0.4
2026-07-24T1500,1346A,113.2611,23.105,广州市,市五中,臭氧1小时(O3_1h),107,49,43,34,24,214,214,124,124,10,14,4,4,/,/
2026-07-24T1500,1348A,113.3477,23.0916,广州市,广东商学院,臭氧1小时(O3_1h),70,41,41,23,21,176,176,107,107,6,16,4,4,0.4,0.4
2026-07-24T1500,1349A,113.4332,23.105,广州市,市八十六中,臭氧1小时(O3_1h),68,40,34,24,21,174,174,103,103,21,26,6,6,/,/
2026-07-24T1500,1350A,113.3506,22.9488,广州市,番禺中学,臭氧1小时(O3_1h),64,55,54,27,23,171,171,108,108,8,10,6,6,0.3,0.3
2026-07-24T1500,1351A,113.2147,23.3918,广州市,花都师范,臭氧1小时(O3_1h),80,51,52,39,30,184,184,114,114,10,17,3,3,0.2,0.3
2026-07-24T1500,1352A,113.2599,23.1329,广州市,市监测站,臭氧1小时(O3_1h),102,55,45,32,25,203,203,116,116,9,12,2,2,/,/
2026-07-24T1500,1353A,113.5618,23.3119,广州市,九龙镇镇龙,,46,46,46,22,21,133,133,82,82,8,22,7,8,0.5,0.5
2026-07-24T1500,1354A,113.2764,23.1544,广州市,麓湖,NA,NA,50,42,25,25,180,180,107,107,NA,18,7,6,0.6,0.6
2026-07-24T1500,2846A,113.3209,23.1323,广州市,体育西,臭氧1小时(O3_1h),83,46,41,24,21,186,186,110,110,14,19,5,6,0.5,0.5
2026-07-24T1500,3298A,113.5718,23.5493,广州市,从化街口,,43,40,47,27,26,137,137,92,92,7,17,8,9,0.6,0.7
2026-07-24T1500,3299A,113.3463,23.369,广州市,白云竹料,臭氧1小时(O3_1h),72,62,49,31,25,177,177,104,104,9,20,3,4,0.6,0.7
2026-07-24T1500,3300A,113.2981,23.2365,广州市,白云嘉禾,臭氧1小时(O3_1h),94,66,51,31,25,195,195,108,108,12,21,9,9,/,/
2026-07-24T1500,3301A,113.4256,23.1716,广州市,黄埔科学城,,50,42,42,28,23,160,160,97,97,6,14,8,7,0.4,0.4
2026-07-24T1500,3302A,113.3942,23.0485,广州市,番禺大学城,臭氧1小时(O3_1h),54,36,42,20,18,163,163,107,107,10,17,6,6,0.6,0.5
2026-07-24T1500,3303A,113.4923,22.8169,广州市,南沙黄阁,臭氧1小时(O3_1h),62,51,41,38,21,169,169,98,98,11,15,7,7,/,/
2026-07-24T1500,3304A,113.534,22.7893,广州市,南沙街,NA,NA,NA,37,NA,20,NA,NA,89,NA,NA,12,NA,9,NA,0.6
2026-07-24T1500,3443A,113.2905,23.5541,广州市,花都梯面,,50,50,46,25,25,90,90,66,66,7,15,3,4,/,/
2026-07-24T1500,3445A,113.786,23.7479,广州市,从化良口,,38,38,36,22,24,108,108,80,80,6,11,5,5,/,/
2026-07-24T1500,3446A,113.805,23.2614,广州市,增城荔城,颗粒物(PM10),51,51,43,32,24,139,139,92,92,7,16,9,9,0.6,0.7
2026-07-24T1500,2506A,109.604387,23.066791,贵港市,江南子站,NA,NA,NA,NA,NA,NA,NA,NA,NA,NA,NA,NA,NA,NA,NA,NA
2026-07-24T1500,2508A,109.5669,23.1065,贵港市,荷城子站,,34,34,22,14,13,82,82,58,58,7,10,7,7,0.7,0.7
2026-07-24T1500,3405A,109.5886,23.1172,贵港市,新世纪学校,,34,34,21,18,13,84,84,56,56,6,13,/,/,0.6,0.4
2026-07-24T1500,4260A,109.5933,23.095,贵港市,中山路155-3号,,34,34,29,20,14,108,108,67,67,4,12,/,/,0.6,0.6
2026-07-24T1500,1439A,106.6863,26.6035,贵阳市,马鞍山,,16,12,16,8,12,50,50,86,76,7,5,1,3,/,/
2026-07-24T1500,1441A,106.6241,26.6266,贵阳市,鉴湖路,,31,31,35,7,11,69,69,82,79,6,4,6,7,0.6,0.6
2026-07-24T1500,1442A,106.7468,26.6344,贵阳市,燕子冲,,19,19,24,12,11,55,55,78,72,12,8,8,8,0.5,0.5
2026-07-24T1500,1443A,106.6556,26.4362,贵阳市,碧云窝,NA,NA,27,33,3,11,57,57,79,72,NA,5,NA,7,/,/
2026-07-24T1500,1445A,106.6963,26.6063,贵阳市,红边门,,21,NA,20,13,13,66,66,81,72,11,8,5,6,/,/
2026-07-24T1500,1446A,106.7162383,26.56964667,贵阳市,新华路,,24,24,29,7,11,68,68,79,76,12,7,5,17,0.6,0.6
2026-07-24T1500,1447A,106.6742,26.542,贵阳市,太慈桥,,21,19,22,9,10,65,65,84,76,10,7,4,4,/,/
2026-07-24T1500,4230A,106.688212,26.56952,贵阳市,花果园大街66号,,19,18,24,13,11,55,55,77,67,9,6,2,2,/,/
2026-07-24T1500,4231A,106.687268,26.516892,贵阳市,漓江路57号,,20,19,20,14,14,61,61,82,73,11,6,3,4,0.5,0.5
2026-07-24T1500,1864A,110.3091,25.2705,桂林市,龙隐路小学,,22,21,26,3,14,68,68,56,56,2,6,4,6,0.6,0.7
2026-07-24T1500,1865A,110.2849361,25.22909545,桂林市,八中,,23,23,25,3,9,68,68,54,54,4,9,4,5,0.3,0.5
2026-07-24T1500,3531A,110.296,25.1254,桂林市,旅游学院,,28,28,26,11,15,69,69,49,49,2,3,4,5,0.3,0.4
2026-07-24T1500,4222A,110.1835,25.2444,桂林市,环湖路276号,NA,NA,14,19,10,15,76,76,58,58,2,8,NA,5,0.4,0.5
2026-07-24T1500,4301A,110.2803,25.2773,桂林市,信义路13号,,20,17,28,10,19,63,63,50,50,2,8,3,8,0.6,0.8
2026-07-24T1500,2674A,100.2262,34.4854,果洛藏族自治州,玛沁县大武镇,,40,22,33,3,9,126,126,88,88,1,4,11,10,0.3,0.4
2026-07-24T1500,1130A,126.5557,45.8109,哈尔滨市,松北商大,,30,NA,33,19,22,96,96,69,69,7,18,6,6,0.5,0.6
2026-07-24T1500,1132A,126.6162,45.719,哈尔滨市,南岗学府路,,33,33,40,11,15,94,94,80,80,8,19,6,8,0.2,0.3
2026-07-24T1500,1133A,126.6894,45.7733,哈尔滨市,太平宏伟公园,,29,11,43,7,20,92,92,76,76,10,30,6,7,0.3,0.4
2026-07-24T1500,1134A,126.6361,45.7672,哈尔滨市,道外承德广场,,46,46,56,12,21,89,89,71,71,12,33,4,5,0.3,0.6
2026-07-24T1500,1136A,126.644,45.7261,哈尔滨市,动力和平路,颗粒物(PM10),51,51,36,14,15,96,96,80,80,13,23,3,4,0.3,0.4
2026-07-24T1500,1137A,126.5933,45.7479,哈尔滨市,道里建国路,NA,NA,NA,45,16,25,100,100,76,76,2,25,4,4,0.4,0.8
2026-07-24T1500,1138A,126.6127,45.6119,哈尔滨市,平房东轻厂,,26,19,22,10,13,83,83,77,77,4,11,6,7,0.5,0.6
2026-07-24T1500,1139A,126.5875,45.9827,哈尔滨市,呼兰师专,,27,17,36,15,14,86,86,57,57,10,27,8,8,0.1,0.3
2026-07-24T1500,1140A,126.6299,45.6799,哈尔滨市,省农科院,,39,39,49,14,17,78,78,74,74,18,35,4,5,0.4,0.5
2026-07-24T1500,4282A,126.6769,45.7379,哈尔滨市,华山路1号,,33,17,32,11,25,104,104,90,90,8,19,6,8,0.3,0.4
2026-07-24T1500,4283A,126.9717,45.5356,哈尔滨市,解放大街52号,,22,20,33,3,8,69,69,78,78,12,15,6,4,0.6,0.7
2026-07-24T1500,2688A,93.5124,42.8176,哈密市,地区监测站,,40,28,42,12,14,126,126,102,102,3,10,8,4,0.1,0.1
2026-07-24T1500,2689A,93.5014,42.8312,哈密市,哈密师范学校,,36,11,48,8,15,114,114,86,86,5,14,2,2,0.1,0.2
2026-07-24T1500,2671A,100.9016,36.9464,海北藏族自治州,海晏县西海镇,臭氧1小时(O3_1h),57,17,22,6,13,165,165,128,128,1,3,7,8,0.3,0.4
2026-07-24T1500,3867A,102.074,36.5056,海东市,平安区公安局北苑,臭氧1小时(O3_1h),54,23,32,3,14,163,163,124,124,3,7,11,11,0.4,0.5
2026-07-24T1500,4163A,102.0984,36.5119,海东市,滨河路,,49,NA,23,6,14,156,156,114,114,10,34,6,9,0.4,0.5
2026-07-24T1500,1410A,110.3189,20.0596,海口市,海南大学,,35,35,36,17,18,69,69,74,74,1,3,5,5,0.4,0.4
2026-07-24T1500,1411A,110.2827,20.0051,海口市,秀英海南医院,,28,28,29,17,19,73,73,70,70,2,13,5,5,0.3,0.3
2026-07-24T1500,1412A,110.3391,19.9979,海口市,海南师范大学,,37,37,33,17,19,69,69,71,71,2,3,3,3,0.4,0.4
2026-07-24T1500,1413A,110.3303,20.0359,海口市,龙华路环保局宿舍,,35,35,33,18,20,69,69,74,74,2,4,/,/,0.3,0.3
2026-07-24T1500,3539A,110.5111,19.9737,海口市,桂林洋子站,,35,35,37,18,19,58,58,65,65,8,6,/,/,/,/
2026-07-24T1500,4134A,110.1952,20.0451,海口市,长滨二路9号,,34,34,34,22,19,71,71,71,71,2,3,/,/,/,/
2026-07-24T1500,2673A,100.6158,36.2985,海南藏族自治州,共和县恰卜恰镇,,43,7,24,3,11,137,137,112,112,2,6,8,10,0.5,0.4
2026-07-24T1500,2676A,97.373,37.376,海西蒙古族藏族自治州,德令哈市,,43,15,21,7,8,135,135,128,128,3,2,11,11,0.5,0.4
2026-07-24T1500,1049A,114.492,36.5712,邯郸市,矿院,,49,15,23,6,19,156,156,129,129,2,7,1,5,0.3,0.9
2026-07-24T1500,1050A,114.4839,36.6136,邯郸市,丛台公园,,47,16,21,12,13,149,149,117,117,2,7,4,6,0.3,0.7
2026-07-24T1500,3458A,114.7893,36.5592,邯郸市,香泉濮院小区,,44,NA,10,13,15,139,139,119,119,3,7,3,3,0.4,0.5
2026-07-24T1500,3580A,114.1998,36.4439,邯郸市,峰峰矿区临水派出所,,50,38,33,32,22,157,157,103,103,5,8,2,5,0.3,0.9
2026-07-24T1500,4068A,114.5209,36.7697,邯郸市,建安街268号,,40,21,25,3,11,125,125,102,102,2,10,1,2,0.2,0.3
2026-07-24T1500,4069A,114.5488,36.6177,邯郸市,丛台东路558号,,43,27,24,3,12,137,137,107,107,2,9,3,4,0.2,0.6
2026-07-24T1500,2635A,107.0155,33.0707,汉中市,市监测站,,41,40,35,16,17,130,130,107,107,4,8,4,4,0.3,0.4
2026-07-24T1500,2636A,107.0083,33.114,汉中市,鑫源开发区,颗粒物(PM10),55,56,34,7,15,129,129,104,104,5,10,5,6,0.7,0.6
2026-07-24T1500,2637A,107.0072,33.0323,汉中市,南郑大河坎水厂,,40,32,33,15,20,128,128,96,96,5,11,4,3,0.5,0.5
2026-07-24T1500,1223A,120.2073,30.2111,杭州市,滨江,NA,NA,36,46,20,24,134,134,118,118,7,27,NA,5,0.4,0.5
2026-07-24T1500,1224A,120.0625,30.2737,杭州市,西溪,,30,24,26,16,21,93,93,88,88,2,14,4,5,0.7,0.7
2026-07-24T1500,1226A,120.3417,30.315,杭州市,下沙,,45,33,44,25,26,144,144,127,127,6,19,4,4,0.7,0.8
2026-07-24T1500,1227A,120.1252,30.2465,杭州市,卧龙桥,,39,33,33,16,24,122,122,111,111,4,12,6,5,0.6,0.7
2026-07-24T1500,1228A,120.1902,30.2691,杭州市,浙江农大,,38,29,41,19,26,121,121,103,103,7,27,7,7,0.4,0.5
2026-07-24T1500,1230A,120.1195,30.3121,杭州市,和睦小学,,41,41,25,19,25,118,118,105,105,4,16,9,9,0.7,0.8
2026-07-24T1500,1231A,120.3076,30.4146,杭州市,临平镇,,50,37,52,20,27,158,158,136,136,3,16,6,6,0.6,0.7
2026-07-24T1500,1232A,120.2753,30.1839,杭州市,城厢镇,细颗粒物(PM2.5),52,47,42,36,27,149,149,114,114,9,22,5,5,0.4,0.6
2026-07-24T1500,1233A,120.0883,30.1808,杭州市,云栖,,40,38,38,19,22,126,126,99,99,9,18,6,5,0.7,0.8
2026-07-24T1500,3557A,119.9463,30.0496,杭州市,镇二中,,42,42,42,18,26,95,95,89,89,10,31,5,6,0.4,0.5
2026-07-24T1500,3558A,119.7184,30.2367,杭州市,市府大楼,,25,24,27,12,18,77,77,72,72,2,8,8,8,0.5,0.6
2026-07-24T1500,3656A,120.1554,30.2863,杭州市,消防大队,,34,34,38,16,25,107,107,104,104,1,14,8,8,0.6,0.7
2026-07-24T1500,1270A,117.1957,31.7845,合肥市,明珠广场,,30,27,15,12,9,96,96,97,97,4,12,7,8,0.6,0.6
2026-07-24T1500,1271A,117.307,31.8765,合肥市,三里街,NA,NA,NA,16,NA,7,NA,NA,75,75,NA,14,NA,9,NA,0.5
2026-07-24T1500,1272A,117.2587,31.8703,合肥市,琥珀山庄,,25,19,17,6,8,80,80,73,NA,12,11,7,7,0.4,0.4
2026-07-24T1500,1275A,117.2593,31.9376,合肥市,庐阳区,,26,12,16,6,8,82,82,85,85,8,14,8,9,0.4,0.4
2026-07-24T1500,1276A,117.345251,31.861615,合肥市,瑶海区,,30,17,16,10,8,96,96,79,79,4,11,3,2,0.2,0.3
2026-07-24T1500,1277A,117.3033,31.7967,合肥市,包河区,,33,27,14,18,7,105,105,82,82,4,12,9,8,0.4,0.4
2026-07-24T1500,1278A,117.278,31.7392,合肥市,滨湖新区,,36,34,13,18,8,114,114,93,93,4,8,7,7,0.7,0.6
2026-07-24T1500,1279A,117.1324,31.8395,合肥市,高新区,,26,17,18,7,8,81,81,86,86,4,12,7,7,0.5,0.6
2026-07-24T1500,3464A,117.3802,31.9148,合肥市,高教基地,,25,7,16,3,7,78,78,80,80,3,8,5,6,0.4,0.4
2026-07-24T1500,4098A,117.2518,31.8404,合肥市,中国科学技术大学,,32,14,14,3,7,100,100,103,103,4,10,10,10,0.6,0.7
2026-07-24T1500,3614A,79.9241,37.0878,和田地区,地区环保局,颗粒物(PM10),464,564,222,100,58,115,115,93,93,2,14,1,3,0.3,0.4
2026-07-24T1500,3615A,79.9132,37.1137,和田地区,市环保局,颗粒物(PM10),213,359,177,104,64,120,120,98,98,2,11,3,2,0.3,0.5
2026-07-24T1500,2517A,108.0496,24.6957,河池市,市环保站,,30,29,27,21,13,70,70,50,50,4,8,7,4,0.7,0.7
2026-07-24T1500,4302A,108.0901,24.6945,河池市,上任中路54号,,28,28,29,13,11,62,62,44,44,5,11,8,5,0.8,0.9
2026-07-24T1500,1697A,114.6962,23.7538,河源市,东埔,,50,41,39,35,26,102,102,82,82,6,10,4,6,0.3,0.3
2026-07-24T1500,1698A,114.6895,23.7232,河源市,老城,细颗粒物(PM2.5),52,NA,46,36,29,92,92,79,79,8,12,8,10,0.5,0.6
2026-07-24T1500,3374A,115.5562,35.089,菏泽市,定陶老年大学,,46,17,18,8,12,147,147,117,117,7,9,4,3,0.3,0.5
2026-07-24T1500,4114A,115.4239,35.2593,菏泽市,黄河路600号,,40,32,19,22,12,128,128,107,107,8,9,5,5,0.3,0.3
2026-07-24T1500,4115A,115.5025,35.2727,菏泽市,菏泽市人社局,,38,24,14,22,10,121,121,108,108,2,5,3,3,0.3,0.3
2026-07-24T1500,4184A,115.479691,35.244011,菏泽市,永昌路1号,,45,33,16,18,10,144,144,128,128,4,6,6,6,0.2,0.2
2026-07-24T1500,4193A,115.471542,35.280012,菏泽市,长城路999号,,39,29,14,20,10,123,123,104,104,4,6,8,8,0.5,0.5
2026-07-24T1500,2514A,111.5264,24.4178,贺州市,环保小区,,32,25,38,12,22,101,101,72,72,3,11,10,9,0.3,0.4
2026-07-24T1500,2515A,111.561,24.4074,贺州市,政协大楼,,28,26,35,14,23,89,89,74,74,5,13,12,13,0.4,0.7
2026-07-24T1500,3534A,111.4744,24.455,贺州市,西湾,,30,26,41,16,20,94,94,71,71,5,11,12,11,0.3,0.4
2026-07-24T1500,2385A,114.17,35.9019,鹤壁市,市监测站,,46,20,30,15,30,145,145,102,102,2,5,5,4,0.8,1
2026-07-24T1500,2386A,114.2953,35.7512,鹤壁市,市交警支队,,47,22,29,22,21,149,149,103,103,10,12,8,7,1.3,0.9
2026-07-24T1500,2387A,114.2877,35.7302,鹤壁市,迎宾馆,,48,27,26,12,18,153,153,111,111,6,7,3,4,1.0,0.8
2026-07-24T1500,3474A,114.2616,35.6824,鹤壁市,大新区,,46,NA,22,26,20,147,147,114,114,2,3,4,3,0.8,0.8
2026-07-24T1500,3596A,114.1573,35.9607,鹤壁市,南山宾馆,,50,NA,21,35,36,143,143,103,103,6,7,11,11,0.7,0.8
2026-07-24T1500,2244A,130.2537,47.3416,鹤岗市,哈啤分公司,,26,11,19,10,6,82,82,62,62,7,8,4,4,0.1,0.2
2026-07-24T1500,2245A,130.2683,47.3087,鹤岗市,斯达机电,,24,18,20,8,13,75,75,55,55,11,13,6,6,0.3,0.2
2026-07-24T1500,2246A,130.3114,47.3388,鹤岗市,东山纸板厂,,24,9,18,9,9,75,75,56,56,10,14,5,5,0.2,0.3
2026-07-24T1500,2263A,127.4832,50.2524,黑河市,交通局,NA,NA,0,19,NA,10,100,100,65,65,5,8,7,6,0.2,0.2
2026-07-24T1500,2264A,127.5146,50.2339,黑河市,环保局,,29,26,20,16,12,91,91,61,61,8,9,9,8,0.3,0.3
2026-07-24T1500,1074A,115.6839,37.754,衡水市,电机北厂,,42,35,36,22,20,134,134,106,106,4,9,2,3,0.6,0.4
2026-07-24T1500,1075A,115.6303,37.7318,衡水市,市监测站,,48,48,34,22,14,137,137,112,112,3,6,4,3,0.7,0.6
2026-07-24T1500,3188A,115.6684,37.7216,衡水市,市城管局,,42,37,29,25,19,133,133,112,112,3,6,4,4,0.6,0.4
2026-07-24T1500,3459A,115.599,37.5491,衡水市,地表水厂,,43,23,22,17,10,136,136,114,114,5,7,4,5,0.3,0.2
2026-07-24T1500,2457A,112.6209,26.9268,衡阳市,衡阳化工总厂,,36,36,31,20,16,96,96,75,75,3,7,5,6,0.5,0.6
2026-07-24T1500,2458A,112.621,26.8957,衡阳市,珠晖区环保局,NA,NA,NA,30,NA,13,NA,NA,82,81,NA,7,NA,9,NA,0.7
2026-07-24T1500,2459A,112.628,26.8654,衡阳市,市委党校,,35,35,29,14,17,95,95,78,78,1,6,5,5,0.3,0.3
2026-07-24T1500,2460A,112.6007,26.8977,衡阳市,市监测站,,32,24,30,11,14,102,102,80,80,3,6,1,4,0.6,0.7
2026-07-24T1500,2461A,112.5658,26.9013,衡阳市,真空机电公司,,29,26,28,16,17,92,92,71,71,4,11,7,14,0.7,1.3
2026-07-24T1500,3399A,112.6703,26.8817,衡阳市,师范学院,,31,21,33,20,17,99,99,80,80,2,4,10,10,0.5,0.5
2026-07-24T1500,3038A,103.3757,23.3679,红河哈尼族彝族自治州,州图书馆,,26,11,17,11,11,81,81,69,69,2,3,3,4,0.3,0.3
2026-07-24T1500,4154A,103.401,23.3561,红河哈尼族彝族自治州,蒙自市朝阳路,,25,12,12,7,8,79,79,67,67,2,4,6,6,0.3,0.3
2026-07-24T1500,1090A,111.6506,40.7517,呼和浩特市,呼市一监,臭氧1小时(O3_1h),63,17,19,3,8,170,170,140,140,4,12,9,8,0.3,0.5
2026-07-24T1500,1094A,111.7516,40.8369,呼和浩特市,如意水处理厂,臭氧1小时(O3_1h),69,14,21,8,12,175,175,139,139,4,18,6,6,0.3,0.5
2026-07-24T1500,1095A,111.727798,40.806187,呼和浩特市,二十九中,臭氧1小时(O3_1h),70,15,22,12,11,176,176,139,139,2,10,10,10,0.3,0.7
2026-07-24T1500,1097A,111.717,40.7617,呼和浩特市,化肥厂生活区,臭氧1小时(O3_1h),70,21,21,12,15,176,176,142,142,6,13,13,13,0.4,0.9
2026-07-24T1500,3699A,111.6519,40.8389,呼和浩特市,海东办,臭氧1小时(O3_1h),77,17,21,6,6,181,181,146,146,7,18,8,7,0.3,0.3
2026-07-24T1500,4275A,111.591512,40.827312,呼和浩特市,成吉思汗西街8号,臭氧1小时(O3_1h),67,19,26,6,9,173,173,141,141,11,29,8,5,0.4,0.4
2026-07-24T1500,4276A,111.6597,40.8077,呼和浩特市,公园东路75号,,48,19,19,3,8,151,151,129,129,7,15,14,13,0.4,0.6
2026-07-24T1500,4277A,111.5427,40.7846,呼和浩特市,金海路35号,,49,18,27,13,10,155,155,131,131,8,19,11,5,0.5,0.5
2026-07-24T1500,3061A,119.7511,49.1576,呼伦贝尔市,国华电力东,,38,17,18,9,11,121,121,102,102,6,7,5,5,0.3,0.3
2026-07-24T1500,4279A,119.7569,49.2222,呼伦贝尔市,伊敏大街东7号,,32,NA,19,14,10,102,102,88,88,9,12,6,6,0.3,0.3
2026-07-24T1500,1250A,120.075,30.867,湖州市,城西水厂,,48,33,38,21,25,152,152,124,124,8,20,5,6,0.4,0.5
2026-07-24T1500,2873A,120.083,30.8929,湖州市,仁皇山新区,臭氧1小时(O3_1h),55,42,38,30,24,164,164,118,118,8,25,5,6,0.5,0.6
2026-07-24T1500,2907A,120.1846,30.8592,湖州市,吴兴区站,,49,33,37,28,12,154,154,127,127,5,14,6,6,0.6,0.6
2026-07-24T1500,3562A,120.4146,30.8538,湖州市,南浔区站,,41,41,45,21,32,126,126,117,117,4,14,4,5,0.4,0.5
2026-07-24T1500,1607A,120.904878,40.721091,葫芦岛市,龙港区,,35,28,26,14,18,109,109,96,96,4,6,3,3,0.4,0.4
2026-07-24T1500,1608A,120.8382,40.7521,葫芦岛市,化工街,,32,17,24,11,18,100,100,88,88,8,13,4,5,0.4,0.4
2026-07-24T1500,1609A,120.8339,40.7078,葫芦岛市,新区,,34,31,26,17,17,106,106,92,92,2,4,2,2,0.6,0.6
2026-07-24T1500,1610A,120.8697,40.7679,葫芦岛市,东城区,,35,26,27,14,20,111,111,97,97,5,13,1,1,0.4,0.4
2026-07-24T1500,2483A,109.9297,27.5383,怀化市,河西地税局,,20,19,23,9,13,64,64,57,57,3,5,6,6,/,/
2026-07-24T1500,2484A,109.9783,27.5342,怀化市,市四医院,,22,14,24,6,14,70,70,60,60,5,8,5,5,0.3,0.3
2026-07-24T1500,2485A,109.9971,27.5579,怀化市,监测楼,,25,25,23,10,15,76,76,66,66,5,7,6,6,0.2,0.3
2026-07-24T1500,1210A,119.0566,33.5991,淮安市,钵池山,,34,24,22,7,12,107,107,85,85,4,11,2,2,0.9,0.9
2026-07-24T1500,1211A,119.0083,33.578,淮安市,北京南路,,35,27,19,9,14,111,111,90,90,2,9,5,4,1.0,0.9
2026-07-24T1500,1212A,118.9938,33.6083,淮安市,市监测站,,36,17,10,11,12,113,113,89,89,5,12,6,7,0.9,1
2026-07-24T1500,1213A,119.135,33.5038,淮安市,楚州区监测站,,36,22,13,10,12,115,115,88,88,2,10,4,4,0.9,0.9
2026-07-24T1500,3426A,118.8757,33.2897,淮安市,新华书店,,35,20,19,11,11,109,109,86,86,2,6,7,7,1.1,1.2
2026-07-24T1500,4092A,119.119691,33.550006,淮安市,枚皋中路89号,,37,36,20,9,11,118,118,96,96,3,12,8,8,0.9,0.9
2026-07-24T1500,4206A,119.028838,33.631911,淮安市,承德北路606号,,35,22,17,9,11,111,111,85,85,2,8,6,6,0.8,0.7
2026-07-24T1500,2282A,116.8005,33.9749,淮北市,监测站,,44,16,19,6,6,140,140,110,110,3,8,6,7,0.5,0.5
2026-07-24T1500,2283A,116.8094,33.9008,淮北市,烈山区政府,,42,11,14,3,6,134,134,109,109,2,10,5,4,0.4,0.5
2026-07-24T1500,4017A,116.7926,33.9534,淮北市,市博物馆,,45,16,14,9,8,141,141,116,116,2,7,4,3,0.3,0.3
2026-07-24T1500,4100A,116.8322,33.9884,淮北市,杜集区第一实验学校,,44,31,28,3,6,138,138,110,110,4,9,4,5,0.6,0.6
2026-07-24T1500,2277A,116.8304,32.7726,淮南市,潘集区政府,,40,NA,12,8,8,127,127,94,94,10,11,6,5,0.3,0.3
2026-07-24T1500,2279A,116.8569,32.5949,淮南市,谢家集区政府,NA,NA,NA,10,NA,9,120,120,95,95,4,10,7,7,NA,0.1
2026-07-24T1500,2280A,116.8279,32.6333,淮南市,八公山区政府,,35,18,17,6,8,112,112,88,88,4,7,4,5,0.1,0.2
2026-07-24T1500,2894A,117.0561,32.6536,淮南市,经济技术开发区消防队,,35,10,10,10,8,111,111,98,98,4,7,8,8,0.5,0.5
2026-07-24T1500,3329A,117.011,32.5891,淮南市,山南新区,NA,NA,NA,6,8,8,104,104,92,92,4,8,NA,12,0.2,0.2
2026-07-24T1500,4209A,117.003137,32.644456,淮南市,国庆中路369号,,34,22,16,9,8,107,107,89,89,10,11,11,12,0.2,0.2
2026-07-24T1500,2446A,114.9021,30.474,黄冈市,职工中心,,43,25,27,15,13,135,135,94,94,7,11,11,11,0.4,0.5
2026-07-24T1500,2929A,114.8858,30.4519,黄冈市,红卫路,,30,19,23,12,17,95,95,80,80,2,5,6,6,0.3,0.3
2026-07-24T1500,3398A,114.9134,30.4446,黄冈市,市林业局,,40,35,29,16,14,126,126,95,95,7,12,4,5,0.5,0.5
2026-07-24T1500,2672A,102.02,35.5101,黄南藏族自治州,同仁县隆务镇,臭氧1小时(O3_1h),57,NA,16,9,11,165,165,135,135,1,2,8,8,0.1,0.2
2026-07-24T1500,2295A,118.2905,29.6965,黄山市,延安路89号,,25,25,29,12,18,70,70,67,67,2,6,3,2,0.3,0.4
2026-07-24T1500,2297A,118.1369,30.2755,黄山市,黄山区政府5号楼,,23,20,29,9,16,72,72,56,56,2,4,4,3,0.6,0.7
2026-07-24T1500,4210A,118.335445,29.720283,黄山市,滨江东路7-2号,,28,28,34,12,15,67,67,56,56,1,3,/,/,/,/
2026-07-24T1500,2423A,115.0547,30.2332,黄石市,沈家营,,44,44,49,14,14,70,70,60,60,2,14,4,4,0.5,0.8
2026-07-24T1500,2426A,114.899,30.211,黄石市,铁山,,27,24,29,10,13,86,86,80,80,4,10,4,4,0.4,0.6
2026-07-24T1500,2427A,115.0259,30.2108,黄石市,团城山,,26,26,41,12,14,81,81,69,69,1,9,4,4,0.7,1
2026-07-24T1500,3149A,115.0174,30.1591,黄石市,笔架山北路,,26,26,50,12,14,79,79,69,69,2,8,4,7,0.4,0.6
2026-07-24T1500,4185A,115.078022,30.21118,黄石市,磁湖东路29号,,29,29,43,9,16,76,76,62,62,6,20,4,12,0.5,0.9
2026-07-24T1500,1392A,114.4181,23.0528,惠州市,河南岸金山湖子站,,41,41,40,24,21,112,112,84,84,7,12,7,7,0.4,0.5
2026-07-24T1500,1393A,114.4055,23.0824,惠州市,下埔横江三路子站,,42,42,51,18,23,131,131,94,94,6,12,6,6,0.4,0.5
2026-07-24T1500,1395A,114.4645,22.7832,惠州市,惠阳区承修路船湖子站,,42,42,44,27,21,111,111,88,88,5,8,5,4,0.7,0.7
2026-07-24T1500,1396A,114.5316,22.7423,惠州市,大亚湾管委会子站,臭氧1小时(O3_1h),53,52,38,27,19,162,162,93,93,13,11,8,8,0.6,0.6
2026-07-24T1500,3314A,114.4334,22.8134,惠州市,惠阳秋长,,39,36,39,22,20,124,124,87,87,4,9,/,/,/,/
2026-07-24T1500,3452A,114.6521,22.7755,惠州市,大亚湾霞涌,,50,50,36,23,19,160,160,94,94,9,6,/,/,/,/
2026-07-24T1500,4300A,114.4089,23.1147,惠州市,文华一路1号,,47,38,43,24,22,150,150,100,100,4,9,/,/,/,/
2026-07-24T1500,2240A,130.9618,45.2926,鸡西市,环保局,,25,12,18,3,14,79,79,76,76,8,16,10,10,0.4,0.5
2026-07-24T1500,2243A,130.9294,45.2959,鸡西市,第一中学,,30,NA,18,16,16,95,95,93,93,4,14,4,5,0.2,0.3
2026-07-24T1500,3707A,131.0069,45.2988,鸡西市,欧美日汽修厂,,26,NA,19,7,10,83,83,82,82,5,16,3,3,0.5,0.5
2026-07-24T1500,2367A,114.9753,27.0803,吉安市,红声器材厂,,48,32,34,26,17,153,153,108,108,4,10,8,8,0.2,0.3
2026-07-24T1500,2369A,114.9903,27.1313,吉安市,市环境监测站,,50,40,35,18,15,157,157,111,111,4,9,8,8,/,/
2026-07-24T1500,2370A,115.009527,27.096792,吉安市,青原区法院,,50,42,36,18,14,159,159,111,111,6,10,8,8,0.3,0.3
2026-07-24T1500,1772A,126.54,43.8622,吉林市,哈达湾,,34,22,22,14,16,107,107,99,99,5,10,6,6,0.4,0.5
2026-07-24T1500,1773A,126.5843,43.8358,吉林市,东局子,,28,22,20,15,13,88,88,77,77,10,8,4,4,0.4,0.3
2026-07-24T1500,1774A,126.5051,43.8243,吉林市,电力学院,,36,22,28,12,16,113,113,99,99,4,8,4,5,0.4,0.4
2026-07-24T1500,1775A,126.6133,43.8971,吉林市,江北,,30,24,26,14,15,95,95,80,80,7,9,6,6,0.5,0.5
2026-07-24T1500,1776A,126.5549,43.8304,吉林市,江南公园,,33,23,23,14,16,105,105,90,90,5,8,3,3,0.3,0.2
2026-07-24T1500,2868A,126.4737,43.953,吉林市,九站,,36,24,28,12,17,114,114,96,96,6,15,3,3,0.6,0.6
2026-07-24T1500,1299A,116.9866,36.6118,济南市,科干所,,38,14,21,3,12,119,119,102,87,8,12,4,4,0.7,0.7
2026-07-24T1500,1300A,116.9379,36.6652,济南市,农科所,,38,15,19,3,14,121,121,93,77,7,11,4,4,0.3,0.3
2026-07-24T1500,1301A,117.1265,36.6736,济南市,开发区,,38,10,20,3,13,119,119,95,92,5,10,6,6,0.6,0.7
2026-07-24T1500,1303A,117.0616,36.6865,济南市,省种子仓库,,40,22,24,10,15,126,126,103,95,14,14,5,6,0.2,0.2
2026-07-24T1500,1304A,116.9495185,36.644937,济南市,机床二厂,,41,7,23,3,13,129,129,103,96,6,9,6,6,0.4,0.4
2026-07-24T1500,1305A,117.0496,36.6629,济南市,市监测站,,40,20,21,6,13,125,125,103,92,11,14,4,4,0.5,0.6
2026-07-24T1500,1306A,116.7674,36.5458,济南市,长清党校,,39,17,18,3,12,124,124,106,92,6,10,4,4,0.3,0.3
2026-07-24T1500,1961A,117.5323,36.6865,济南市,东山小学,,34,15,22,9,8,108,108,100,85,9,11,3,3,0.4,0.5
2026-07-24T1500,3059A,117.7181,36.205,济南市,泰兴公司,,29,17,21,6,10,92,92,89,88,13,11,9,7,1.3,0.4
2026-07-24T1500,3064A,117.6861,36.2172,济南市,莱芜战役纪念馆,,31,22,19,8,9,97,97,98,84,13,11,6,4,1.2,0.3
2026-07-24T1500,3494A,117.1673,36.9782,济南市,济阳区政府,,43,39,27,30,19,130,130,115,115,14,14,5,5,0.4,0.4
2026-07-24T1500,3495A,117.1168,36.6299,济南市,锦屏中学,,29,7,20,3,12,92,92,88,74,1,5,3,3,0.3,0.3
2026-07-24T1500,4108A,117.7107,36.2385,济南市,山财大街5号,,36,6,13,3,9,114,114,108,93,3,8,4,4,0.8,0.8
2026-07-24T1500,4109A,116.9744,36.6889,济南市,无影山路12号,,36,12,17,9,15,115,115,94,87,12,15,4,4,0.5,0.6
2026-07-24T1500,1653A,116.6229,35.4288,济宁市,火炬城,,45,37,28,14,14,144,144,99,78,8,10,4,4,0.6,0.6
2026-07-24T1500,3500A,116.5808,35.3703,济宁市,北湖一中,,46,46,28,18,15,135,135,92,77,8,9,4,4,0.3,0.4
2026-07-24T1500,3501A,116.8251,35.5592,济宁市,服务中心,,48,38,23,33,10,115,115,95,79,7,8,1,1,0.3,0.3
2026-07-24T1500,3678A,116.5907,35.4054,济宁市,市第七中学,,46,42,27,19,14,147,147,98,79,5,8,5,5,0.4,0.4
2026-07-24T1500,4111A,116.6075,35.4566,济宁市,任和路,,45,38,24,23,14,141,141,88,75,5,6,4,3,0.5,0.5
2026-07-24T1500,4112A,116.5648,35.3921,济宁市,文体南路1号,颗粒物(PM10),51,51,22,11,15,133,133,86,69,5,7,2,2,0.2,0.3
2026-07-24T1500,4122A,112.6071,35.1015,济源市,市委党校,,29,19,31,10,14,90,90,74,74,8,13,2,2,0.6,0.6
2026-07-24T1500,4123A,112.596,35.0702,济源市,沁园中路1号,,41,36,30,28,15,131,131,104,104,7,12,2,4,0.6,0.6
2026-07-24T1500,2255A,130.2749,46.8028,佳木斯市,佳纺,,32,32,38,11,8,67,67,54,54,12,16,3,3,0.3,0.3
2026-07-24T1500,2257A,130.3258,46.7975,佳木斯市,环保局,,24,24,33,15,11,69,69,46,46,13,21,3,3,0.4,0.4
2026-07-24T1500,4285A,130.363,46.806,佳木斯市,顺和街,,27,19,23,8,9,84,84,60,60,5,13,2,3,0.3,0.3
2026-07-24T1500,4286A,130.3952,46.8268,佳木斯市,长安路196号,,28,27,37,13,10,89,89,63,63,7,14,5,4,0.3,0.3
2026-07-24T1500,1252A,120.7439,30.778,嘉兴市,清河小学,臭氧1小时(O3_1h),75,65,55,39,26,180,180,136,136,14,16,6,6,0.5,0.5
2026-07-24T1500,1253A,120.7261,30.7477,嘉兴市,嘉兴学院,臭氧1小时(O3_1h),101,53,41,35,26,202,202,141,141,12,15,2,2,0.6,0.6
2026-07-24T1500,2872A,120.7845,30.7524,嘉兴市,南湖区残联,臭氧1小时(O3_1h),95,64,49,34,27,196,196,142,142,4,9,6,5,0.8,0.8
2026-07-24T1500,3407A,120.6915,30.7741,嘉兴市,秀洲住建,臭氧1小时(O3_1h),88,59,46,39,27,190,190,140,140,8,11,4,4,0.4,0.4
2026-07-24T1500,1945A,98.291,39.7705,嘉峪关市,气象局,颗粒物(PM10),63,68,97,30,39,154,154,118,118,5,12,3,6,0.6,0.7
2026-07-24T1500,2884A,98.2672,39.7978,嘉峪关市,酒钢宾馆,NA,NA,70,102,31,40,150,150,118,118,7,20,8,18,NA,1.2
2026-07-24T1500,3248A,98.2644,39.7723,嘉峪关市,雄关区,颗粒物(PM10),60,63,86,27,39,152,152,113,113,6,14,5,8,0.4,0.5
2026-07-24T1500,1383A,113.1063,22.6058,江门市,北街,,47,44,37,21,20,150,150,97,97,7,7,/,/,/,/
2026-07-24T1500,1384A,113.073,22.5835,江门市,西区,,50,42,42,22,22,157,157,98,98,9,12,/,/,/,/
2026-07-24T1500,1385A,113.0218,22.531,江门市,圭峰西,颗粒物(PM10),52,52,37,22,20,132,132,83,83,11,9,/,/,/,/
2026-07-24T1500,1386A,113.0826,22.5947,江门市,东湖,NA,NA,NA,NA,NA,NA,NA,NA,NA,NA,NA,NA,NA,NA,NA,NA
2026-07-24T1500,3311A,113.1077,22.5647,江门市,江海富民,臭氧1小时(O3_1h),54,46,49,24,21,163,163,101,101,18,13,/,/,0.3,0.3
2026-07-24T1500,3449A,113.0496,22.4669,江门市,新会银湖,,36,31,35,16,20,113,113,80,80,7,13,4,2,0.4,0.5
2026-07-24T1500,3335A,113.3137,35.2643,焦作市,马村街道办,,46,29,27,28,15,146,146,105,105,7,9,7,6,0.5,0.3
2026-07-24T1500,3336A,113.2464,35.2374,焦作市,焦作技师学院,,48,44,29,28,15,152,152,112,112,4,6,9,7,0.8,0.5
2026-07-24T1500,3477A,113.1656,35.2536,焦作市,中站许衡医院,,45,28,26,20,13,144,144,117,117,5,7,9,7,0.6,0.4
2026-07-24T1500,3981A,113.2456,35.18,焦作市,原李万街道办,,49,NA,26,25,17,156,156,108,108,3,7,6,6,0.8,0.5
2026-07-24T1500,4264A,113.234,35.219,焦作市,新安路1731号,,48,29,30,24,17,151,151,107,107,8,10,8,8,0.7,0.4
2026-07-24T1500,4295A,113.2722,35.2121,焦作市,人民路3066号,,46,NA,27,27,17,145,145,98,98,4,8,7,8,1.0,0.8
2026-07-24T1500,1708A,116.3701,23.5345,揭阳市,新兴,,41,41,47,25,25,103,103,86,86,6,9,6,6,0.5,0.5
2026-07-24T1500,1709A,116.3261,23.5442,揭阳市,西马,,40,40,51,18,24,92,92,81,81,3,8,4,5,0.6,0.7
2026-07-24T1500,1710A,116.361,23.5627,揭阳市,东兴,,42,42,46,24,25,99,99,98,98,8,11,4,5,/,/
2026-07-24T1500,1711A,116.4151,23.5295,揭阳市,渔湖,,44,44,48,23,25,111,111,96,96,4,8,3,3,/,/
2026-07-24T1500,3320A,116.4028,23.5699,揭阳市,曲溪,,36,36,43,23,27,111,111,100,100,4,9,10,13,0.4,0.5
2026-07-24T1500,1944A,102.1691,38.5166,金昌市,天庆家园,臭氧1小时(O3_1h),53,44,55,19,19,162,162,143,143,6,10,20,9,0.2,0.2
2026-07-24T1500,4022A,102.1648,38.5369,金昌市,金川区人防中心,臭氧1小时(O3_1h),68,41,46,12,18,174,174,155,155,6,9,8,6,0.3,0.3
2026-07-24T1500,4239A,102.193042,38.531887,金昌市,长春路96号,,50,46,56,13,16,159,159,142,142,11,13,7,6,0.4,0.4
2026-07-24T1500,1262A,119.6478,29.0773,金华市,十五中,,38,38,42,20,23,118,118,105,105,5,8,2,2,0.3,0.4
2026-07-24T1500,1263A,119.6859,29.1032,金华市,监测站,,42,41,41,20,17,132,132,113,113,4,8,2,2,0.5,0.5
2026-07-24T1500,3659A,119.656,29.1132,金华市,气象局,,49,49,44,23,24,134,134,109,109,4,10,3,3,0.5,0.5
2026-07-24T1500,1767A,121.1114,41.0879,锦州市,南山,,27,9,26,3,18,85,85,74,74,3,13,3,2,0.3,0.3
2026-07-24T1500,1768A,121.060361,40.842794,锦州市,开发区,NA,NA,43,34,12,19,110,110,105,105,14,16,NA,6,NA,0.5
2026-07-24T1500,1769A,121.1836,41.1118,锦州市,百股街道,,32,18,24,3,20,101,101,89,89,2,5,2,2,0.4,0.5
2026-07-24T1500,1770A,121.1176,41.1224,锦州市,天安街道,,29,12,27,3,20,92,92,80,79,7,13,3,4,0.3,0.4
2026-07-24T1500,1771A,121.1303,41.1385,锦州市,北湖公园,,28,24,27,6,20,87,87,76,74,3,9,3,3,0.4,0.5
2026-07-24T1500,2160A,112.8496,35.5051,晋城市,自来水公司,,43,13,31,3,11,137,137,106,106,4,10,4,4,0.5,0.7
2026-07-24T1500,2162A,112.8509,35.4886,晋城市,市环保局,,40,18,39,11,16,127,127,99,99,4,9,4,5,0.6,0.7
2026-07-24T1500,3620A,112.8258,35.4804,晋城市,泽州一中,,41,24,29,10,14,130,130,106,106,5,10,4,4,0.5,0.7
2026-07-24T1500,4078A,112.8246,35.5152,晋城市,前书院路,,42,32,31,11,12,132,132,103,103,3,7,5,5,0.7,1
2026-07-24T1500,4079A,112.8864,35.4773,晋城市,祥云街666号,,40,17,24,10,13,125,125,93,93,4,8,5,5,0.7,0.7
2026-07-24T1500,2174A,112.6992,37.6984,晋中市,榆次区政府,,49,22,30,17,22,155,155,133,133,2,3,6,6,0.5,0.3
2026-07-24T1500,2865A,112.7195,37.683,晋中市,榆次三中,,50,NA,28,29,22,157,157,134,134,2,7,10,10,0.2,0.3
2026-07-24T1500,4080A,112.7375,37.7215,晋中市,广安街188号,臭氧1小时(O3_1h),55,40,34,21,20,164,164,136,136,2,8,10,10,0.2,0.2
2026-07-24T1500,4200A,112.7478,37.6954,晋中市,迎宾街26号,,50,24,29,19,21,157,157,128,128,4,9,7,6,0.4,0.4
2026-07-24T1500,2439A,112.2012,31.048,荆门市,竹园小学,,38,30,26,14,17,119,119,97,97,6,8,3,4,0.8,0.8
2026-07-24T1500,2440A,112.1968,30.9892,荆门市,掇刀,,36,27,23,7,15,113,113,94,94,5,7,6,6,0.7,0.6
2026-07-24T1500,3012A,112.1849,31.0361,荆门市,西山林语,,40,40,26,16,15,115,115,85,85,4,6,8,7,0.7,0.8
2026-07-24T1500,3547A,112.1631,31.0134,荆门市,龙泉中学南校,,37,25,25,13,13,117,117,92,92,5,7,7,6,0.8,0.7
2026-07-24T1500,4124A,112.2213,31.0654,荆门市,新台西路6号,,40,23,29,14,18,127,127,100,100,6,10,8,7,0.7,0.8
2026-07-24T1500,1844A,112.2493,30.3198,荆州市,市图书馆,,33,22,27,13,15,105,105,98,98,4,10,4,5,0.4,0.4
2026-07-24T1500,1845A,112.2009,30.3543,荆州市,市委党校,,32,21,22,21,13,100,100,90,90,3,7,5,6,0.5,0.5
2026-07-24T1500,3194A,112.2749,30.3124,荆州市,管委会,,29,19,19,12,14,91,91,91,91,3,8,4,5,0.4,0.4
2026-07-24T1500,4268A,112.1722,30.3366,荆州市,学苑路85号,,32,18,22,16,13,102,102,89,89,2,7,16,12,0.3,0.5
2026-07-24T1500,2343A,117.2114,29.2931,景德镇市,老干部活动中心,,33,32,32,21,20,104,104,82,82,8,12,9,6,0.8,0.8
2026-07-24T1500,2344A,117.1893,29.2789,景德镇市,兽医站,,46,46,41,21,19,99,99,76,76,5,8,4,4,0.6,0.7
2026-07-24T1500,2346A,117.246,29.2958,景德镇市,陶研所,细颗粒物(PM2.5),52,40,36,36,23,96,96,83,83,4,10,4,4,0.5,0.5
2026-07-24T1500,4289A,117.154766,29.256967,景德镇市,青少年活动中心,,46,46,40,21,23,81,81,61,61,7,18,17,20,/,/
2026-07-24T1500,1803A,115.9873,29.6816,九江市,十里,,41,41,40,17,20,117,117,82,82,5,24,4,8,0.1,0.2
2026-07-24T1500,1804A,115.9583,29.7047,九江市,茅山头,,34,16,31,11,23,108,108,78,78,5,24,4,4,0.5,0.6
2026-07-24T1500,1805A,115.9877,29.7295,九江市,西园,,37,36,33,13,19,117,117,76,76,16,34,4,4,0.4,0.5
2026-07-24T1500,1808A,115.9112,29.6038,九江市,综合工业园,,32,20,32,16,20,102,102,79,79,10,23,3,3,0.6,0.4
2026-07-24T1500,3190A,116.0254,29.6995,九江市,外国语学校,,41,27,30,22,22,129,129,80,80,4,19,8,9,0.5,0.5
2026-07-24T1500,4253A,116.010205,29.659402,九江市,莲花大道8号,,35,NA,18,23,17,110,110,72,72,4,8,5,5,0.6,0.6
2026-07-24T1500,4240A,98.495752,39.733935,酒泉市,玉门东路5号,颗粒物(PM10),62,66,100,26,44,148,148,119,119,4,8,8,7,0.3,0.3
2026-07-24T1500,4241A,98.5099,39.7506,酒泉市,北大街108号,颗粒物(PM10),62,66,102,24,45,154,154,124,124,4,6,12,12,0.3,0.3
2026-07-24T1500,2698A,76.0071,39.466,喀什地区,巡警大队,颗粒物(PM10),68,74,66,23,23,133,133,117,113,6,14,4,5,0.2,0.2
2026-07-24T1500,2699A,75.9756,39.4693,喀什地区,吾办,颗粒物(PM10),61,65,70,24,21,123,123,109,103,5,8,3,4,0.3,0.3
2026-07-24T1500,4027A,75.9485,39.4688,喀什地区,老干局,细颗粒物(PM2.5),111,NA,68,72,26,126,126,105,93,5,10,4,4,0.3,0.3
2026-07-24T1500,1824A,114.3389,34.778,开封市,肿瘤医院,,46,32,19,30,12,147,147,116,116,12,14,24,7,0.6,0.6
2026-07-24T1500,1826A,114.2884,34.7966,开封市,世纪星幼儿园,,50,20,17,18,15,158,158,122,122,8,11,4,5,0.6,0.6
2026-07-24T1500,3147A,114.3434,34.8101,开封市,龙亭公园,臭氧1小时(O3_1h),95,28,18,6,10,196,196,178,178,3,6,4,6,0.6,0.5
2026-07-24T1500,3210A,114.3645,34.7955,开封市,汴京公园,,48,NA,21,33,15,153,153,119,119,10,12,15,6,0.2,0.3
2026-07-24T1500,3473A,114.2485,34.8306,开封市,技师学院,,42,28,20,10,8,134,134,117,117,4,8,5,5,0.5,0.5
2026-07-24T1500,3592A,114.4518,34.7503,开封市,祥符区生态环境局,,43,18,18,14,16,135,135,112,112,2,8,12,20,0.6,0.7
2026-07-24T1500,1951A,84.886,45.6029,克拉玛依市,长征新村,,41,22,17,17,10,129,129,106,106,3,6,4,4,0.3,0.3
2026-07-24T1500,1952A,84.8894,45.5827,克拉玛依市,南林小区,NA,NA,16,16,3,1,119,119,89,89,NA,6,6,6,0.2,0.1
2026-07-24T1500,1954A,84.896,44.3328,克拉玛依市,独山子区,,41,21,36,3,6,129,129,109,109,4,10,7,7,0.3,0.4
2026-07-24T1500,1955A,85.6888,46.0909,克拉玛依市,乌尔禾区商贸楼,,37,27,24,7,8,116,116,91,91,3,7,8,8,0.2,0.2
2026-07-24T1500,3612A,85.1045,45.6895,克拉玛依市,白碱滩区新站,,39,9,27,3,5,123,123,86,83,2,7,9,9,0.2,0.2
2026-07-24T1500,2697A,76.1457,39.7143,克孜勒苏柯尔克孜自治州,市人民政府,颗粒物(PM10),64,69,56,29,24,140,140,120,114,2,8,2,10,0,0.1
2026-07-24T1500,3665A,76.1654,39.7157,克孜勒苏柯尔克孜自治州,克州文化中心,颗粒物(PM10),63,68,60,30,23,133,133,125,118,2,5,5,10,0.2,0.2
2026-07-24T1500,1450A,102.8203,24.889,昆明市,呈贡新区,,36,16,25,16,15,115,115,84,84,5,7,5,3,0.8,0.8
2026-07-24T1500,1452A,102.7253,25.0904,昆明市,龙泉镇,,41,NA,25,12,18,130,130,81,81,12,15,5,6,0.3,0.3
2026-07-24T1500,1453A,102.7267,25.0378,昆明市,东风东路,,42,25,29,13,16,134,134,84,84,12,15,4,5,0.4,0.4
2026-07-24T1500,1454A,102.6744,25.0671,昆明市,金鼎山,,45,17,28,10,15,143,143,88,88,11,13,3,4,0.1,0.2
2026-07-24T1500,1455A,102.6643,25.0401,昆明市,碧鸡广场,,42,13,27,13,17,133,133,78,78,8,14,5,6,0.5,0.6
2026-07-24T1500,3179A,102.7491,25.012,昆明市,官渡区博物馆,,38,NA,28,23,16,120,120,76,76,16,19,3,4,0.5,0.4
2026-07-24T1500,3375A,102.8016,24.8336,昆明市,青年创业园,,36,17,19,13,13,113,113,78,78,5,12,3,4,0.3,0.4
2026-07-24T1500,3550A,102.8,24.9787,昆明市,昆明学院,NA,NA,18,28,13,14,127,127,92,92,NA,13,6,7,NA,0.6
2026-07-24T1500,3551A,102.5969,24.6738,昆明市,晋宁区生态环境分局,,38,13,21,12,16,119,119,86,86,4,9,6,5,0.5,0.5
2026-07-24T1500,3552A,102.6673,24.9861,昆明市,云天化总部,,41,18,20,3,15,129,129,88,88,8,11,1,2,0.3,0.3
2026-07-24T1500,1456A,91.132,29.6515,拉萨市,八廓街,,32,8,14,3,7,101,101,86,86,5,9,7,7,0.4,0.3
2026-07-24T1500,1457A,91.1221,29.6748,拉萨市,市环保局,,31,11,10,6,6,98,98,74,74,7,12,7,6,0.2,0.3
2026-07-24T1500,1458A,91.0874,29.6476,拉萨市,区监测站,,30,7,9,3,6,94,94,79,79,8,13,7,7,0.2,0.2
2026-07-24T1500,1459A,91.1774,29.6541,拉萨市,西藏大学,,40,7,8,3,6,127,127,88,88,9,10,5,5,0.3,0.3
2026-07-24T1500,1460A,90.9798,29.6586,拉萨市,区辐射站,,28,13,12,3,7,88,88,75,75,14,16,7,7,0.2,0.2
2026-07-24T1500,1461A,91.0831,29.6292,拉萨市,拉萨火车站,,29,6,8,3,6,91,91,74,74,6,12,5,5,0.2,0.3
2026-07-24T1500,2520A,109.2203,23.7252,来宾市,来宾技工学校,,29,26,27,20,12,81,81,60,60,6,12,4,5,0.6,0.6
2026-07-24T1500,3535A,109.1781,23.7293,来宾市,兴宾区政府,,34,34,25,14,11,85,85,60,60,3,8,6,8,0.6,0.7
2026-07-24T1500,4002A,109.2312,23.7428,来宾市,中南小学,,45,45,25,17,12,83,83,61,61,4,9,6,6,0.5,0.5
2026-07-24T1500,1479A,103.8309,36.0467,兰州市,铁路设计院,臭氧1小时(O3_1h),80,37,49,18,23,184,184,133,133,13,37,9,10,0.7,0.8
2026-07-24T1500,3241A,103.7439,36.0841,兰州市,百合公园,臭氧1小时(O3_1h),74,43,49,19,20,179,179,142,142,11,37,7,10,0.4,0.4
2026-07-24T1500,3242A,103.9613,35.9985,兰州市,和平,,46,40,30,25,19,147,147,131,131,4,9,9,9,0.4,0.2
2026-07-24T1500,4236A,103.629272,36.093822,兰州市,庄浪东路808号,臭氧1小时(O3_1h),111,42,41,24,21,222,222,153,153,14,32,15,21,0.4,0.5
2026-07-24T1500,4237A,103.7251,36.104344,兰州市,安宁西路88号,臭氧1小时(O3_1h),105,45,57,22,25,210,210,174,174,8,29,12,15,0.4,0.4
2026-07-24T1500,4238A,103.846982,36.067567,兰州市,北滨河东路1号,臭氧1小时(O3_1h),59,31,41,19,21,167,167,117,117,10,32,13,13,0.6,0.6
2026-07-24T1500,1067A,116.6712,39.5109,廊坊市,药材公司,,44,32,46,25,30,138,138,98,98,2,11,1,3,0.5,0.9
2026-07-24T1500,1068A,116.7215,39.5592,廊坊市,开发区,,46,32,38,21,28,146,146,97,97,2,14,3,2,0.6,1
2026-07-24T1500,1070A,116.7246,39.5273,廊坊市,北华航天学院,,45,29,37,22,33,144,144,96,96,2,13,3,3,0.6,1
2026-07-24T1500,2919A,116.7022,39.5454,廊坊市,河北工业大学,颗粒物(PM10),55,56,41,25,34,144,144,101,101,2,12,1,2,0.6,0.9
2026-07-24T1500,2536A,103.7629,29.5844,乐山市,牛耳桥,臭氧1小时(O3_1h),74,46,37,24,17,179,179,125,125,10,16,7,7,0.7,0.8
2026-07-24T1500,2537A,103.7501,29.6002,乐山市,市第三水厂,臭氧1小时(O3_1h),78,41,33,24,16,182,182,131,131,8,12,5,5,0.8,0.8
2026-07-24T1500,2538A,103.7571,29.5664,乐山市,市监测站,臭氧1小时(O3_1h),92,47,40,21,15,193,193,134,134,6,12,5,5,0.7,0.7
2026-07-24T1500,3361A,103.7313,29.563,乐山市,理工大学,臭氧1小时(O3_1h),87,46,35,19,17,189,189,143,143,7,10,7,10,0.5,0.8
2026-07-24T1500,2599A,100.2497,26.8802,丽江市,丽江古城,NA,NA,NA,14,NA,6,100,100,98,98,10,7,5,4,0.6,0.6
2026-07-24T1500,2600A,100.2203,26.8906,丽江市,市中心,,33,23,12,8,10,103,103,100,100,10,8,6,6,0.4,0.4
2026-07-24T1500,1267A,119.9141,28.4513,丽水市,监测站大楼,NA,NA,53,39,13,19,76,76,76,76,5,9,6,5,NA,0.6
2026-07-24T1500,1268A,119.93,28.4589,丽水市,莲都小学,,33,33,38,12,20,79,79,75,75,5,8,/,/,/,/
2026-07-24T1500,1269A,119.8794,28.4232,丽水市,余庄前,,26,23,36,12,20,83,83,85,85,3,7,6,6,0.5,0.6
2026-07-24T1500,1173A,119.1759,34.5885,连云港市,市环境监测站,,40,24,14,19,15,127,127,94,94,4,6,4,4,0.5,0.4
2026-07-24T1500,3000A,119.3577,34.6971,连云港市,德源药业,,33,31,20,19,11,104,104,80,80,8,12,4,4,0.5,0.4
2026-07-24T1500,3007A,119.178,34.8442,连云港市,新城一中,,39,23,22,14,14,124,124,93,93,2,9,6,7,0.5,0.5
2026-07-24T1500,3008A,119.3607,34.7519,连云港市,胡沟管理处,,36,31,13,22,11,115,115,91,91,5,7,8,10,0.4,0.3
2026-07-24T1500,3009A,119.1478,34.5913,连云港市,矿山设计院,,36,29,15,17,11,114,114,84,84,4,7,3,2,0.7,0.6
2026-07-24T1500,3434A,119.2414,34.6539,连云港市,工贸学校,,37,30,17,20,14,118,118,93,93,4,4,5,5,0.5,0.5
2026-07-24T1500,3664A,119.4171,34.734,连云港市,连云街道,,38,38,20,24,13,114,114,92,92,7,5,3,2,0.6,0.6
2026-07-24T1500,2573A,102.2629,27.8981,凉山彝族自治州,西昌市政府,,50,19,24,14,19,160,160,102,102,6,6,4,5,0.3,0.4
2026-07-24T1500,2574A,102.2686,27.885,凉山彝族自治州,凉山州政府,,49,26,29,15,20,155,155,98,98,7,7,3,5,0.4,0.5
2026-07-24T1500,4229A,102.2342,27.8859,凉山彝族自治州,凯乐南路30号,,45,19,24,12,17,144,144,96,96,7,9,4,5,0.4,0.6
2026-07-24T1500,2212A,123.1978,41.2036,辽阳市,宏伟区,,34,31,21,10,9,108,108,87,87,6,6,6,6,0.8,0.6
2026-07-24T1500,2213A,123.1684,41.2497,辽阳市,新华园,,40,21,31,9,16,127,127,104,104,5,10,2,5,0.9,0.9
2026-07-24T1500,2214A,123.2355,41.2663,辽阳市,滨河路,,35,27,27,7,14,112,112,95,95,5,14,7,8,1.1,0.9
2026-07-24T1500,4083A,123.153,41.2874,辽阳市,铁西路150号,,36,26,30,8,16,115,115,99,99,4,8,6,7,0.9,0.4
2026-07-24T1500,2227A,125.1359,42.8845,辽源市,环保局,,37,27,25,7,13,116,116,107,107,4,10,5,6,0.1,0.3
2026-07-24T1500,4085A,125.0998,42.9134,辽源市,安宁大街333号,,37,30,23,8,14,116,116,103,103,1,9,6,15,0.6,0.6
2026-07-24T1500,1625A,115.9789,36.4372,聊城市,区政府,,48,28,17,17,10,152,152,127,127,2,3,4,5,0.7,0.6
2026-07-24T1500,3200A,115.9772,36.4986,聊城市,监控中心,,49,24,14,15,12,155,155,128,128,2,5,9,9,0.4,0.4
2026-07-24T1500,3513A,116.0443,36.436,聊城市,九州社区,,50,28,25,16,16,157,157,131,131,1,5,6,10,0.5,0.4
2026-07-24T1500,4018A,116.0564,36.4609,聊城市,星美广场,,47,38,24,22,16,149,149,132,132,2,5,3,6,0.4,0.3
2026-07-24T1500,4113A,116.0091,36.4495,聊城市,利民路,,50,25,18,17,11,160,160,138,138,3,4,10,10,0.4,0.3
2026-07-24T1500,2632A,94.3683,29.6373,林芝市,林芝监测站,,23,6,8,3,6,72,72,41,41,3,5,4,3,0.4,0.4
2026-07-24T1500,2633A,94.3616,29.6634,林芝市,林芝人民医院,,23,6,8,3,6,73,73,40,40,4,5,3,3,0.3,0.4
2026-07-24T1500,2603A,100.0779,23.8981,临沧市,市环保局,,20,NA,13,8,7,61,61,37,37,8,9,6,8,0.4,0.4
2026-07-24T1500,2604A,100.0894,23.882,临沧市,市气象局,NA,NA,16,21,3,9,73,73,20,NA,NA,8,11,8,0.3,0.6
2026-07-24T1500,1733A,111.5552,36.0791,临汾市,临钢医院,NA,NA,14,28,8,12,157,157,130,130,6,13,6,6,NA,0.6
2026-07-24T1500,1734A,111.4984,36.0734,临汾市,技工学校,,46,18,37,15,20,146,146,117,117,6,9,5,5,0.5,0.6
2026-07-24T1500,1736A,111.5017,36.0857,临汾市,市委,,46,41,52,7,13,147,147,119,119,6,9,7,7,0.5,0.5
2026-07-24T1500,3018A,111.5048,36.1015,临汾市,唐尧大酒店,,48,48,58,9,14,147,147,118,118,4,7,6,6,0.6,0.7
2026-07-24T1500,4244A,111.4879,36.053,临汾市,启星学校,,45,22,32,11,19,144,144,116,116,6,9,6,7,0.7,0.8
2026-07-24T1500,4271A,103.2464,35.6123,临夏回族自治州,滨河东路1号,,48,39,56,14,19,152,152,108,108,7,19,9,9,0.7,0.7
2026-07-24T1500,4310A,103.207136,35.599807,临夏回族自治州,新华街21号,,44,17,47,16,21,140,140,107,107,6,12,10,10,0.4,0.4
2026-07-24T1500,1618A,118.3429,35.0532,临沂市,沂河小区,,36,22,22,3,12,113,113,71,71,4,8,12,11,0.3,0.3
2026-07-24T1500,1619A,118.2962,35.0568,临沂市,鲁南制药厂,,35,9,18,3,13,111,111,70,70,5,10,8,9,0.6,0.6
2026-07-24T1500,1620A,118.2793,34.9976,临沂市,新光毛纺厂,,40,6,15,3,14,127,127,78,78,2,9,6,9,0.2,0.2
2026-07-24T1500,1621A,118.3955,35.0889,临沂市,河东保险公司,,38,14,20,3,12,119,119,72,72,3,13,9,10,0.4,0.4
2026-07-24T1500,3370A,118.3563,35.0215,临沂市,十里堡居委,,38,6,13,3,13,120,120,71,71,9,14,9,9,0.5,0.5
2026-07-24T1500,3496A,118.359,35.1067,临沂市,南坊新区,,38,17,22,3,14,121,121,78,78,7,10,9,8,0.3,0.3
2026-07-24T1500,3860A,118.3915,35.0297,临沂市,皇山花园小区,,40,14,19,3,16,128,128,79,79,5,12,9,9,0.5,0.6
2026-07-24T1500,1870A,109.4854,24.3898,柳州市,柳东小学,,32,32,22,15,12,94,94,68,68,5,8,6,5,0.6,0.7
2026-07-24T1500,1871A,109.4109,24.3304,柳州市,环保监测站,,32,32,26,11,11,75,75,57,57,8,10,8,8,0.7,0.8
2026-07-24T1500,1872A,109.3886,24.3408,柳州市,河西水厂,,36,36,33,22,15,74,74,56,56,13,15,8,9,0.6,0.6
2026-07-24T1500,1873A,109.4263,24.2951,柳州市,市四中,,40,40,27,15,13,85,85,61,61,3,10,6,5,0.5,0.5
2026-07-24T1500,1874A,109.396,24.3658,柳州市,市九中,,27,20,30,12,12,84,84,63,63,4,9,6,6,0.4,0.5
2026-07-24T1500,1875A,109.4912,24.3164,柳州市,古亭山,,41,41,28,13,13,79,79,59,59,3,10,3,3,0.5,0.6
2026-07-24T1500,3402A,109.5422,24.3994,柳州市,市二中,,37,37,29,16,12,95,95,68,68,6,13,6,7,0.3,0.3
2026-07-24T1500,2307A,116.5078,31.7369,六安市,监测大楼,,21,NA,10,9,11,67,67,71,71,7,8,4,4,0.4,0.4
2026-07-24T1500,2308A,116.4738,31.7642,六安市,皖西学院,,20,NA,14,3,8,63,63,83,83,2,5,5,7,0.5,0.6
2026-07-24T1500,2309A,116.4997,31.7904,六安市,朝阳厂,,21,6,10,3,10,66,66,69,69,5,8,1,2,0.2,0.3
2026-07-24T1500,2310A,116.5566,31.7885,六安市,开发区,,25,6,8,3,9,79,79,74,74,1,9,5,6,0.2,0.3
2026-07-24T1500,2577A,104.8293,26.592,六盘水市,黄土坡,,32,13,21,8,17,100,100,93,93,6,6,3,3,0.4,0.5
2026-07-24T1500,2579A,104.8481,26.5898,六盘水市,民中,,32,8,20,8,18,100,100,93,93,5,6,1,1,0.4,0.4
2026-07-24T1500,2580A,104.9541,26.5506,六盘水市,双水,,30,9,21,3,14,93,93,89,89,6,6,4,4,0.5,0.4
2026-07-24T1500,4151A,104.8899,26.5685,六盘水市,钟山大道中段564号,,32,11,26,8,16,101,101,95,95,4,4,2,2,0.4,0.6
2026-07-24T1500,2336A,117.022,25.1031,龙岩市,龙岩市监测站,,35,34,31,17,20,109,109,82,82,3,9,6,7,0.1,0.2
2026-07-24T1500,2337A,117.0257,25.0662,龙岩市,闽西职业技术学院,,33,26,35,16,20,105,105,86,86,2,7,7,7,0.3,0.3
2026-07-24T1500,2338A,117.0195,25.0306,龙岩市,龙岩学院,,36,36,34,13,19,108,108,91,91,3,6,5,4,/,/
2026-07-24T1500,2885A,104.9344,33.3827,陇南市,滨江中学,,46,37,38,24,24,145,145,132,132,3,7,8,9,0.4,0.4
2026-07-24T1500,3247A,104.9551,33.3709,陇南市,市总工会,,47,47,44,17,22,148,148,135,135,3,6,8,8,0.4,0.4
2026-07-24T1500,2488A,111.9984,27.7346,娄底市,市监测站,,30,30,25,10,13,66,66,54,54,2,4,4,5,0.3,0.2
2026-07-24T1500,2491A,111.9888,27.7035,娄底市,市政府,,22,15,20,9,8,68,68,55,55,3,4,4,4,0.3,0.2
2026-07-24T1500,4127A,111.9812,27.7591,娄底市,涟钢职大,,25,6,20,3,9,79,79,62,62,1,4,2,3,0.2,0.3
2026-07-24T1500,4128A,112.0303,27.7457,娄底市,娄底体校,,25,16,27,11,13,79,79,60,60,1,4,5,5,0.4,0.4
2026-07-24T1500,1894A,105.4427,28.9063,泸州市,小市上码头,,50,28,34,17,23,158,158,125,125,5,13,7,6,0.4,0.4
2026-07-24T1500,1895A,105.4241,28.8573,泸州市,兰田宪桥,,41,26,40,10,22,131,131,98,98,6,12,7,7,0.5,0.5
2026-07-24T1500,1896A,105.4378,28.8833,泸州市,市环监站,,44,17,21,8,8,139,139,113,113,7,11,8,8,0.7,0.6
2026-07-24T1500,4325A,105.3665,28.77434,泸州市,纳溪区委政协,,44,19,36,15,28,138,138,110,110,6,15,7,7,0.2,0.3
2026-07-24T1500,2183A,111.1447,37.5212,吕梁市,环保局,,44,44,42,20,15,134,134,120,120,4,18,7,6,0.3,0.3
2026-07-24T1500,2185A,111.1285,37.5338,吕梁市,自来水公司,,44,34,35,22,15,139,139,116,116,5,14,4,4,0.5,0.5
2026-07-24T1500,2867A,111.1225,37.5093,吕梁市,马茂庄小学,,42,40,41,24,17,134,134,118,118,6,18,6,7,0.5,0.5
2026-07-24T1500,1812A,112.3934,34.6517,洛阳市,市委党校,,42,24,22,14,12,132,132,116,116,7,9,8,9,0.6,0.4
2026-07-24T1500,1815A,112.494,34.6883,洛阳市,河南林校,,44,34,31,12,12,139,139,117,117,8,11,12,12,0.4,0.3
2026-07-24T1500,1816A,112.3843,34.623,洛阳市,开发区管委会,,47,23,20,14,14,148,148,126,126,10,12,12,12,0.6,0.5
2026-07-24T1500,1817A,112.4263,34.6249,洛阳市,市委新办公区,,44,20,19,12,13,139,139,116,116,6,9,12,11,0.4,0.3
2026-07-24T1500,3340A,112.6005,34.6323,洛阳市,伊滨,,49,29,28,13,12,155,155,129,129,9,11,7,7,0.5,0.4
2026-07-24T1500,3341A,112.495,34.6338,洛阳市,中移产业园,,41,18,22,17,13,130,130,112,112,2,6,9,8,1.1,0.8
2026-07-24T1500,3593A,112.5736,34.8993,洛阳市,吉利监测站,,41,20,25,20,12,130,130,110,110,7,8,9,8,0.4,0.3
2026-07-24T1500,3635A,112.3678,34.6623,洛阳市,河科大西苑校区,,43,22,22,21,14,137,137,121,121,3,8,16,16,0.3,0.2
2026-07-24T1500,3636A,112.4387,34.678,洛阳市,英才小学,,39,20,17,16,13,122,122,104,104,6,9,10,10,0.7,0.6
2026-07-24T1500,4214A,112.460027,34.694929,洛阳市,春都路1号院,,38,NA,18,24,22,119,119,100,100,6,8,2,2,0.5,0.4
2026-07-24T1500,2399A,114.051,33.5721,漯河市,三五一五工厂,,44,24,28,13,14,140,140,112,112,8,14,4,5,0.4,0.4
2026-07-24T1500,2400A,114.0055,33.5698,漯河市,漯河大学,,45,29,23,23,15,144,144,116,116,9,14,5,6,0.4,0.4
2026-07-24T1500,2401A,114.0134,33.5826,漯河市,市水利局,,43,22,17,14,10,136,136,112,112,10,14,6,6,0.6,0.5
2026-07-24T1500,2402A,114.0261,33.5697,漯河市,市广电局,,48,27,19,14,12,151,151,120,120,5,10,4,4,0.5,0.4
2026-07-24T1500,3478A,113.9691,33.568,漯河市,市图书馆,颗粒物(PM10),53,54,23,22,14,132,132,111,111,8,13,6,6,1.0,0.7
2026-07-24T1500,4250A,114.089259,33.588274,漯河市,韶山路11号,,43,32,23,22,14,135,135,111,111,6,12,7,7,0.5,0.4
2026-07-24T1500,1798A,118.5084,31.6838,马鞍山市,湖东路四小,,45,41,32,13,17,143,143,105,105,5,15,8,8,0.7,0.8
2026-07-24T1500,1799A,118.5019,31.6449,马鞍山市,开发区,,48,41,33,19,19,152,152,109,109,3,13,7,7,0.8,0.8
2026-07-24T1500,3633A,118.4914,31.681,马鞍山市,雨山,,46,28,28,28,17,145,145,106,106,5,17,4,7,0.8,0.9
2026-07-24T1500,4191A,118.527362,31.722269,马鞍山市,慈湖高新区,,42,30,35,16,18,134,134,98,98,6,17,8,8,0.5,0.6
2026-07-24T1500,1686A,111.0285,21.469,茂名市,电白南海,,36,36,39,15,17,62,62,56,56,5,5,3,2,0.4,0.4
2026-07-24T1500,1687A,110.9294,21.6533,茂名市,茂石化七小,,39,39,43,13,20,82,82,67,67,6,8,7,8,0.6,0.7
2026-07-24T1500,1688A,110.9108,21.6688,茂名市,健康路,,26,24,35,15,20,82,82,68,68,3,5,5,4,0.3,0.4
2026-07-24T1500,1689A,110.8592,21.6826,茂名市,高岭,,39,39,43,16,19,86,86,70,70,5,7,5,7,/,/
2026-07-24T1500,3450A,111.0101,21.5165,茂名市,电白水东,,29,29,32,11,17,68,68,58,58,5,5,4,3,/,/
2026-07-24T1500,2540A,103.8414,30.0871,眉山市,气象局,臭氧1小时(O3_1h),103,17,43,12,26,206,206,138,138,12,32,10,10,0.7,0.9
2026-07-24T1500,3148A,103.829,30.0563,眉山市,区人社局,臭氧1小时(O3_1h),102,39,47,10,14,204,204,137,137,13,28,9,11,0.6,0.7
2026-07-24T1500,4148A,103.8836,30.0695,眉山市,眉职院,臭氧1小时(O3_1h),95,32,50,13,24,196,196,133,133,6,25,10,10,0.6,0.8
2026-07-24T1500,1690A,116.1248,24.3307,梅州市,梅江月梅,,30,29,41,20,25,94,94,75,75,5,11,/,/,/,/
2026-07-24T1500,1691A,116.0798,24.2719,梅州市,梅县新城,,35,35,39,16,24,91,91,75,75,6,12,9,10,0.5,0.5
2026-07-24T1500,3315A,116.1234,24.2994,梅州市,梅龙,,36,36,40,20,24,96,96,80,80,5,11,6,8,0.6,0.7
2026-07-24T1500,1878A,104.7775,31.4741,绵阳市,富乐山,臭氧1小时(O3_1h),89,44,46,24,28,191,191,136,136,8,13,14,14,0.8,0.9
2026-07-24T1500,1880A,104.6698,31.4668,绵阳市,高新区自来水公司,臭氧1小时(O3_1h),87,47,58,25,31,189,189,147,147,5,14,14,14,0.7,0.8
2026-07-24T1500,3491A,104.6899,31.5324,绵阳市,西科大附属小学,臭氧1小时(O3_1h),78,44,58,36,29,182,182,132,132,6,17,8,8,0.5,0.6
2026-07-24T1500,3492A,104.5647,31.5343,绵阳市,安州区旅游局,臭氧1小时(O3_1h),98,47,47,28,25,198,198,146,146,5,8,6,7,0.5,0.5
2026-07-24T1500,4146A,104.7092,31.4972,绵阳市,科技城新区公安局,臭氧1小时(O3_1h),90,53,56,24,30,192,192,141,141,7,16,10,11,0.7,0.7
2026-07-24T1500,4226A,104.765114,31.453094,绵阳市,绵阳市气象局,臭氧1小时(O3_1h),68,44,53,30,28,174,174,124,124,9,19,5,8,0.7,0.7
2026-07-24T1500,1784A,129.61,44.561,牡丹江市,环保大楼,,23,6,19,3,7,73,73,71,71,4,6,6,6,0.4,0.4
2026-07-24T1500,1787A,129.6364,44.6075,牡丹江市,机车工厂,,24,NA,16,6,10,74,74,73,73,4,8,4,4,0.3,0.3
2026-07-24T1500,1788A,129.6386,44.5462,牡丹江市,第一中学,,24,8,19,3,5,75,75,71,71,2,7,14,10,0.5,0.4
2026-07-24T1500,4287A,129.5992,44.5964,牡丹江市,东晓云街98号,,25,10,23,3,6,80,80,79,79,3,5,6,6,0.2,0.3
2026-07-24T1500,2531A,105.0703,29.61,内江市,市监测站,臭氧1小时(O3_1h),75,40,36,27,32,180,180,140,140,9,17,10,11,0.4,0.5
2026-07-24T1500,2533A,105.0657,29.5807,内江市,内江二中,臭氧1小时(O3_1h),70,31,39,24,31,176,176,136,136,7,16,9,9,0.4,0.4
2026-07-24T1500,2534A,105.0407,29.5828,内江市,内江日报社,臭氧1小时(O3_1h),55,NA,34,27,34,164,164,134,134,7,18,14,12,0.5,0.4
2026-07-24T1500,4147A,105.0433,29.6105,内江市,玉峰路西段888号,臭氧1小时(O3_1h),55,32,36,23,28,164,164,130,130,6,15,10,11,0.5,0.5
2026-07-24T1500,2628A,92.0653,31.4846,那曲市,那曲监测站,,36,10,19,3,8,113,113,102,102,6,9,5,5,0.2,0.3
2026-07-24T1500,4243A,92.0515,31.4787,那曲市,那曲市委宣传部,,37,6,11,3,7,118,118,106,106,4,7,6,6,0.3,0.3
2026-07-24T1500,1291A,115.8887,28.7006,南昌市,省林业公司,,35,27,31,19,25,109,109,96,96,7,19,6,9,0.5,0.6
2026-07-24T1500,1292A,115.813,28.7443,南昌市,林科所,,34,22,28,18,21,108,108,90,90,1,22,8,10,0.6,0.9
2026-07-24T1500,1294A,115.8518,28.687,南昌市,建工学校,,31,NA,29,20,24,98,98,84,84,3,14,5,6,0.5,0.5
2026-07-24T1500,1295A,115.8926,28.6425,南昌市,象湖,,30,22,29,15,24,93,93,87,87,5,19,9,10,0.3,0.4
2026-07-24T1500,3046A,115.9084,28.6062,南昌市,机电学校,,34,29,41,16,24,107,107,100,100,5,19,8,6,0.5,0.7
2026-07-24T1500,3690A,115.9718,28.7032,南昌市,外国语学校,,31,29,39,15,24,98,98,92,92,4,15,11,13,0.6,0.7
2026-07-24T1500,4106A,115.7923,28.6873,南昌市,工业二路,NA,NA,33,40,19,22,96,96,83,83,2,16,7,7,NA,0.5
2026-07-24T1500,4192A,115.931587,28.686774,南昌市,南京东路235号,,48,48,28,14,21,104,104,101,101,5,15,5,7,0.7,0.8
2026-07-24T1500,1906A,106.0791,30.8022,南充市,南充市委,,45,36,46,21,23,143,143,112,112,5,12,7,8,0.2,0.3
2026-07-24T1500,1907A,106.1038,30.8215,南充市,南充炼油厂,,49,40,45,21,24,156,156,120,120,4,9,8,7,0.4,0.4
2026-07-24T1500,4227A,106.108336,30.788436,南充市,梨树横街98号,,49,38,48,24,24,156,156,122,122,7,12,8,9,0.2,0.3
2026-07-24T1500,4304A,106.1172,30.843,南充市,清泉寺北路188号,,49,41,46,23,24,156,156,121,121,5,8,9,9,0.2,0.2
2026-07-24T1500,4305A,106.067,30.7616,南充市,同庆路1号,,46,36,42,21,22,146,146,116,116,6,10,8,8,0.4,0.3
2026-07-24T1500,1151A,118.8033,32.1085,南京市,迈皋桥,,44,25,22,8,11,138,138,100,100,2,7,8,5,0.3,0.3
2026-07-24T1500,1152A,118.7487,32.057,南京市,草场门,臭氧1小时(O3_1h),52,29,21,10,13,161,161,108,108,6,17,7,6,0.7,0.6
2026-07-24T1500,1154A,118.770105,32.004342,南京市,中华门,,41,22,18,7,11,129,129,94,94,7,18,6,6,0.3,0.2
2026-07-24T1500,1155A,118.8059,32.0329,南京市,瑞金路,,34,19,20,3,13,108,108,89,89,8,22,4,4,0.5,0.7
2026-07-24T1500,1156A,118.7946,32.0774,南京市,玄武湖,,44,44,27,6,8,119,119,91,91,4,14,9,8,0.5,0.4
2026-07-24T1500,1157A,118.6415,32.0964,南京市,浦口,颗粒物(PM10),55,56,25,3,7,117,117,101,101,6,14,4,3,0.5,0.4
2026-07-24T1500,1158A,118.730129,32.000956,南京市,奥体中心,臭氧1小时(O3_1h),54,33,25,11,12,163,163,108,108,8,18,6,5,1.1,1.1
2026-07-24T1500,1159A,118.9072,32.1047,南京市,仙林大学城,,40,34,26,3,11,127,127,102,102,6,19,9,8,0.4,0.4
2026-07-24T1500,3422A,118.8443,31.919,南京市,江宁彩虹桥,,29,21,23,3,11,91,91,88,88,15,19,4,4,0.4,0.5
2026-07-24T1500,3427A,118.8497,32.3599,南京市,六合雄州,,46,27,24,9,10,145,145,98,98,7,20,4,4,1.0,0.7
2026-07-24T1500,4086A,118.7641,32.0841,南京市,新模范马路66号,,50,34,25,8,9,159,159,110,110,1,11,4,4,0.4,0.4
2026-07-24T1500,4249A,118.8707617,31.34017673,南京市,汶溪路181号,,29,27,19,10,8,90,90,83,83,5,4,3,3,0.4,0.5
2026-07-24T1500,4312A,119.019,31.6512,南京市,中山西路1号,,33,24,21,8,10,103,103,80,80,4,12,4,4,0.5,0.6
2026-07-24T1500,1401A,108.3098,22.788,南宁市,二十一中,颗粒物(PM10),105,133,25,10,10,NA,NA,71,71,NA,7,3,2,0.0,0.6
2026-07-24T1500,1402A,108.3135,22.8529,南宁市,北湖,,27,27,22,15,13,70,70,62,62,6,8,2,2,0.5,0.5
2026-07-24T1500,1403A,108.3205,22.8222,南宁市,市监测站,,36,36,22,11,9,81,81,75,75,2,4,3,4,0.5,0.5
2026-07-24T1500,1404A,108.3828,22.8038,南宁市,大自然花园,,27,27,19,12,10,77,77,71,71,4,7,4,4,0.5,0.5
2026-07-24T1500,1406A,108.2397,22.8462,南宁市,区农职院,,33,33,23,15,13,82,82,72,72,2,4,3,3,0.6,0.7
2026-07-24T1500,1407A,108.3285,22.7356,南宁市,英华嘉园,,29,29,25,13,10,73,73,69,69,4,7,4,4,0.5,0.5
2026-07-24T1500,3401A,108.4829,22.762,南宁市,红星社区,,26,26,20,14,10,78,78,76,76,2,7,5,5,0.4,0.5
2026-07-24T1500,4132A,108.2927,23.1477,南宁市,起凤路9号,,25,25,26,15,15,80,80,66,66,5,8,1,2,0.5,0.5
2026-07-24T1500,4221A,108.2177,22.7774,南宁市,乐贤路16号,,29,29,26,13,11,75,75,69,69,6,12,4,4,0.2,0.4
2026-07-24T1500,2332A,118.1682,26.6371,南平市,南平市监测站,,27,27,38,12,23,85,85,92,92,3,10,4,4,0.2,0.4
2026-07-24T1500,2334A,118.1757,26.6276,南平市,南平七中,,37,37,37,15,22,89,89,92,92,2,8,3,4,0.3,0.5
2026-07-24T1500,1168A,120.9056,31.9669,南通市,狼山街道,臭氧1小时(O3_1h),95,46,34,28,23,196,196,154,154,9,18,5,5,0.5,0.5
2026-07-24T1500,1170A,120.8635,32.0231,南通市,城中,臭氧1小时(O3_1h),105,54,44,21,20,210,210,149,149,6,14,4,3,0.6,0.7
2026-07-24T1500,1171A,120.9376,31.9301,南通市,星湖花园,臭氧1小时(O3_1h),69,41,38,26,26,175,175,146,146,9,16,4,5,0.4,0.4
2026-07-24T1500,1172A,120.8053,32.046,南通市,紫琅学院,臭氧1小时(O3_1h),107,54,43,23,18,213,213,143,143,17,24,5,5,0.5,0.6
2026-07-24T1500,3291A,121.0631,32.0644,南通市,通州监测站,臭氧1小时(O3_1h),115,61,42,23,23,229,229,153,153,9,11,9,8,0.8,0.7
2026-07-24T1500,3432A,120.9348,31.9874,南通市,环境教育馆,臭氧1小时(O3_1h),65,46,41,32,22,172,172,139,139,7,18,7,7,0.6,0.6
2026-07-24T1500,4091A,120.8692,31.9885,南通市,洪江路,臭氧1小时(O3_1h),101,44,34,32,23,201,201,144,144,7,14,4,5,0.7,0.7
2026-07-24T1500,2404A,112.5338,33.0086,南阳市,瓦房庄,,41,27,24,14,10,130,130,97,97,6,11,6,6,0.6,0.6
2026-07-24T1500,2405A,112.5002,32.9734,南阳市,汉画馆,,41,29,26,12,9,131,131,100,100,5,12,6,6,0.5,0.5
2026-07-24T1500,2406A,112.5778,33.0144,南阳市,气象站,,45,22,18,18,8,143,143,109,109,6,13,6,6,0.5,0.5
2026-07-24T1500,2407A,112.548,32.9687,南阳市,理工学院,,42,24,22,16,12,134,134,97,97,5,13,7,7,0.4,0.5
2026-07-24T1500,4008A,112.5233,32.9921,南阳市,卧龙区政府,,43,27,24,15,12,135,135,102,102,4,9,4,5,0.6,0.6
2026-07-24T1500,1234A,121.8352,29.9111,宁波市,区环保大楼,,34,34,36,12,14,83,83,66,66,4,4,4,4,0.7,0.7
2026-07-24T1500,1235A,121.5595,29.8208,宁波市,万里学院,,32,32,38,12,15,87,87,77,77,3,8,5,7,0.5,0.5
2026-07-24T1500,1236A,121.713,29.9564,宁波市,龙赛医院,,30,30,37,14,16,88,88,72,72,4,5,6,7,0.2,0.2
2026-07-24T1500,1240A,121.5855,29.8635,宁波市,太古小学,,28,28,37,12,16,82,82,72,72,2,5,4,5,0.2,0.2
2026-07-24T1500,1241A,121.5239,29.8673,宁波市,市环境监测中心,,41,41,45,16,17,92,92,78,78,5,9,9,11,0.3,0.4
2026-07-24T1500,2871A,121.6156,29.9015,宁波市,万里国际学校,,33,33,37,10,14,82,82,71,71,6,7,7,7,0.3,0.3
2026-07-24T1500,3710A,121.5593,29.8976,宁波市,白沙活动中心,,29,27,30,12,16,90,90,81,81,6,10,8,9,0.2,0.3
2026-07-24T1500,4095A,121.8962,29.7529,宁波市,中科路88号,,27,27,31,10,12,73,73,70,70,1,2,6,6,0.5,0.5
2026-07-24T1500,2341A,119.5387,26.6611,宁德市,宁德市监测站,,46,46,44,11,21,60,60,64,64,7,12,4,6,0.6,0.8
2026-07-24T1500,3209A,119.5231,26.6562,宁德市,宁德一中,,25,25,44,10,25,65,65,70,70,3,7,11,12,0.2,0.4
2026-07-24T1500,2618A,98.859,25.8541,怒江傈僳族自治州,州监测站,,25,16,24,11,13,77,77,60,60,5,8,5,5,0.5,0.5
2026-07-24T1500,2619A,98.8607,25.8168,怒江傈僳族自治州,泸水一中,,24,14,12,10,12,74,74,54,54,8,11,4,4,0.4,0.4
2026-07-24T1500,1888A,101.6891,26.571,攀枝花市,弄弄坪,,44,44,37,29,13,78,78,103,81,25,15,12,10,1.1,0.5
2026-07-24T1500,1889A,101.577,26.5914,攀枝花市,河门口,,35,35,31,22,20,99,99,107,88,16,14,16,17,1.4,1.1
2026-07-24T1500,1891A,101.7365,26.4986,攀枝花市,仁和,,39,37,24,27,15,89,89,90,78,22,8,19,8,1.9,0.6
2026-07-24T1500,2835A,101.7222,26.567,攀枝花市,四十中小,,32,NA,33,22,17,86,86,102,81,18,12,14,12,1.4,0.7
2026-07-24T1500,1604A,122.0303,41.1489,盘锦市,开发区,,32,22,23,3,12,100,100,95,95,7,10,4,5,0.5,0.5
2026-07-24T1500,1605A,122.0486,41.0883,盘锦市,兴隆台,,27,15,23,8,11,86,86,73,73,6,15,5,5,0.6,0.7
2026-07-24T1500,1606A,121.8297,41.1026,盘锦市,新生街道,,34,15,16,3,14,108,108,95,95,9,11,4,4,0.7,0.7
2026-07-24T1500,1832A,113.3257,33.7423,平顶山市,新华旅馆,,42,16,28,13,16,134,134,113,113,8,14,6,5,0.6,0.6
2026-07-24T1500,1833A,113.2917,33.737,平顶山市,规划设计院,,40,27,26,21,16,128,128,107,107,10,13,8,7,0.5,0.5
2026-07-24T1500,1834A,113.182,33.7738,平顶山市,平顶山工学院,,45,28,23,23,18,142,142,115,115,8,11,8,8,0.6,0.6
2026-07-24T1500,3594A,112.8736,33.9068,平顶山市,石龙区,,43,24,37,18,19,137,137,120,120,6,20,10,10,0.5,0.7
2026-07-24T1500,4116A,113.284,33.7139,平顶山市,姚电大道23号,,45,28,31,19,16,141,141,114,114,9,15,8,8,0.7,0.7
2026-07-24T1500,2656A,106.6633,35.5338,平凉市,聚贤嘉苑,,46,46,46,30,25,125,125,110,110,9,14,10,9,1.1,0.9
2026-07-24T1500,2657A,106.7021,35.5307,平凉市,博物馆,,49,47,54,34,27,125,125,108,108,8,16,10,9,1.3,0.8
2026-07-24T1500,2348A,113.8384,27.6436,萍乡市,中医院,,36,36,26,8,14,83,83,67,67,4,10,6,7,0.5,0.6
2026-07-24T1500,2350A,113.8677,27.6438,萍乡市,市环保局,,26,20,23,13,14,83,83,69,69,1,8,14,14,0.2,0.3
2026-07-24T1500,2351A,113.8663,27.6202,萍乡市,安源区政府,,25,25,24,14,13,78,78,62,62,2,5,4,5,0.4,0.5
2026-07-24T1500,4107A,113.8686,27.6668,萍乡市,联洪村委会,,30,30,25,11,13,78,78,76,76,2,7,7,8,0.4,0.4
2026-07-24T1500,2319A,119.0142,25.4324,莆田市,荔城区仓后路,,23,23,50,3,29,63,63,72,72,5,12,/,/,/,/
2026-07-24T1500,2320A,119.0016,25.4553,莆田市,莆田市监测站,,28,28,46,3,29,65,65,74,74,5,10,4,5,0.3,0.4
2026-07-24T1500,2321A,119.112,25.4561,莆田市,涵江区六中,,17,17,44,3,22,54,54,71,71,3,9,/,/,0.3,0.4
2026-07-24T1500,2322A,119.1014,25.3215,莆田市,秀屿区政府,颗粒物(PM10),59,62,47,9,22,44,44,67,67,4,8,6,6,0.6,0.7
2026-07-24T1500,2392A,115.0312,35.7636,濮阳市,环保局,,42,34,20,16,10,132,132,108,108,7,8,3,3,0.8,0.7
2026-07-24T1500,3021A,115,35.7667,濮阳市,濮水河管理处,,36,NA,12,18,10,113,113,88,88,5,8,2,2,0.7,0.6
2026-07-24T1500,4118A,115.0552,35.7816,濮阳市,中原东路68号,,40,31,27,13,9,127,127,101,101,4,7,5,5,0.7,0.7
2026-07-24T1500,4216A,115.0923632,35.76857718,濮阳市,任丘路479号,,40,29,31,22,16,125,125,101,101,6,4,5,5,0.7,0.5
2026-07-24T1500,2601A,100.9801,22.7634,普洱市,市环保局,,24,21,23,8,11,74,74,63,63,4,5,5,6,0.6,0.5
2026-07-24T1500,2602A,100.9763,22.8237,普洱市,普洱第二中学,,24,19,20,3,8,74,74,65,65,6,5,4,3,0.4,0.5
2026-07-24T1500,3345A,131.0413,45.7795,七台河市,中波台,,23,21,9,9,8,72,72,82,82,10,15,6,6,0.4,0.5
2026-07-24T1500,3637A,131.0136,45.7688,七台河市,人民广场,,27,15,13,3,9,84,84,90,90,5,13,7,7,0.5,0.5
2026-07-24T1500,3684A,130.8639,45.8144,七台河市,新建矿广场,,35,22,18,11,11,110,110,100,100,9,15,4,5,0.5,0.5
2026-07-24T1500,1779A,123.9307,47.3641,齐齐哈尔市,安居小区,,24,24,27,6,15,73,73,72,72,7,14,3,4,0.8,0.9
2026-07-24T1500,1780A,123.9497,47.3389,齐齐哈尔市,中心广场,,25,12,36,3,16,77,77,77,77,15,21,4,4,0.6,0.7
2026-07-24T1500,1781A,123.9483,47.3229,齐齐哈尔市,农牧车辆厂,NA,NA,24,45,NA,21,88,88,80,80,10,18,9,6,0.3,0.3
2026-07-24T1500,1783A,123.9442,47.2994,齐齐哈尔市,市环境监测站,,24,11,31,3,15,75,75,68,68,10,16,3,3,0.7,0.7
2026-07-24T1500,3662A,123.6341,47.2079,齐齐哈尔市,富区青少年活动中心,,26,9,25,3,12,82,82,78,72,10,15,4,4,0.4,0.5
2026-07-24T1500,2591A,107.9765,26.5724,黔东南苗族侗族自治州,市环境监测站,,19,10,16,8,13,59,59,69,62,3,3,2,2,0.4,0.4
2026-07-24T1500,2881A,107.8909,26.531,黔东南苗族侗族自治州,凯里学院,NA,NA,NA,10,9,14,64,64,71,66,1,2,2,2,0.4,0.5
2026-07-24T1500,2593A,107.5223,26.2371,黔南布依族苗族自治州,小围寨,,20,NA,10,3,11,63,63,60,60,3,4,6,6,0.4,0.4
2026-07-24T1500,3538A,107.5175,26.2977,黔南布依族苗族自治州,沙坝,,19,6,13,3,9,59,59,60,60,2,3,3,4,0.5,0.5
2026-07-24T1500,2589A,104.9022,25.0943,黔西南布依族苗族自治州,场坝街,,27,12,16,3,12,84,84,78,78,3,4,3,3,0.3,0.3
2026-07-24T1500,2590A,104.8812,25.0994,黔西南布依族苗族自治州,坪东大道,,26,14,16,3,13,82,82,72,72,3,4,5,6,0.3,0.4
2026-07-24T1500,2502A,108.6238,21.9667,钦州市,市环保站,,36,24,17,7,9,113,113,76,76,5,8,5,5,0.8,0.7
2026-07-24T1500,2503A,108.655,21.9481,钦州市,沙埠小学,,35,28,26,14,8,110,110,77,77,6,8,6,6,0.8,0.7
2026-07-24T1500,2504A,108.5989,21.7435,钦州市,港区一小,NA,NA,47,33,17,10,75,75,63,63,NA,20,6,4,0.7,1
2026-07-24T1500,3404A,108.5959,21.9634,钦州市,北职校,,38,26,24,10,13,120,120,84,84,5,8,4,4,0.5,0.5
2026-07-24T1500,1046A,119.5247,39.9346,秦皇岛市,建设大厦,,39,33,34,10,16,124,124,91,91,7,11,6,5,0.4,0.4
2026-07-24T1500,3132A,119.5979,39.938,秦皇岛市,文明里,,46,46,49,17,17,124,124,90,90,3,9,8,7,0.3,0.3
2026-07-24T1500,4066A,119.7458,39.9952,秦皇岛市,南园路157号,,35,13,22,13,17,111,111,88,88,5,12,6,5,0.3,0.3
2026-07-24T1500,4067A,119.5131,39.8858,秦皇岛市,翠岛大街1号,,34,22,19,10,15,108,108,85,82,3,5,4,4,0.3,0.3
2026-07-24T1500,4198A,119.509013,39.825305,秦皇岛市,北戴河轮滑馆,,34,29,33,10,12,108,108,88,82,11,8,7,5,0.4,0.4
2026-07-24T1500,1310A,120.404,36.0625,青岛市,市南区东部子站,,30,12,15,6,10,94,94,72,72,9,11,7,7,0.3,0.4
2026-07-24T1500,1311A,120.362344,36.10282,青岛市,四方区子站,,33,12,13,3,11,103,103,83,83,3,6,8,8,0.8,0.8
2026-07-24T1500,1312A,120.294373,36.054183,青岛市,市南区西部子站,,32,9,12,3,9,102,102,79,79,16,16,6,6,0.6,0.7
2026-07-24T1500,1313A,120.4581,36.0858,青岛市,崂山区子站,,35,12,15,7,10,112,112,84,84,9,13,8,8,0.3,0.4
2026-07-24T1500,1315A,120.3945,36.3083,青岛市,城阳区子站,,32,9,16,3,12,102,102,80,80,6,8,4,4,0.4,0.4
2026-07-24T1500,3642A,120.3454,36.0735,青岛市,市北区南部,,38,10,15,3,8,119,119,94,94,10,12,6,7,0.8,1
2026-07-24T1500,3643A,120.3897,36.18,青岛市,李沧区北部,,32,6,10,3,9,100,100,80,80,7,11,4,4,0.6,0.7
2026-07-24T1500,4110A,120.5222,36.4089,青岛市,盟旺路653号,,30,15,17,3,8,94,94,79,79,5,7,7,7,0.7,0.8
2026-07-24T1500,4290A,120.196923,35.954556,青岛市,珠江路669号,,32,6,12,3,11,102,102,86,86,12,12,4,4,0.4,0.5
2026-07-24T1500,4291A,120.0424,35.8656,青岛市,黄岛区人民政府广场,,34,9,13,3,9,108,108,85,85,8,13,6,6,0.3,0.4
2026-07-24T1500,1703A,113.0218,23.7086,清远市,凤城街办,,40,35,50,19,26,126,126,85,85,8,16,/,/,/,/
2026-07-24T1500,3025A,113.0479,23.6343,清远市,技师学院,,43,28,50,20,26,136,136,57,57,8,18,5,6,0.6,0.6
2026-07-24T1500,3318A,112.9898,23.7403,清远市,清新太和,,38,38,49,22,25,106,106,84,84,7,15,6,7,0.4,0.5
2026-07-24T1500,3455A,113.076,23.72,清远市,清城东城,,46,46,50,30,28,140,140,92,92,7,13,/,/,/,/
2026-07-24T1500,2661A,107.6325,35.7357,庆阳市,庆阳五中,,41,41,41,20,23,128,128,136,116,6,8,6,6,0.6,0.6
2026-07-24T1500,2662A,107.6361,35.7067,庆阳市,市环保局,,41,41,38,26,24,126,126,128,114,6,8,8,8,0.7,0.8
2026-07-24T1500,1916A,103.7897,25.5036,曲靖市,环境监测站,,35,30,31,19,20,109,109,99,99,12,15,1,3,0.6,0.7
2026-07-24T1500,1917A,103.8013,25.5357,曲靖市,烟厂办公区,,30,20,32,13,18,96,96,84,84,9,13,1,3,0.6,0.7
2026-07-24T1500,3376A,103.7926,25.4651,曲靖市,南苑二区,,31,25,22,14,19,99,99,86,86,13,13,4,4,0.6,0.6
2026-07-24T1500,3377A,103.7442,25.5259,曲靖市,曲靖师范学院,,35,29,30,22,21,110,110,88,88,9,14,4,6,0.5,0.5
2026-07-24T1500,1264A,118.8694,28.94,衢州市,环保大楼,,46,35,42,23,24,147,147,112,112,7,16,/,/,/,/
2026-07-24T1500,1266A,118.8622,28.9809,衢州市,衢州学院,,47,NA,32,25,23,148,148,112,112,6,21,5,5,0.7,0.7
2026-07-24T1500,4097A,118.9646,28.9832,衢州市,衢州三中,,47,40,41,22,21,148,148,NA,NA,8,19,4,4,0.8,0.8
2026-07-24T1500,1611A,118.5818,24.9116,泉州市,涂山街,颗粒物(PM10),51,51,47,18,24,127,127,95,95,5,13,3,3,0.7,0.7
2026-07-24T1500,1612A,118.597,24.8976,泉州市,津头埔,,39,39,51,18,26,114,114,91,91,8,15,2,2,0.5,0.5
2026-07-24T1500,1613A,118.6669,24.9422,泉州市,万安,颗粒物(PM10),58,61,50,20,24,112,112,86,86,10,14,6,5,0.5,0.5
2026-07-24T1500,4105A,118.6355,24.9148,泉州市,霞新路6号,,40,30,43,15,27,127,127,93,93,7,15,/,/,0.6,0.7
2026-07-24T1500,2626A,88.8873,29.2723,日喀则市,日喀则监测站,,23,6,5,3,2,73,73,74,71,4,4,6,6,0.2,0.2
2026-07-24T1500,3726A,88.8775,29.2425,日喀则市,林业技术推广中心,,25,8,7,3,2,79,79,70,70,2,3,5,5,0.2,0.2
2026-07-24T1500,1659A,119.4711,35.421,日照市,监测站,,36,29,17,11,14,114,114,84,84,17,20,9,9,0.5,0.6
2026-07-24T1500,1660A,119.523,35.4216,日照市,市政府广场,,34,29,21,10,14,108,108,77,77,5,19,9,11,0.5,0.6
2026-07-24T1500,1661A,119.5511,35.4113,日照市,港务局,,35,31,23,8,12,112,112,88,88,12,16,8,9,0.9,0.9
2026-07-24T1500,3507A,119.5326,35.4627,日照市,职业技术学院,,37,24,20,6,14,117,117,90,90,6,15,8,9,0.5,0.6
2026-07-24T1500,3604A,119.3267,35.1043,日照市,岚山环保分局,颗粒物(PM10),55,56,24,13,14,105,105,92,92,8,11,10,10,0.6,0.7
2026-07-24T1500,1835A,111.1922,34.7752,三门峡市,市政府,,44,40,34,26,22,140,140,116,116,7,9,8,8,0.5,0.6
2026-07-24T1500,1836A,111.1588,34.794,三门峡市,开发区,,42,33,37,26,25,132,132,111,111,10,12,8,8,0.5,0.5
2026-07-24T1500,3039A,111.1911,34.7829,三门峡市,三门峡市第一小学,,43,41,37,25,23,135,135,114,114,8,9,8,9,0.6,0.6
2026-07-24T1500,3598A,111.1031,34.719,三门峡市,富达温泉假日酒店,,39,23,36,19,22,122,122,98,98,11,12,7,7,0.5,0.5
2026-07-24T1500,2324A,117.621,26.2626,三明市,三钢,,38,37,35,22,26,120,120,92,92,4,13,5,8,0.4,0.9
2026-07-24T1500,2325A,117.6352,26.2714,三明市,三明二中,,48,48,37,26,24,116,116,90,90,4,11,5,6,0.4,0.7
2026-07-24T1500,2326A,117.6028,26.2377,三明市,三元区政府,,39,38,38,27,23,122,122,90,90,4,12,6,7,0.4,0.7
2026-07-24T1500,1877A,109.4962,18.2682,三亚市,河西子站,,30,30,35,16,19,73,73,73,73,4,4,3,3,0.3,0.3
2026-07-24T1500,3540A,109.7348,18.3443,三亚市,君悦子站,,32,32,35,15,17,77,77,76,76,3,3,3,3,0.3,0.3
2026-07-24T1500,4135A,109.1714,18.3739,三亚市,城东小学站,,32,32,32,13,19,74,74,75,75,3,5,/,/,/,/
2026-07-24T1500,2624A,91.7592,29.234,山南市,山南监测站,,32,6,6,3,2,100,100,82,82,2,3,6,6,0.2,0.2
2026-07-24T1500,2625A,91.7701,29.2436,山南市,山南人民医院,,31,6,10,3,2,98,98,81,81,2,4,7,5,0.2,0.3
2026-07-24T1500,1674A,116.6795,23.3666,汕头市,金平子站,臭氧1小时(O3_1h),65,65,38,32,22,172,172,109,109,12,11,4,5,0.7,0.7
2026-07-24T1500,1675A,116.7248,23.3632,汕头市,龙湖子站,颗粒物(PM10),56,58,32,27,21,130,130,96,96,5,8,5,5,/,/
2026-07-24T1500,1676A,116.7257,23.2774,汕头市,濠江子站,颗粒物(PM10),62,66,40,30,21,152,152,115,115,10,11,7,6,/,/
2026-07-24T1500,1677A,116.7518,23.4712,汕头市,澄海子站,颗粒物(PM10),58,61,42,24,22,132,132,96,96,6,9,4,5,0.7,0.7
2026-07-24T1500,1678A,116.6088,23.2539,汕头市,潮阳子站,颗粒物(PM10),59,62,33,27,20,140,140,83,83,9,5,8,7,0.7,0.5
2026-07-24T1500,3444A,116.4539,23.2684,汕头市,潮南峡山,,42,40,45,29,23,116,116,78,78,6,7,7,7,0.6,0.6
2026-07-24T1500,3624A,116.4069,23.2533,汕头市,潮南子站,颗粒物(PM10),56,58,46,26,24,98,98,77,77,6,5,6,7,/,/
2026-07-24T1500,1693A,115.3653,22.7751,汕尾市,市环保局,,46,46,34,19,17,106,106,75,75,4,4,6,6,0.4,0.4
2026-07-24T1500,1695A,115.362,22.7926,汕尾市,新城中学,,44,44,34,20,17,106,106,72,72,3,3,7,6,0.5,0.5
2026-07-24T1500,2645A,109.9155,33.8714,商洛市,监测站,,44,24,25,20,16,140,140,93,93,5,11,7,7,0.5,0.5
2026-07-24T1500,3045A,109.9647,33.8486,商洛市,商州区中学,,40,37,25,17,15,125,125,91,91,6,13,5,7,0.5,0.4
2026-07-24T1500,2408A,115.6701,34.4283,商丘市,环境监测站,臭氧1小时(O3_1h),57,17,21,12,14,165,165,130,130,3,6,5,5,0.3,0.4
2026-07-24T1500,2409A,115.6458,34.4047,商丘市,粮食局,,45,12,21,3,11,141,141,118,118,2,6,3,3,0.1,0.2
2026-07-24T1500,3171A,115.6069,34.4465,商丘市,梁园区档案局,,49,19,27,12,12,155,155,125,125,4,8,2,1,0.2,0.3
2026-07-24T1500,4119A,115.6701,34.3767,商丘市,北海东路185号,,45,11,22,7,12,142,142,121,121,3,8,4,4,0.3,0.4
2026-07-24T1500,4120A,115.6172,34.3704,商丘市,中山大街3号,,45,11,23,3,9,141,141,105,105,3,10,5,5,0.2,0.4
2026-07-24T1500,1141A,121.401,31.2382,上海市,普陀,臭氧1小时(O3_1h),85,56,45,28,25,188,188,124,124,14,15,7,6,0.3,0.3
2026-07-24T1500,1142A,121.4774,31.2043,上海市,十五厂,颗粒物(PM10),53,54,44,27,26,149,149,112,112,13,13,6,6,0.4,0.5
2026-07-24T1500,1143A,121.4673,31.3011,上海市,虹口,臭氧1小时(O3_1h),73,51,44,33,27,178,178,126,126,6,8,4,4,0.8,0.8
2026-07-24T1500,1147A,121.4253,31.226,上海市,静安监测站,臭氧1小时(O3_1h),85,46,46,31,27,188,188,130,130,11,13,8,8,0.7,0.7
2026-07-24T1500,1148A,121.7029,31.1905,上海市,浦东川沙,,48,41,42,23,24,152,152,108,108,6,9,9,9,0.5,0.5
2026-07-24T1500,1149A,121.5339,31.229,上海市,浦东新区监测站,,44,43,40,28,25,139,139,103,103,6,10,7,7,0.6,0.6
2026-07-24T1500,1150A,121.5776,31.2038,上海市,浦东张江,,50,45,39,25,23,157,157,116,116,5,8,7,7,0.3,0.3
2026-07-24T1500,3265A,121.4242,31.3303,上海市,宝山庙行,臭氧1小时(O3_1h),88,50,48,32,27,190,190,123,123,6,9,12,12,0.3,0.3
2026-07-24T1500,3266A,121.8789,31.4662,上海市,崇明上实东滩,臭氧1小时(O3_1h),53,45,38,20,21,162,162,108,108,7,11,4,4,0.4,0.3
2026-07-24T1500,3268A,121.316,31.2839,上海市,嘉定南翔,,49,48,44,28,26,156,156,114,114,9,19,4,4,0.2,0.2
2026-07-24T1500,3269A,121.3357,30.7455,上海市,金山新城,NA,NA,41,42,24,24,146,146,99,99,NA,8,4,4,0.4,0.4
2026-07-24T1500,3270A,121.4996,31.0741,上海市,闵行浦江,,44,44,43,23,24,128,128,96,96,6,10,6,6,0.5,0.6
2026-07-24T1500,3271A,121.2886,31.1663,上海市,青浦徐泾,臭氧1小时(O3_1h),59,47,43,31,26,167,167,114,114,2,7,6,6,0.5,0.5
2026-07-24T1500,3272A,121.2193,31.0382,上海市,松江图书馆,颗粒物(PM10),61,65,57,26,29,160,160,109,109,8,12,6,6,0.7,0.6
2026-07-24T1500,3273A,121.3904,31.206,上海市,长宁仙霞,颗粒物(PM10),72,80,44,24,27,168,168,108,108,16,14,9,8,0.3,0.3
2026-07-24T1500,3274A,121.7964,31.0507,上海市,浦东惠南,,46,42,42,21,21,146,146,103,103,9,13,8,8,0.7,0.7
2026-07-24T1500,3544A,121.4891,30.925,上海市,奉贤南桥新城,NA,NA,NA,43,22,23,135,135,94,94,6,11,4,4,0.5,0.5
2026-07-24T1500,4183A,121.417401,31.16637,上海市,冠生园路458号,,48,41,40,27,24,152,152,104,104,12,14,6,6,0.4,0.5
2026-07-24T1500,4205A,121.541914,31.268301,上海市,宁武路151号,颗粒物(PM10),60,63,53,26,26,133,133,100,100,22,16,7,7,0.5,0.5
2026-07-24T1500,2382A,117.9758,28.4439,上饶市,市监测站,,49,49,51,26,23,123,123,91,91,2,6,6,10,/,/
2026-07-24T1500,2383A,117.9521,28.4637,上饶市,凤凰光学,,42,35,37,29,25,127,127,100,100,2,8,4,5,0.3,0.3
2026-07-24T1500,3685A,117.897,28.4316,上饶市,双创科技城,,39,39,42,23,25,122,122,92,92,4,11,3,7,0.7,0.7
2026-07-24T1500,4211A,118.190438,28.444845,上饶市,裕丰大道,,32,25,35,22,22,96,96,85,85,3,6,10,12,0.4,0.5
2026-07-24T1500,1669A,113.5821,24.7733,韶关市,市八中,颗粒物(PM10),60,64,47,34,24,129,129,105,105,7,12,9,19,0.5,0.7
2026-07-24T1500,1671A,113.5916,24.7973,韶关市,园林处,,42,27,43,23,31,132,132,102,102,6,15,10,17,/,/
2026-07-24T1500,1673A,113.5971,24.6864,韶关市,曲江监测站,,35,29,46,20,27,112,112,83,83,8,17,7,9,0.6,0.6
2026-07-24T1500,2809A,113.6668,24.7756,韶关市,大学路288号,颗粒物(PM10),55,57,48,21,28,141,141,100,100,7,10,12,17,/,/
2026-07-24T1500,3622A,113.5556,24.8082,韶关市,碧湖山庄,颗粒物(PM10),56,58,49,34,28,123,123,96,96,8,12,6,7,0.5,0.6
2026-07-24T1500,2464A,111.5277,27.2442,邵阳市,市化工厂,,23,16,24,13,6,71,71,61,61,2,5,11,11,0.4,0.3
2026-07-24T1500,2466A,111.4327,27.2276,邵阳市,市环保局,,30,30,27,14,17,72,72,58,58,5,6,4,4,0.4,0.4
2026-07-24T1500,4218A,111.446,27.2472,邵阳市,北塔二期4-26地块,,22,22,30,6,12,62,62,50,50,13,7,5,7,0.5,0.6
2026-07-24T1500,4219A,111.4739,27.2282,邵阳市,邵水西路287号,,25,19,24,14,17,77,77,65,65,3,4,1,2,0.3,0.4
2026-07-24T1500,1247A,120.6053,29.9927,绍兴市,城东开发委,,39,39,38,23,24,113,113,94,94,6,7,9,10,0.6,0.6
2026-07-24T1500,2921A,120.5482,30.0003,绍兴市,树下王站,,31,26,31,18,22,99,99,92,92,4,7,3,4,0.4,0.4
2026-07-24T1500,3408A,120.5685,29.936,绍兴市,绍兴中专,,31,29,36,20,21,98,98,89,89,2,4,5,5,0.7,0.7
2026-07-24T1500,3409A,120.4905,30.086,绍兴市,柯桥区政府,,37,33,38,25,25,116,116,112,112,4,9,5,5,0.6,0.6
2026-07-24T1500,3410A,120.8751,30.0249,绍兴市,重华小学,,35,33,38,24,22,103,103,86,86,8,10,11,11,0.8,0.9
2026-07-24T1500,3411A,120.837,30.0137,绍兴市,上虞中学,NA,NA,NA,44,NA,23,NA,NA,104,NA,NA,16,NA,10,NA,0.7
2026-07-24T1500,3560A,120.4715,30.0414,绍兴市,柯桥妇保,NA,NA,NA,NA,NA,NA,NA,NA,NA,NA,NA,NA,NA,NA,NA,NA
2026-07-24T1500,3658A,120.6156,30.0762,绍兴市,袍江中学,,40,40,45,23,24,117,117,98,98,5,8,6,6,0.2,0.3
2026-07-24T1500,1356A,114.0948,22.5506,深圳市,通心岭子站,,43,41,37,20,18,136,136,70,70,11,14,4,4,0.7,0.6
2026-07-24T1500,1357A,114.1153,22.5713,深圳市,洪湖,,47,41,40,22,18,149,149,73,73,8,14,6,6,0.5,0.5
2026-07-24T1500,1358A,113.9823,22.5398,深圳市,华侨城,,42,42,34,21,18,96,96,57,57,24,13,/,/,/,/
