timepoint,stationcode,longitude,latitude,area,positionname,primarypollutant,aqi,pm10,pm10_24h,pm2_5,pm2_5_24h,o3,o3_24h,o3_8h,o3_8h_24h,no2,no2_24h,so2,so2_24h,co,co_24h
2026-04-24T2300,2568A,102.2503,31.8896,阿坝藏族羌族自治州,马师校,颗粒物(PM10),53,53,37,10,14,93,93,124,114,6,4,6,6,0.2,0.2
2026-04-24T2300,3994A,102.2174,31.9016,阿坝藏族羌族自治州,马尔康中学西区,,31,31,31,12,15,95,95,121,114,6,5,3,4,0.2,0.2
2026-04-24T2300,2695A,80.2899,41.1684,阿克苏地区,电视台,颗粒物(PM10),216,361,175,115,69,85,85,95,95,12,19,3,3,0.5,0.7
2026-04-24T2300,2696A,80.2592,41.1541,阿克苏地区,艺术中心,颗粒物(PM10),196,341,160,115,76,75,75,90,84,22,27,4,4,0.5,0.7
2026-04-24T2300,2205A,105.699,38.8409,阿拉善盟,蒙二幼,,39,39,79,10,27,99,99,115,108,3,4,8,8,0.4,0.4
2026-04-24T2300,2206A,105.7198,38.8508,阿拉善盟,环保局新楼,,39,39,75,14,23,103,103,110,106,3,4,8,8,0.5,0.5
2026-04-24T2300,2708A,88.1266,47.8515,阿勒泰地区,市站,,33,33,25,12,5,49,49,103,85,14,8,6,5,0.4,0.2
2026-04-24T2300,4166A,88.1198,47.7931,阿勒泰地区,阿勒泰路33号,,36,36,27,8,4,58,58,101,87,14,7,7,6,0.3,0.2
2026-04-24T2300,2630A,80.1171,32.4999,阿里地区,阿里监测站,,30,13,16,6,5,95,95,98,98,4,5,7,7,0.4,0.4
2026-04-24T2300,3192A,80.0906,32.5029,阿里地区,阿里藏医院,,44,44,17,3,4,109,109,107,107,1,4,7,7,0.3,0.4
2026-04-24T2300,2644A,109.0088,32.6974,安康市,汉滨区检察院,颗粒物(PM10),70,78,32,22,13,48,48,102,82,8,13,6,7,0.3,0.4
2026-04-24T2300,4054A,109.0324,32.6913,安康市,市邮政管理局,颗粒物(PM10),55,57,35,22,16,46,46,106,84,16,15,5,13,0.5,0.6
2026-04-24T2300,2291A,117.0806,30.5181,安庆市,环科院,,35,35,20,16,12,29,29,120,81,63,20,6,6,0.6,0.5
2026-04-24T2300,2292A,117.0331,30.5118,安庆市,马山宾馆,二氧化氮(NO2),54,36,21,20,13,2,2,109,70,108,25,5,5,0.6,0.4
2026-04-24T2300,2294A,116.9897,30.6146,安庆市,安庆大学,,33,33,19,15,13,37,37,108,87,27,11,3,4,0.4,0.4
2026-04-24T2300,3173A,117.0598,30.5351,安庆市,市人大,NA,NA,NA,17,17,12,14,14,126,NA,61,11,4,4,0.7,0.5
2026-04-24T2300,3123A,105.9408,26.2431,安顺市,凤凰山,,48,48,35,22,25,63,63,83,83,20,9,10,14,0.7,0.6
2026-04-24T2300,3124A,105.9443,26.2567,安顺市,金钟山,,36,33,32,25,25,70,70,77,77,8,6,9,11,0.6,0.6
2026-04-24T2300,3125A,105.8983,26.248,安顺市,娄家坡,细颗粒物(PM2.5),68,58,35,44,26,63,63,75,75,13,8,7,12,0.9,0.7
2026-04-24T2300,1819A,114.3552,36.1017,安阳市,红庙街,,46,46,51,20,27,83,83,121,109,15,13,4,5,0.3,0.3
2026-04-24T2300,1820A,114.361,36.0681,安阳市,银杏小区,,44,44,59,19,28,82,82,127,110,14,14,6,6,0.4,0.3
2026-04-24T2300,3141A,114.3921,36.0879,安阳市,信访局,,39,37,50,27,28,90,90,127,114,9,10,3,3,0.4,0.4
2026-04-24T2300,3669A,114.4706,36.0634,安阳市,左辅环卫站,,40,40,50,24,23,77,77,113,102,12,11,3,3,0.2,0.3
2026-04-24T2300,4117A,114.2918,36.0769,安阳市,钢三路198号,,42,42,42,21,27,77,77,119,106,13,12,2,3,0.4,0.4
2026-04-24T2300,1748A,123.0441,41.1201,鞍山市,深沟寺,颗粒物(PM10),64,69,66,32,30,114,114,140,134,25,17,21,14,1.2,0.7
2026-04-24T2300,1749A,123.011,41.0931,鞍山市,太阳城,颗粒物(PM10),72,80,69,38,34,108,108,136,130,23,14,19,11,1.3,0.7
2026-04-24T2300,1750A,123.0483,41.1445,鞍山市,太平,颗粒物(PM10),69,76,72,34,32,111,111,134,129,23,15,18,13,1.2,0.9
2026-04-24T2300,1751A,122.964,41.0968,鞍山市,铁西三道街,颗粒物(PM10),77,87,78,48,31,118,118,136,130,27,25,15,10,1.0,0.5
2026-04-24T2300,1753A,123.0219,41.0822,鞍山市,明达新区,颗粒物(PM10),68,74,67,35,31,118,118,135,131,22,15,21,12,1.2,0.8
2026-04-24T2300,4201A,122.944647,41.082639,鞍山市,兴盛南路290号,颗粒物(PM10),96,114,82,52,36,122,122,140,135,25,19,14,11,0.7,0.6
2026-04-24T2300,2195A,107.4206,40.7609,巴彦淖尔市,附二中,颗粒物(PM10),69,76,75,28,26,63,63,109,92,23,8,19,10,0.4,0.3
2026-04-24T2300,2196A,107.37,40.7372,巴彦淖尔市,市环保大楼,颗粒物(PM10),60,64,71,18,28,53,53,113,94,30,8,7,7,0.5,0.3
2026-04-24T2300,1956A,86.1476,41.7529,巴音郭楞蒙古自治州,孔雀公园,颗粒物(PM10),129,194,164,71,65,1,1,106,79,82,33,4,9,1.1,0.5
2026-04-24T2300,1957A,86.1971,41.7166,巴音郭楞蒙古自治州,棉纺厂,颗粒物(PM10),142,228,196,87,74,7,7,114,90,92,25,/,/,/,/
2026-04-24T2300,1958A,86.236,41.7172,巴音郭楞蒙古自治州,经济开发区,颗粒物(PM10),148,243,156,85,57,38,38,100,80,32,12,9,9,0.4,0.4
2026-04-24T2300,3181A,106.776805,31.852614,巴中市,市五中,,47,47,28,30,18,47,47,116,89,18,17,8,9,0.7,0.6
2026-04-24T2300,3183A,106.7419,31.8654,巴中市,圣泉水务公司,颗粒物(PM10),52,52,38,31,17,30,30,121,84,46,22,9,9,0.7,0.7
2026-04-24T2300,3616A,106.7617,31.8343,巴中市,市中心医院,颗粒物(PM10),59,62,34,33,20,43,43,117,88,28,20,9,10,0.8,0.6
2026-04-24T2300,2235A,122.7909,45.608,白城市,洮北区环保局,,29,29,55,8,30,81,81,101,91,9,13,4,4,0.2,0.3
2026-04-24T2300,2236A,122.8741,45.5725,白城市,市环保局,,26,22,57,9,34,81,81,92,83,10,19,5,5,0.3,0.4
2026-04-24T2300,2231A,126.4219,41.9172,白山市,喜丰,颗粒物(PM10),52,52,73,22,27,138,138,138,134,9,21,10,10,0.8,1
2026-04-24T2300,2232A,126.4082,41.9416,白山市,环保局,,46,34,45,22,23,145,145,137,136,7,16,13,11,0.6,0.7
2026-04-24T2300,2647A,104.1727,36.5448,白银市,第三小学,颗粒物(PM10),78,88,144,29,50,35,35,114,94,64,15,13,17,0.8,0.6
2026-04-24T2300,2648A,104.1467,36.5482,白银市,动力公司,颗粒物(PM10),55,56,138,21,48,20,20,116,95,72,15,5,10,0.3,0.4
2026-04-24T2300,2512A,106.6102,23.901,百色市,市监测站,,26,26,23,13,14,42,42,80,67,8,11,8,13,0.5,0.6
2026-04-24T2300,2513A,106.6524,23.8842,百色市,市中心血站,,35,NA,26,24,15,25,25,86,69,30,16,8,15,0.6,0.6
2026-04-24T2300,4133A,106.6273,23.8798,百色市,龙景西路,,35,35,27,23,15,38,38,86,73,15,12,10,16,0.8,0.8
2026-04-24T2300,2270A,117.396,32.9389,蚌埠市,工人疗养院,颗粒物(PM10),56,58,44,16,17,38,38,128,103,74,22,9,5,0.4,0.4
2026-04-24T2300,2271A,117.3606,32.9428,蚌埠市,百货大楼,,47,47,43,19,16,44,44,130,105,57,17,7,5,0.6,0.4
2026-04-24T2300,2273A,117.4183,32.8909,蚌埠市,蚌埠学院,颗粒物(PM10),51,51,43,19,20,50,50,125,106,41,21,4,5,0.4,0.5
2026-04-24T2300,2274A,117.3534,32.9672,蚌埠市,淮上区政府,颗粒物(PM10),58,61,43,20,15,44,44,149,111,68,27,7,5,0.4,0.3
2026-04-24T2300,2275A,117.3143,32.8977,蚌埠市,高新区,,48,48,41,22,18,70,70,128,106,33,20,8,7,0.5,0.4
2026-04-24T2300,3715A,117.3091,32.9314,蚌埠市,蚌埠田家炳中学,NA,NA,49,53,17,19,NA,NA,133,114,26,23,12,21,0.7,0.4
2026-04-24T2300,1585A,109.8761,40.6533,包头市,市环境监测站,,45,37,88,31,38,93,93,115,107,16,32,6,8,0.4,0.5
2026-04-24T2300,1587A,109.9992,40.5843,包头市,包头八中,,45,45,102,16,44,69,69,110,96,32,34,7,13,0.5,0.6
2026-04-24T2300,1589A,109.8641,40.6288,包头市,惠龙物流,,33,26,79,23,35,96,96,111,105,10,29,5,8,0.4,0.5
2026-04-24T2300,1590A,110.0376,40.5546,包头市,东河鸿龙湾,,46,46,104,20,39,75,75,115,94,29,46,11,14,0.4,0.6
2026-04-24T2300,3283A,109.9154,40.5684,包头市,滨河大厦,,38,38,86,20,45,92,92,112,100,14,40,9,12,0.3,0.5
2026-04-24T2300,3419A,109.9449,40.6259,包头市,包头市委党校,,30,30,94,7,33,91,91,111,101,14,32,7,10,0.4,0.5
2026-04-24T2300,3683A,109.8332,40.6577,包头市,昆区政府,,44,44,82,7,27,99,99,114,110,14,27,4,5,0.4,0.5
2026-04-24T2300,1931A,107.0802,34.3129,宝鸡市,竹园沟,颗粒物(PM10),76,86,68,23,21,52,52,104,85,11,12,7,7,0.3,0.4
2026-04-24T2300,1933A,107.1429,34.3549,宝鸡市,监测站,颗粒物(PM10),83,95,73,43,30,42,42,99,72,21,19,5,6,0.3,0.4
2026-04-24T2300,1934A,107.1172,34.3759,宝鸡市,技工学校,颗粒物(PM10),78,89,73,36,29,48,48,103,81,15,13,5,5,0.4,0.4
2026-04-24T2300,1936A,107.2025,34.3518,宝鸡市,文理学院,颗粒物(PM10),90,106,72,48,31,50,50,98,74,22,20,5,5,0.4,0.5
2026-04-24T2300,1937A,107.2396,34.3626,宝鸡市,三迪小学,颗粒物(PM10),102,124,83,45,31,22,22,98,60,49,29,5,5,0.6,0.5
2026-04-24T2300,4155A,107.1721,34.3558,宝鸡市,滨河北路,颗粒物(PM10),104,128,83,46,28,44,44,96,73,20,18,6,6,0.5,0.5
2026-04-24T2300,4308A,107.3898,34.3601,宝鸡市,陈仓区北开路21号,颗粒物(PM10),111,148,91,48,36,22,22,92,64,49,25,7,8,0.4,0.4
2026-04-24T2300,1051A,115.4803,38.8568,保定市,游泳馆,颗粒物(PM10),66,72,61,41,34,77,77,136,113,20,17,3,4,0.1,0.2
2026-04-24T2300,1052A,115.509,38.8895,保定市,华电二区,颗粒物(PM10),73,82,56,31,32,79,79,138,115,21,15,1,3,0.6,0.6
2026-04-24T2300,1053A,115.4588,38.9037,保定市,接待中心,颗粒物(PM10),79,90,63,44,35,74,74,120,103,17,12,1,3,0.3,0.3
2026-04-24T2300,1054A,115.4484,38.8344,保定市,地表水厂,颗粒物(PM10),78,88,71,32,31,76,76,131,105,17,17,5,5,0.3,0.4
2026-04-24T2300,3581A,115.3136,38.9511,保定市,满城区生态环境分局,颗粒物(PM10),88,102,80,41,35,72,72,136,117,18,15,3,4,0.4,0.3
2026-04-24T2300,3582A,115.4709,38.7628,保定市,清苑区第二中学,颗粒物(PM10),82,94,71,27,30,68,68,124,97,18,17,6,6,0.4,0.5
2026-04-24T2300,3583A,115.6231,39.0223,保定市,徐水物探局,颗粒物(PM10),101,121,88,46,37,38,38,123,92,60,23,3,3,0.4,0.4
2026-04-24T2300,4004A,115.4199,38.8665,保定市,双鹰农机,颗粒物(PM10),75,84,65,46,36,67,67,138,111,23,16,2,4,0.3,0.3
2026-04-24T2300,4034A,115.515,38.8589,保定市,植保所站,颗粒物(PM10),80,92,85,30,30,81,81,142,118,21,16,3,4,0.3,0.4
2026-04-24T2300,2594A,99.1589,25.1137,保山市,市环境监测站,细颗粒物(PM2.5),64,62,51,42,34,121,121,132,132,9,10,6,6,0.4,0.4
2026-04-24T2300,2595A,99.1616,25.1381,保山市,市环保局,细颗粒物(PM2.5),76,64,55,48,35,123,123,132,132,6,7,6,7,0.4,0.4
2026-04-24T2300,1867A,109.1435,21.4085,北海市,海滩公园,NA,NA,NA,27,34,18,NA,NA,64,NA,23,13,8,8,1.5,0.9
2026-04-24T2300,1868A,109.0983,21.466,北海市,新市环保局,,32,29,22,22,12,40,40,62,57,30,13,12,8,1.1,0.7
2026-04-24T2300,1869A,109.1775,21.5232,北海市,北海工业园,细颗粒物(PM2.5),52,46,28,36,19,38,38,53,49,20,14,22,9,0.8,0.8
2026-04-24T2300,3400A,109.1844,21.4396,北海市,龙潭自来水厂,,43,NA,23,30,14,43,43,56,56,22,12,9,9,1.3,0.9
2026-04-24T2300,1001A,116.3611,39.8786,北京市,万寿西宫,颗粒物(PM10),90,106,76,49,36,69,69,126,110,33,20,3,4,0.9,0.5
2026-04-24T2300,1003A,116.4174,39.9289,北京市,东四,细颗粒物(PM2.5),101,108,75,61,44,81,81,134,120,32,18,3,3,0.9,0.5
2026-04-24T2300,1004A,116.4073,39.8858,北京市,天坛,细颗粒物(PM2.5),76,82,67,48,37,40,40,116,91,28,21,4,5,0.7,0.3
2026-04-24T2300,1005A,116.4622,39.9364,北京市,农展馆,颗粒物(PM10),85,98,74,49,39,67,67,132,116,32,17,3,4,1.0,0.6
2026-04-24T2300,1006A,116.3399,39.9293,北京市,官园,细颗粒物(PM2.5),100,110,78,60,41,80,80,124,111,34,24,2,2,0.6,0.4
2026-04-24T2300,1007A,116.2879,39.9613,北京市,海淀万柳,细颗粒物(PM2.5),92,105,81,56,43,48,48,106,88,43,33,4,5,0.7,0.5
2026-04-24T2300,1008A,116.6635,40.1349,北京市,顺义新城,细颗粒物(PM2.5),102,115,86,62,48,62,62,123,105,24,16,3,2,0.7,0.6
2026-04-24T2300,1009A,116.6275,40.327,北京市,怀柔镇,细颗粒物(PM2.5),84,84,76,52,46,82,82,122,106,16,20,3,4,0.6,0.6
2026-04-24T2300,1010A,116.2295,40.217,北京市,昌平镇,颗粒物(PM10),53,53,70,26,39,83,83,122,114,18,23,3,3,0.4,0.4
2026-04-24T2300,1011A,116.3968,39.982,北京市,奥体中心,颗粒物(PM10),89,104,73,53,37,58,58,120,104,45,23,3,4,0.8,0.5
2026-04-24T2300,3418A,116.8336,40.4095,北京市,密云新城,颗粒物(PM10),73,82,75,42,38,67,67,123,106,15,17,3,4,0.4,0.4
2026-04-24T2300,3671A,116.0879,39.9725,北京市,门头沟三家店,颗粒物(PM10),75,85,79,44,44,64,64,113,90,30,27,2,2,0.4,0.5
2026-04-24T2300,3672A,116.1507,39.8246,北京市,丰台云岗,颗粒物(PM10),96,114,85,49,43,72,72,119,96,34,25,2,2,0.6,0.5
2026-04-24T2300,3674A,115.9578,39.7602,北京市,房山燕山,,46,46,72,18,41,69,69,115,96,13,17,3,3,0.3,0.4
2026-04-24T2300,3675A,116.4669,39.7734,北京市,大兴旧宫,颗粒物(PM10),83,96,72,48,40,70,70,128,112,26,17,3,2,0.7,0.5
2026-04-24T2300,3694A,115.9859,40.4562,北京市,延庆石河营,颗粒物(PM10),63,67,66,25,34,67,67,122,91,22,19,1,2,0.5,0.5
2026-04-24T2300,3695A,116.6151,40.3052,北京市,怀柔新城,细颗粒物(PM2.5),82,84,72,51,40,83,83,116,103,13,17,4,4,0.5,0.5
2026-04-24T2300,3696A,116.2542,39.8764,北京市,丰台小屯,颗粒物(PM10),93,109,79,52,36,54,54,114,93,35,20,2,3,0.7,0.4
2026-04-24T2300,3697A,116.8399,40.3843,北京市,密云镇,颗粒物(PM10),83,95,74,42,41,47,47,126,102,43,19,5,7,0.6,0.5
2026-04-24T2300,4057A,115.9423,40.4431,北京市,延庆百泉,颗粒物(PM10),55,57,65,26,37,72,72,125,96,20,17,1,1,0.6,0.6
2026-04-24T2300,4058A,116.6598,39.9164,北京市,通州新华,颗粒物(PM10),93,109,78,52,40,62,62,130,115,51,23,4,5,0.8,0.5
2026-04-24T2300,4182A,116.1942,39.9158,北京市,石景山八角,颗粒物(PM10),97,115,92,49,41,63,63,118,100,40,32,7,5,0.6,0.4
2026-04-24T2300,4194A,117.078628,40.151726,北京市,平谷新城,细颗粒物(PM2.5),103,102,80,63,50,93,93,127,121,6,7,2,3,0.6,0.5
2026-04-24T2300,1761A,123.8274146,41.31234549,本溪市,大峪,颗粒物(PM10),63,67,71,36,32,100,100,144,130,17,18,8,8,0.4,0.6
2026-04-24T2300,1763A,123.7169,41.3094,本溪市,彩屯,细颗粒物(PM2.5),92,83,69,56,38,102,102,135,118,23,23,12,16,1.3,1.8
2026-04-24T2300,1764A,123.7672166,41.28649327,本溪市,东明,颗粒物(PM10),55,57,75,37,29,130,130,140,137,20,21,5,5,0.5,0.6
2026-04-24T2300,1765A,123.799345,41.266614,本溪市,新立屯,,49,48,57,34,26,113,113,147,133,21,14,9,9,0.5,0.5
2026-04-24T2300,1766A,123.829144,41.336777,本溪市,威宁,颗粒物(PM10),70,78,88,34,32,86,86,142,120,24,22,8,9,0.6,0.7
2026-04-24T2300,2587A,105.287,27.3133,毕节市,八中,颗粒物(PM10),63,68,50,39,27,8,8,57,40,24,14,8,9,0.8,0.6
2026-04-24T2300,2588A,105.3079,27.2987,毕节市,师专,颗粒物(PM10),57,59,46,30,23,14,14,59,40,22,11,9,11,0.7,0.5
2026-04-24T2300,4263A,105.3688,27.3598,毕节市,工业大道,,50,50,46,24,25,10,10,54,43,21,12,11,13,/,/
2026-04-24T2300,1629A,117.9961,37.3604,滨州市,第二水厂,颗粒物(PM10),60,63,61,17,18,69,69,122,102,29,21,14,9,0.7,0.6
2026-04-24T2300,1630A,117.9789,37.3931,滨州市,北中新校,颗粒物(PM10),51,51,54,18,18,69,69,129,109,31,20,10,9,0.3,0.3
2026-04-24T2300,3514A,117.9379,37.3959,滨州市,中海酒店,,48,48,51,15,12,54,54,132,104,46,25,8,9,0.4,0.3
2026-04-24T2300,3515A,117.9381509,37.35547456,滨州市,开发区一中,颗粒物(PM10),60,63,62,18,17,63,63,114,94,36,27,20,12,0.9,0.7
2026-04-24T2300,3516A,118.0914,37.6938,滨州市,金海六路,颗粒物(PM10),56,58,60,17,19,74,74,126,97,29,26,13,9,0.7,0.7
2026-04-24T2300,4028A,117.9955,37.3752,滨州市,滨州市西街道办事处,颗粒物(PM10),58,61,61,17,16,58,58,127,105,30,19,12,8,0.6,0.4
2026-04-24T2300,2311A,115.8071,33.8399,亳州市,污水处理厂,,31,31,29,13,11,94,94,115,101,13,10,6,6,0.1,0.1
2026-04-24T2300,2312A,115.7789,33.8519,亳州市,三国揽胜宫,NA,NA,NA,34,NA,12,NA,NA,110,108,NA,8,NA,9,NA,0.2
2026-04-24T2300,3332A,115.7631,33.803,亳州市,亳州学院,,30,25,27,12,13,93,93,109,102,8,7,7,9,0.4,0.4
2026-04-24T2300,2693A,82.0482,44.8553,博尔塔拉蒙古自治州,市党校,,26,26,59,6,10,49,49,74,68,19,14,3,3,0.4,0.3
2026-04-24T2300,2694A,82.0805,44.8966,博尔塔拉蒙古自治州,市环保局,NA,NA,22,58,9,13,35,35,68,60,37,21,NA,4,0.5,0.4
2026-04-24T2300,1071A,116.8733,38.2922,沧州市,沧县城建局,颗粒物(PM10),58,60,54,23,22,86,86,121,105,18,16,4,6,0.6,0.6
2026-04-24T2300,1072A,116.8462,38.3189,沧州市,电视转播站,颗粒物(PM10),58,60,58,25,24,100,100,130,122,17,13,8,8,0.3,0.2
2026-04-24T2300,1073A,116.8588,38.3161,沧州市,市环保局,颗粒物(PM10),74,83,61,31,23,79,79,126,114,23,15,6,7,0.6,0.6
2026-04-24T2300,3324A,116.8011,38.294,沧州市,河北水利电力学院,颗粒物(PM10),58,61,56,22,29,77,77,115,101,27,16,8,8,0.3,0.2
2026-04-24T2300,2622A,97.1813,31.1289,昌都市,昌都监测站,,49,49,22,15,6,38,38,96,77,36,15,7,8,0.7,0.6
2026-04-24T2300,3719A,97.1707,31.1428,昌都市,昌都会议中心,,49,49,18,13,7,71,71,99,92,7,5,6,5,0.4,0.3
2026-04-24T2300,2692A,87.2722,44.0298,昌吉回族自治州,新区政务中心,,19,19,43,10,14,28,28,87,72,17,15,8,6,0.3,0.4
2026-04-24T2300,3613A,87.3069,44.0093,昌吉回族自治州,亚心广场,,36,27,58,25,18,51,51,89,79,17,15,14,8,0.4,0.4
2026-04-24T2300,4164A,87.2057,43.9289,昌吉回族自治州,财政所,,41,41,53,21,11,50,50,89,78,14,9,14,8,0.3,0.3
2026-04-24T2300,1120A,125.2874,43.9024,长春市,客车厂,"颗粒物(PM10),细颗粒物(PM2.5)",68,74,98,44,68,56,56,146,98,30,24,7,10,0.4,0.6
2026-04-24T2300,1121A,125.2943,43.8508,长春市,邮电学院,颗粒物(PM10),59,62,95,35,64,72,72,156,111,11,40,7,9,0.5,0.7
2026-04-24T2300,1122A,125.3648,43.8745,长春市,劳动公园,颗粒物(PM10),55,57,96,33,63,70,70,156,108,25,25,7,10,0.5,0.7
2026-04-24T2300,1123A,125.3233,43.8781,长春市,园林处,颗粒物(PM10),54,55,90,36,62,71,71,159,111,16,23,7,10,0.4,0.6
2026-04-24T2300,1124A,125.4604,43.7904,长春市,净月潭,颗粒物(PM10),54,55,89,30,64,74,74,155,104,13,17,6,9,0.4,0.7
2026-04-24T2300,1126A,125.38,43.8422,长春市,经开区环卫处,颗粒物(PM10),55,56,100,29,63,63,63,158,112,21,23,6,9,0.6,0.7
2026-04-24T2300,1127A,125.234,43.7761,长春市,高新区管委会,,50,50,92,28,63,78,78,148,106,10,17,7,10,0.3,0.6
2026-04-24T2300,1128A,125.1695,43.83,长春市,岱山公园,颗粒物(PM10),58,60,99,34,67,68,68,162,113,30,25,4,7,0.4,0.6
2026-04-24T2300,4281A,125.334645,43.916281,长春市,北亚泰大街1068号,"颗粒物(PM10),细颗粒物(PM2.5)",64,69,96,42,66,57,57,154,104,32,29,6,9,0.5,0.6
2026-04-24T2300,1335A,113.082,28.2421,长沙市,经开区环保局,,50,50,37,32,25,50,50,103,89,48,23,3,3,0.6,0.5
2026-04-24T2300,1336A,112.8873,28.2202,长沙市,高开区环保局,,42,42,36,27,26,72,72,114,106,21,21,6,7,0.6,0.5
2026-04-24T2300,1337A,113.0785,28.2012,长沙市,马坡岭,"颗粒物(PM10),细颗粒物(PM2.5)",60,64,40,40,31,11,11,113,88,66,22,6,8,0.8,0.7
2026-04-24T2300,1338A,112.9448,28.1894,长沙市,湖南师范大学,,47,47,41,20,29,26,26,109,NA,41,23,6,6,0.6,0.6
2026-04-24T2300,1339A,113.0177,28.1322,长沙市,雨花区环保局,,42,42,40,27,27,66,66,115,102,25,23,4,4,0.7,0.7
2026-04-24T2300,1340A,112.9795,28.2593,长沙市,伍家岭,"颗粒物(PM10),细颗粒物(PM2.5)",70,77,49,45,30,5,5,99,66,68,26,4,4,0.9,0.5
2026-04-24T2300,1341A,113.002,28.1944,长沙市,火车新站,细颗粒物(PM2.5),60,60,42,40,30,35,35,108,90,53,27,4,5,0.7,0.4
2026-04-24T2300,1342A,112.9846,28.1177,长沙市,天心区环保局,,45,41,41,31,30,67,67,118,104,33,28,5,5,0.6,0.5
2026-04-24T2300,1343A,112.8906,28.1307,长沙市,湖南中医药大学,颗粒物(PM10),56,58,39,33,29,6,6,119,81,65,29,6,6,0.7,0.6
2026-04-24T2300,1727A,113.1146,36.1547,长治市,清华站,NA,NA,38,37,23,18,NA,NA,123,112,22,16,8,8,0.7,0.4
2026-04-24T2300,1730A,113.0887,36.2126,长治市,审计局,,36,36,40,20,19,74,74,124,107,22,14,8,9,0.5,0.4
2026-04-24T2300,1731A,113.0845,36.1856,长治市,长治八中,颗粒物(PM10),55,56,48,17,20,62,62,120,100,35,19,8,10,0.5,0.4
2026-04-24T2300,2845A,113.1561,36.1912,长治市,德盛苑,,38,38,32,22,16,99,99,129,117,14,12,9,8,0.5,0.4
2026-04-24T2300,3568A,113.0603,36.0464,长治市,向阳小学,颗粒物(PM10),58,60,65,18,19,76,76,129,103,32,21,6,8,0.6,0.5
2026-04-24T2300,3569A,112.8788,36.315,长治市,屯留一中,,48,48,47,17,18,87,87,114,100,18,27,11,8,0.4,0.5
2026-04-24T2300,4189A,113.113092,36.199482,长治市,英华南巷50号,,46,46,44,19,19,81,81,128,109,18,13,7,6,0.6,0.5
2026-04-24T2300,4190A,113.23666,36.33435,长治市,学府街1号,,38,38,46,18,18,97,97,124,105,10,18,4,4,0.7,0.6
2026-04-24T2300,1854A,111.696,28.9725,常德市,市二中,,35,24,32,24,26,68,68,107,90,27,14,9,9,0.8,0.8
2026-04-24T2300,3138A,111.7152,29.0288,常德市,武陵区永安,,36,28,33,25,34,96,96,114,107,12,12,6,6,0.6,0.6
2026-04-24T2300,3139A,111.6891,28.9881,常德市,鼎城区玉霞,,35,31,30,24,26,76,76,113,101,13,11,8,9,0.7,0.7
2026-04-24T2300,3140A,111.6651,29.0526,常德市,武陵区长庚,,36,32,33,25,29,92,92,115,106,12,10,9,9,0.8,0.7
2026-04-24T2300,1196A,119.9524,31.7586,常州市,市监测站,颗粒物(PM10),64,69,74,32,28,45,45,152,117,71,38,6,6,0.8,0.7
2026-04-24T2300,1200A,119.9351,31.703,常州市,武进监测站,细颗粒物(PM2.5),103,119,62,63,30,54,54,151,125,71,30,8,7,1.1,0.6
2026-04-24T2300,3002A,119.9701,31.813,常州市,行政中心,颗粒物(PM10),63,67,60,28,28,40,40,139,108,77,35,8,8,0.4,0.3
2026-04-24T2300,3003A,120.0434,31.7726,常州市,经开区,颗粒物(PM10),67,73,65,29,24,28,28,153,104,76,33,8,6,0.6,0.6
2026-04-24T2300,3010A,119.8919,31.7892,常州市,钟楼,细颗粒物(PM2.5),68,69,54,44,27,49,49,163,127,77,39,9,9,0.4,0.2
2026-04-24T2300,3429A,119.8595,31.706,常州市,武进经发区,细颗粒物(PM2.5),108,107,63,68,33,64,64,154,111,86,39,10,8,0.8,0.6
2026-04-24T2300,3430A,119.5812,31.7256,常州市,金坛城区,细颗粒物(PM2.5),82,86,48,51,27,89,89,164,142,44,15,11,12,0.7,0.6
2026-04-24T2300,4089A,119.9551,31.863,常州市,崇义南街5-H号,颗粒物(PM10),79,90,67,38,28,12,12,147,94,102,43,8,9,0.7,0.6
2026-04-24T2300,2220A,120.4318,41.588,朝阳市,西梁,颗粒物(PM10),75,85,67,35,34,19,19,127,70,57,24,15,11,0.7,0.6
2026-04-24T2300,2221A,120.452,41.565,朝阳市,河畔小区,颗粒物(PM10),88,102,60,23,30,58,58,134,93,36,18,13,9,0.6,0.6
2026-04-24T2300,2222A,120.4176,41.5648,朝阳市,八里堡,颗粒物(PM10),87,101,65,26,38,13,13,128,70,64,27,10,10,0.8,0.8
2026-04-24T2300,3026A,116.6179,23.6608,潮州市,市政府,,12,11,11,8,9,29,29,38,28,7,8,3,3,0.6,0.6
2026-04-24T2300,4036A,116.646,23.676,潮州市,金山,,9,6,9,3,7,27,27,31,28,3,5,2,2,0.4,0.5
2026-04-24T2300,2473A,113.0116,25.8228,郴州市,市职中,,40,33,30,28,21,17,17,104,70,33,19,5,6,0.7,0.7
2026-04-24T2300,2475A,113.0381,25.8074,郴州市,市审计局,NA,NA,38,32,33,24,NA,NA,102,90,31,18,NA,4,/,/
2026-04-24T2300,2476A,113.0348,25.7757,郴州市,市环保局,细颗粒物(PM2.5),94,NA,40,57,28,9,9,95,67,49,19,6,6,0.7,0.7
2026-04-24T2300,4252A,113.0138,25.8011,郴州市,好美居路49号,,42,42,30,26,20,11,11,105,75,38,17,3,5,/,/
2026-04-24T2300,1431A,103.9727,30.7242,成都市,金泉两河,细颗粒物(PM2.5),86,90,70,53,44,22,22,174,136,68,26,3,4,0.8,0.5
2026-04-24T2300,1432A,104.1423,30.6765,成都市,十里店,细颗粒物(PM2.5),78,80,52,49,34,71,71,164,140,47,22,4,5,0.8,0.6
2026-04-24T2300,1433A,104.0594,30.5765,成都市,三瓦窑,颗粒物(PM10),70,77,55,44,31,5,5,164,121,106,36,3,4,1.1,0.8
2026-04-24T2300,1434A,104.1122,30.6306,成都市,沙河铺,细颗粒物(PM2.5),94,82,54,57,33,38,38,143,121,55,31,2,3,1.2,0.5
2026-04-24T2300,2880A,104.0219,30.6561,成都市,大石西路,细颗粒物(PM2.5),88,81,62,54,40,35,35,156,122,67,28,4,5,0.9,0.6
2026-04-24T2300,3136A,104.2724,30.559,成都市,龙泉驿区区政府,颗粒物(PM10),51,51,37,35,24,109,109,148,133,18,11,8,8,0.6,0.5
2026-04-24T2300,3357A,104.0028,30.6891,成都市,金博路,细颗粒物(PM2.5),90,75,60,55,43,24,24,169,134,99,39,5,6,1.0,0.7
2026-04-24T2300,3359A,104.056,30.5228,成都市,华阳,细颗粒物(PM2.5),88,75,48,54,29,27,27,163,121,69,23,5,5,1.1,0.5
2026-04-24T2300,3488A,104.387954,30.746684,成都市,青石路225号,颗粒物(PM10),54,55,40,30,25,105,105,164,136,34,24,4,5,0.8,0.7
2026-04-24T2300,3489A,104.0788,30.4054,成都市,科学城,颗粒物(PM10),57,59,48,34,33,106,106,165,140,13,12,6,6,0.6,0.5
2026-04-24T2300,4011A,103.8505,30.6946,成都市,光华大道三段,细颗粒物(PM2.5),76,74,71,48,42,69,69,175,144,41,19,5,7,0.9,0.6
2026-04-24T2300,4144A,104.3257,30.6406,成都市,八角井街185号,颗粒物(PM10),69,76,49,31,25,100,100,146,128,25,15,6,6,0.6,0.5
2026-04-24T2300,4224A,104.2433276,30.53529463,成都市,鲸龙路1057号,细颗粒物(PM2.5),60,62,49,40,31,87,87,158,124,44,25,8,7,0.7,0.6
2026-04-24T2300,1062A,117.9531,40.908,承德市,铁路,颗粒物(PM10),73,81,65,36,31,47,47,127,99,32,20,2,5,0.4,0.4
2026-04-24T2300,1063A,117.9397,40.9763,承德市,中国银行,颗粒物(PM10),52,52,64,23,31,59,59,122,101,12,14,1,5,0.3,0.4
2026-04-24T2300,4073A,117.9462,40.95,承德市,杏林街1号,颗粒物(PM10),54,55,66,24,39,60,60,130,111,25,15,2,4,0.3,0.4
2026-04-24T2300,4274A,117.7994,40.9605,承德市,滨河大街98号,颗粒物(PM10),51,51,53,31,29,59,59,125,94,18,16,3,16,0.3,0.5
2026-04-24T2300,2314A,117.4698,30.6617,池州市,池州学院,,33,33,22,18,16,32,32,116,95,47,21,3,3,0.6,0.8
2026-04-24T2300,3237A,117.4918,30.6617,池州市,展览馆,,23,23,20,9,12,28,28,120,92,34,19,2,2,0.5,0.5
2026-04-24T2300,3333A,117.5626,30.695,池州市,第八中学,,30,25,21,15,14,96,96,112,99,20,25,4,3,0.3,0.5
2026-04-24T2300,3334A,117.5037,30.6242,池州市,第十二中学,,28,25,22,13,14,17,17,116,81,56,26,3,3,0.6,0.6
2026-04-24T2300,1744A,118.9229,42.2816,赤峰市,松山一中,,41,41,42,25,23,24,24,132,71,52,20,6,6,0.8,0.6
2026-04-24T2300,1745A,118.9588,42.2733,赤峰市,哈达街,颗粒物(PM10),53,54,47,20,24,33,33,113,74,48,12,26,10,1.0,0.6
2026-04-24T2300,1746A,118.8792,42.2551,赤峰市,天义路,,36,36,34,25,23,8,8,127,72,72,20,15,6,0.8,0.4
2026-04-24T2300,3058A,119.2656,42.0356,赤峰市,银河街,,43,43,64,21,35,59,59,110,86,18,14,8,11,0.6,0.7
2026-04-24T2300,3286A,118.9359,42.3146,赤峰市,桥北物流园区,,31,31,45,17,23,29,29,124,73,47,13,4,4,0.5,0.5
2026-04-24T2300,2521A,107.3473,22.4137,崇左市,市环保局江州分局,,34,34,29,22,16,80,80,106,99,13,10,7,6,0.2,0.6
2026-04-24T2300,4256A,107.375,22.3736,崇左市,石景林东路7号,,29,29,25,20,15,67,67,104,94,16,11,4,4,0.6,0.6
2026-04-24T2300,3207A,118.31131,32.3033,滁州市,市政府原办公楼,细颗粒物(PM2.5),66,59,34,43,29,76,76,147,117,40,22,5,5,0.6,0.4
2026-04-24T2300,3331A,118.3268,32.2633,滁州市,图书馆,颗粒物(PM10),73,82,45,32,18,81,81,150,133,37,19,9,9,0.8,0.5
2026-04-24T2300,4101A,118.3196,32.3335,滁州市,银山路666号,,45,45,36,15,15,58,58,144,120,17,21,5,7,0.4,0.3
2026-04-24T2300,4102A,118.3426,32.2979,滁州市,黄山路555号,颗粒物(PM10),80,91,50,40,22,53,53,161,132,49,21,6,7,1.0,0.6
2026-04-24T2300,2606A,101.5379,25.0492,楚雄彝族自治州,市经济开发区,颗粒物(PM10),61,65,53,39,34,112,112,121,114,10,18,2,3,0.5,0.6
2026-04-24T2300,4153A,101.5536,25.0343,楚雄彝族自治州,团结路562号,细颗粒物(PM2.5),62,44,48,41,34,122,122,126,121,7,15,4,10,0.4,0.4
2026-04-24T2300,2549A,107.5087,31.2186,达州市,市环境监测站,颗粒物(PM10),53,54,58,23,29,34,34,65,65,46,45,6,6,0.4,0.5
2026-04-24T2300,2550A,107.4988,31.2132,达州市,凤凰小区,颗粒物(PM10),55,56,42,31,16,37,37,110,82,44,25,5,6,0.3,0.2
2026-04-24T2300,2551A,107.5081,31.1987,达州市,达县机关宾馆,"颗粒物(PM10),细颗粒物(PM2.5)",56,58,47,38,19,29,29,110,66,58,39,5,6,0.4,0.4
2026-04-24T2300,2552A,107.4644,31.2124,达州市,市政中心,颗粒物(PM10),58,61,50,26,17,24,24,118,79,63,34,6,6,0.6,0.5
2026-04-24T2300,2614A,100.2168,25.5818,大理白族自治州,大理市环境监测站,,49,49,40,32,29,108,108,104,104,10,11,4,4,0.5,0.5
2026-04-24T2300,2615A,100.1542,25.7055,大理白族自治州,大理古城,,43,43,40,27,24,111,111,108,108,6,8,3,4,0.6,0.6
2026-04-24T2300,1109A,121.6119,38.974,大连市,甘井子,颗粒物(PM10),74,83,79,43,40,84,84,166,134,42,36,11,12,0.5,0.7
2026-04-24T2300,1110A,121.565,38.9509,大连市,周水子,细颗粒物(PM2.5),108,103,67,68,44,50,50,159,124,78,44,6,9,0.8,0.6
2026-04-24T2300,1111A,121.5637,38.8849,大连市,星海三站,细颗粒物(PM2.5),56,56,57,38,37,98,98,144,133,31,38,7,9,0.5,0.5
2026-04-24T2300,1112A,121.6301,38.9117,大连市,青泥洼桥,,36,31,61,19,39,115,115,170,146,21,30,7,8,0.5,0.6
2026-04-24T2300,1113A,121.6248,38.8643,大连市,傅家庄,,35,35,60,20,38,103,103,134,126,22,35,11,12,0.5,0.5
2026-04-24T2300,1114A,121.5117,38.8636,大连市,七贤岭,,50,50,74,26,41,109,109,158,131,24,36,7,8,0.6,0.6
2026-04-24T2300,1116A,121.7507,39.1339,大连市,金州,细颗粒物(PM2.5),84,88,65,52,40,78,78,174,155,47,30,9,9,0.5,0.5
2026-04-24T2300,1117A,121.7811,39.0495,大连市,开发区,细颗粒物(PM2.5),92,85,60,56,43,54,54,159,122,79,51,11,12,0.5,0.5
2026-04-24T2300,1118A,121.9762,39.0631,大连市,双D港,NA,NA,55,54,29,38,89,89,98,96,NA,41,7,7,0.5,0.6
2026-04-24T2300,4082A,121.2548,38.8188,大连市,旅顺,,48,48,59,30,40,107,107,146,129,26,38,10,10,0.5,0.5
2026-04-24T2300,1789A,124.8085,46.0381,大庆市,大同区,,45,42,78,31,37,68,68,112,79,13,14,2,3,0.5,0.6
2026-04-24T2300,1790A,125.1166,46.5255,大庆市,龙凤区,细颗粒物(PM2.5),60,61,54,40,28,48,48,66,53,24,17,4,5,0.3,0.3
2026-04-24T2300,1791A,124.8894,46.4007,大庆市,红岗区,,48,48,50,33,31,55,55,78,59,11,12,8,8,0.5,0.5
2026-04-24T2300,1792A,125.1391,46.578,大庆市,萨尔图区,颗粒物(PM10),54,55,61,29,25,55,55,69,57,18,15,8,8,0.7,0.5
2026-04-24T2300,1793A,124.9026,46.6217,大庆市,让胡路区,细颗粒物(PM2.5),54,50,52,37,29,57,57,59,59,12,15,1,2,0.4,0.4
2026-04-24T2300,3481A,125.127,46.6277,大庆市,萨区政府监测点,,50,50,45,29,25,55,55,72,60,9,9,8,9,0.5,0.4
2026-04-24T2300,1723A,113.2926,40.0759,大同市,云冈宾馆,颗粒物(PM10),90,105,107,35,31,65,65,119,99,39,30,6,9,0.8,1.1
2026-04-24T2300,1724A,113.3437,40.0921,大同市,大同大学,,50,50,68,32,29,45,45,119,99,56,35,5,9,0.5,0.6
2026-04-24T2300,1725A,113.2637,40.129,大同市,安家小村,颗粒物(PM10),78,88,108,37,32,65,65,118,99,35,34,10,14,0.4,1.1
2026-04-24T2300,3282A,113.3399,40.0586,大同市,大同市卫生学校,颗粒物(PM10),83,96,108,33,30,64,64,127,103,37,38,7,9,0.6,0.6
2026-04-24T2300,3565A,113.1371,40.1122,大同市,云冈站,颗粒物(PM10),73,82,96,29,28,34,34,116,93,46,30,8,9,0.4,0.5
2026-04-24T2300,3566A,113.1186,40.2556,大同市,图书馆,颗粒物(PM10),73,82,83,39,27,42,42,105,88,25,16,7,7,0.4,0.6
2026-04-24T2300,3567A,113.5931,40.0459,大同市,区一中,颗粒物(PM10),60,64,96,32,31,59,59,132,107,21,20,1,4,0.8,0.9
2026-04-24T2300,4199A,113.2798248,40.09972476,大同市,魏都大道141号,颗粒物(PM10),85,99,126,41,35,53,53,114,94,42,37,10,12,0.6,1.2
2026-04-24T2300,2269A,124.1068,50.4091,大兴安岭地区,科技局,,28,28,24,8,11,47,47,65,63,8,4,8,6,0.2,0.2
2026-04-24T2300,3663A,124.117,50.4279,大兴安岭地区,红旗社区,,20,NA,10,14,10,40,40,72,67,20,8,7,8,0.3,0.3
2026-04-24T2300,1600A,124.33,40.0625,丹东市,江湾东路,颗粒物(PM10),54,55,61,31,28,98,98,132,117,14,19,4,12,0.5,0.6
2026-04-24T2300,1601A,124.4242,40.1513,丹东市,临江后街,颗粒物(PM10),74,83,61,40,26,92,92,124,113,16,12,13,9,1.0,0.6
2026-04-24T2300,1602A,124.3935,40.1461,丹东市,元宝山,颗粒物(PM10),68,75,65,31,27,102,102,123,116,18,19,18,10,1.0,0.6
2026-04-24T2300,1603A,124.3634,40.1093,丹东市,民主桥,颗粒物(PM10),78,88,62,46,29,91,91,125,118,24,22,14,8,1.2,0.7
2026-04-24T2300,3541A,109.5726195,19.51688767,儋州市,第一中学子站,,14,7,36,3,21,44,44,49,48,9,9,5,4,0.7,0.7
2026-04-24T2300,3542A,109.5567,19.5187,儋州市,东坡学校子站,,17,6,37,3,20,52,52,54,54,7,10,2,4,0.7,0.7
2026-04-24T2300,2616A,98.5611,24.4273,德宏傣族景颇族自治州,德宏州监测站,细颗粒物(PM2.5),170,NA,70,129,66,57,57,137,111,24,20,6,6,1.1,0.9
2026-04-24T2300,3677A,98.5887,24.4366,德宏傣族景颇族自治州,芒市人民政府综合楼,细颗粒物(PM2.5),109,135,96,69,56,83,83,141,119,17,16,3,3,1.4,1.3
2026-04-24T2300,1901A,104.424,31.1209,德阳市,东山公园,细颗粒物(PM2.5),66,54,50,43,34,113,113,155,149,14,12,6,5,0.6,0.5
2026-04-24T2300,1902A,104.3827,31.1318,德阳市,西小区,细颗粒物(PM2.5),124,97,71,86,42,49,49,149,121,74,28,5,8,0.9,0.7
2026-04-24T2300,1904A,104.3553,31.1091,德阳市,耐火材料厂,细颗粒物(PM2.5),144,126,76,108,52,62,62,176,145,63,29,4,7,0.7,0.5
2026-04-24T2300,4145A,104.4144,31.1495,德阳市,市林业局,细颗粒物(PM2.5),86,73,56,53,38,43,43,166,132,73,32,3,5,0.6,0.4
2026-04-24T2300,1622A,116.3034,37.4675,德州市,儿童乐园,颗粒物(PM10),53,53,64,19,13,99,99,126,116,14,9,7,7,0.5,0.4
2026-04-24T2300,1624A,116.2992,37.4449,德州市,监理站,颗粒物(PM10),68,75,59,17,11,97,97,123,113,15,9,9,9,0.4,0.3
2026-04-24T2300,3066A,116.2722,37.438,德州市,九衢泉纯净水厂,颗粒物(PM10),56,58,55,20,11,91,91,122,101,28,21,14,13,0.6,0.6
2026-04-24T2300,3371A,116.3693,37.44,德州市,开发区人民医院,颗粒物(PM10),58,61,70,18,14,93,93,124,116,21,15,10,10,0.4,0.4
2026-04-24T2300,3511A,116.5687,37.3331,德州市,陵城艺术中心,,46,46,54,16,14,79,79,124,107,23,18,16,12,0.5,0.5
2026-04-24T2300,4292A,116.352738,37.420875,德州市,新河东路,颗粒物(PM10),53,53,53,15,9,84,84,121,108,25,13,8,8,0.7,0.6
2026-04-24T2300,2621A,99.7054,27.8319,迪庆藏族自治州,迪庆州站,,38,38,27,12,11,76,76,90,86,13,12,6,6,0.5,0.4
2026-04-24T2300,3180A,99.7122,27.8129,迪庆藏族自治州,质量技术监督局,,26,26,25,8,12,82,82,99,92,13,11,8,8,0.4,0.4
2026-04-24T2300,4257A,104.6092,35.5962,定西市,将台街,NA,NA,80,88,NA,50,55,55,135,108,40,25,5,5,0.3,0.2
2026-04-24T2300,4309A,104.6159,35.5701,定西市,正龙路62号,颗粒物(PM10),85,99,89,31,41,57,57,136,112,31,13,4,4,0.5,0.3
2026-04-24T2300,4071A,114.9883,38.5232,定州市,交通局,颗粒物(PM10),68,74,84,25,29,77,77,130,108,20,18,8,10,0.4,0.6
2026-04-24T2300,4072A,115.0045,38.5136,定州市,第五中学,颗粒物(PM10),85,99,86,31,29,61,61,125,100,28,19,4,5,0.4,0.4
2026-04-24T2300,1390A,113.7943,23.0132,东莞市,东城石井,,36,36,20,20,13,25,25,56,41,40,23,6,6,0.7,0.7
2026-04-24T2300,1391A,113.7384,22.9659,东莞市,南城西平,,38,34,19,26,11,21,21,48,33,39,26,6,6,0.6,0.5
2026-04-24T2300,3319A,113.7283,23.041,东莞市,万江金泰,,50,50,22,26,10,24,24,56,51,38,17,5,6,0.8,0.6
2026-04-24T2300,4129A,113.8666,23.1062,东莞市,裕兴路,,32,31,20,22,11,38,38,56,49,22,15,6,7,0.7,0.6
2026-04-24T2300,4130A,114.0076,22.9739,东莞市,教育路1号,,26,24,19,18,11,49,49,52,45,25,26,7,7,0.5,0.5
2026-04-24T2300,4131A,113.7981,22.8124,东莞市,长怡路1号,,39,39,24,25,11,39,39,52,42,28,23,6,6,0.6,0.6
2026-04-24T2300,1666A,118.6612,37.4313,东营市,市环保局,,46,46,69,19,45,71,71,142,108,35,28,10,10,0.4,0.4
2026-04-24T2300,3036A,118.6903,37.4337,东营市,开发区管委会,颗粒物(PM10),52,52,67,12,28,80,80,140,112,36,35,8,9,0.4,0.5
2026-04-24T2300,3365A,118.5721,37.5654,东营市,垦利区民丰路,NA,NA,78,65,24,25,NA,NA,150,117,47,28,15,13,0.5,0.5
2026-04-24T2300,3498A,118.5063,37.8606,东营市,河口城区,颗粒物(PM10),51,51,65,12,24,86,86,153,125,26,18,10,10,0.9,0.9
2026-04-24T2300,3646A,118.4979,37.4623,东营市,胜利站,,40,40,66,12,28,57,57,130,94,36,30,7,9,0.6,0.6
2026-04-24T2300,3734A,118.5753,37.4405,东营市,理想之城,颗粒物(PM10),60,63,70,16,32,50,50,110,81,38,41,8,8,0.5,0.6
2026-04-24T2300,1591A,110.0024,39.8127,鄂尔多斯市,综合楼,颗粒物(PM10),55,56,99,14,29,84,84,122,110,20,22,5,9,0.3,0.4
2026-04-24T2300,1592A,109.9485,39.8259,鄂尔多斯市,巴音孟克林场办事处,,46,46,88,14,25,82,82,127,113,20,18,4,8,0.2,0.3
2026-04-24T2300,1593A,109.7734,39.5987,鄂尔多斯市,康泽苑,,41,41,79,15,22,93,93,124,115,8,14,7,9,0.2,0.3
2026-04-24T2300,1594A,109.8121,39.5987,鄂尔多斯市,华泰汽车城,,48,48,79,13,23,88,88,119,107,10,19,7,9,0.3,0.4
2026-04-24T2300,1595A,109.9734,39.7884,鄂尔多斯市,奥林花园,颗粒物(PM10),56,58,94,3,22,88,88,126,115,21,26,6,9,0.2,0.3
2026-04-24T2300,2436A,114.894,30.3989,鄂州市,市政府,NA,NA,NA,30,0,18,65,65,108,100,33,23,9,10,0.6,0.6
2026-04-24T2300,2437A,114.8986,30.3714,鄂州市,赵家坝,颗粒物(PM10),55,57,35,29,19,73,73,105,93,17,16,7,4,0.8,0.7
2026-04-24T2300,3654A,114.8093,30.4091,鄂州市,精准医疗中心,颗粒物(PM10),61,65,37,36,21,63,63,121,108,34,16,15,6,1.6,0.8
2026-04-24T2300,2454A,109.4978,30.2979,恩施土家族苗族自治州,湖北民院,,48,48,28,27,16,44,44,90,82,11,11,7,8,0.4,0.4
2026-04-24T2300,3549A,109.5061,30.3771,恩施土家族苗族自治州,龙凤新区,,42,42,23,20,13,30,30,72,64,6,9,7,7,0.4,0.4
2026-04-24T2300,2499A,108.3411,21.6159,防城港市,沙万,颗粒物(PM10),52,52,38,26,17,52,52,72,69,24,14,6,6,0.8,0.7
2026-04-24T2300,2500A,108.3515,21.7733,防城港市,防城档案局,颗粒物(PM10),63,67,39,34,19,15,15,75,62,27,12,7,8,0.7,0.6
2026-04-24T2300,2501A,108.3506,21.6414,防城港市,大海花园,,39,29,26,27,21,61,61,83,80,16,12,8,8,0.7,0.7
2026-04-24T2300,1371A,113.1293,23.0065,佛山市,湾梁,,39,31,17,27,15,1,1,39,19,53,30,/,/,/,/
2026-04-24T2300,1372A,113.1082,23.0477,佛山市,华材职中,,40,36,21,28,17,5,5,42,29,56,31,3,4,0.6,0.5
2026-04-24T2300,1373A,113.1439,23.045,佛山市,南海气象局,,38,36,21,26,15,5,5,37,23,50,29,/,/,/,/
2026-04-24T2300,1374A,113.2879,22.8094,佛山市,顺德苏岗,,40,NA,11,28,11,9,9,38,22,44,24,/,/,0.7,0.6
2026-04-24T2300,1376A,112.8384,22.8678,佛山市,高明孔堂,,32,32,26,21,20,12,12,36,26,34,27,/,/,/,/
2026-04-24T2300,1377A,112.8835,23.1584,佛山市,三水监测站,,39,39,23,24,22,14,14,43,36,52,27,5,6,0.6,0.6
2026-04-24T2300,1378A,112.8668,23.185,佛山市,三水云东海,,39,39,34,22,18,5,5,40,25,32,19,/,/,/,/
2026-04-24T2300,3625A,113.2568,22.7629,佛山市,容桂街道办,,46,NA,10,32,14,11,11,40,25,49,28,/,/,/,/
2026-04-24T2300,1282A,119.2681,26.0506,福州市,师大,,32,32,19,11,9,98,98,95,95,20,16,4,3,0.4,0.4
2026-04-24T2300,1283A,119.2983,26.1028,福州市,五四北路,,30,30,17,14,10,75,75,78,78,28,21,4,4,0.4,0.4
2026-04-24T2300,1284A,119.2648,26.0769,福州市,杨桥西路,,31,29,18,10,9,97,97,90,90,18,16,4,3,/,/
2026-04-24T2300,3048A,119.5799,26.0937,福州市,九龙,,27,25,18,7,4,86,86,118,110,20,11,6,6,0.3,0.3
2026-04-24T2300,3526A,119.5188,25.9666,福州市,吴航,,35,16,16,7,10,110,110,115,115,12,12,6,5,0.2,0.3
2026-04-24T2300,4104A,119.3106,26.0648,福州市,路通桥巷6号,,30,28,18,16,11,94,94,93,93,19,14,/,/,/,/
2026-04-24T2300,1755A,123.7974,41.8494,抚顺市,望花区,颗粒物(PM10),75,85,108,46,45,125,125,142,135,26,28,21,16,0.7,0.9
2026-04-24T2300,1756A,123.9161,41.8827,抚顺市,顺城区,"颗粒物(PM10),细颗粒物(PM2.5)",60,63,75,40,39,132,132,144,134,26,30,23,16,0.7,0.9
2026-04-24T2300,1757A,124.0437,41.8615,抚顺市,东洲区,细颗粒物(PM2.5),70,76,80,45,32,121,121,142,131,20,20,16,13,1.3,0.8
2026-04-24T2300,1758A,123.9246,41.8638,抚顺市,新抚区,颗粒物(PM10),72,80,85,42,40,133,133,146,139,17,26,15,11,0.9,0.8
2026-04-24T2300,1759A,124.0972,41.8961,抚顺市,大伙房水库,颗粒物(PM10),62,66,76,38,33,130,130,144,138,15,15,15,11,1.0,0.6
2026-04-24T2300,1760A,123.708,41.8386,抚顺市,沈抚新城,颗粒物(PM10),70,77,102,39,38,128,128,146,140,25,27,22,14,0.8,0.9
2026-04-24T2300,2377A,116.3544,27.9833,抚州市,市站,,24,24,18,11,13,47,47,84,72,18,9,1,2,0.7,0.6
2026-04-24T2300,2378A,116.3562,27.9631,抚州市,血防站,,30,30,22,11,10,42,42,91,78,26,8,7,9,0.8,0.7
2026-04-24T2300,2379A,116.3561,28.0007,抚州市,采茶剧团,,22,21,20,15,9,62,62,87,81,14,9,5,14,0.8,0.7
2026-04-24T2300,2380A,116.3854,27.9648,抚州市,医学分院,,29,29,23,11,7,56,56,93,83,14,6,9,7,0.7,0.7
2026-04-24T2300,2207A,121.6095,41.9978,阜新市,工业园区,颗粒物(PM10),69,76,64,20,36,59,59,124,95,32,19,16,13,0.5,0.6
2026-04-24T2300,2208A,121.6567,42.0188,阜新市,长青街,颗粒物(PM10),63,67,64,23,39,54,54,134,96,30,19,10,11,0.6,0.7
2026-04-24T2300,2209A,121.6672,42.07,阜新市,农业园区,颗粒物(PM10),58,60,69,12,37,74,74,133,102,20,17,21,10,0.5,0.6
2026-04-24T2300,2211A,121.6343,42.0455,阜新市,玉龙新城,颗粒物(PM10),62,66,63,15,35,64,64,131,95,30,22,14,11,0.5,0.7
2026-04-24T2300,2301A,115.8276,32.8929,阜阳市,市监测站,,36,36,36,17,19,85,85,109,98,15,14,7,6,0.4,0.3
2026-04-24T2300,2303A,115.8551,32.8606,阜阳市,开发区,,43,43,42,9,18,104,104,107,103,16,19,6,4,0.4,0.4
2026-04-24T2300,2875A,115.783962,32.889217,阜阳市,阜阳职业技术学院,,37,37,34,13,15,109,109,112,109,12,18,6,6,0.4,0.4
2026-04-24T2300,3468A,115.79,32.8614,阜阳市,市规划展馆,,39,39,37,18,18,89,89,111,104,16,12,7,7,0.4,0.4
2026-04-24T2300,3469A,115.835101,32.918568,阜阳市,枣园社区,,30,30,34,16,16,96,96,110,103,15,23,7,6,0.3,0.3
2026-04-24T2300,2669A,102.9097,34.9841,甘南藏族自治州,州政府,颗粒物(PM10),97,115,65,42,30,26,26,128,105,57,12,3,3,0.6,0.3
2026-04-24T2300,3380A,102.8915,34.9618,甘南藏族自治州,甘肃民族师范学院,颗粒物(PM10),105,131,83,38,31,18,18,135,105,75,20,1,3,0.4,0.3
2026-04-24T2300,2570A,101.96,30.048,甘孜藏族自治州,水桥子,,26,26,24,17,10,72,72,91,88,14,15,6,6,0.3,0.2
2026-04-24T2300,3065A,101.9534,29.9976,甘孜藏族自治州,州环保局,,35,35,25,22,9,82,82,93,91,17,14,4,4,0.4,0.4
2026-04-24T2300,2363A,114.9368,25.8663,赣州市,地委,,30,30,25,12,13,72,72,82,79,6,6,2,3,0.9,0.9
2026-04-24T2300,2364A,114.946,25.8483,赣州市,气象台,,34,34,32,17,16,65,65,77,74,14,11,6,6,0.9,0.9
2026-04-24T2300,2365A,114.932,25.8332,赣州市,市图书馆,,25,24,21,13,16,77,77,91,87,14,9,3,4,0.8,0.8
2026-04-24T2300,2366A,114.8905,25.8472,赣州市,华坚鞋城,,27,27,24,8,14,70,70,82,80,15,9,5,6,0.8,1.3
2026-04-24T2300,3109A,115.0094,25.8614,赣州市,赣县区卫计委,,31,31,25,6,14,59,59,80,74,14,8,3,4,0.6,0.8
2026-04-24T2300,2684A,106.2753,36.0057,固原市,监测站,颗粒物(PM10),70,77,80,32,27,41,41,120,96,43,15,10,7,0.5,0.3
2026-04-24T2300,2685A,106.2384,36.0189,固原市,新区,颗粒物(PM10),78,89,82,34,24,8,8,119,89,73,14,5,5,0.7,0.5
2026-04-24T2300,2544A,106.6307,30.4577,广安市,市委,细颗粒物(PM2.5),72,79,45,46,28,42,42,133,103,62,18,7,7,0.7,0.4
2026-04-24T2300,2545A,106.6266,30.4662,广安市,友谊中学,细颗粒物(PM2.5),70,69,40,45,23,29,29,125,98,48,15,7,7,1.0,0.6
2026-04-24T2300,2547A,106.6386,30.4551,广安市,广电花园,细颗粒物(PM2.5),92,69,44,56,32,26,26,121,92,60,19,6,6,0.8,0.5
2026-04-24T2300,2902A,106.6347,30.4868,广安市,北辰小学,细颗粒物(PM2.5),78,77,46,49,26,46,46,126,107,30,13,7,5,0.5,0.3
2026-04-24T2300,2524A,105.8211,32.4444,广元市,老城,颗粒物(PM10),53,54,46,24,17,34,34,132,96,57,27,2,4,0.6,0.8
2026-04-24T2300,2526A,105.8629,32.429,广元市,监测站,颗粒物(PM10),56,58,43,21,19,65,65,127,106,25,18,4,5,0.6,0.6
2026-04-24T2300,3617A,105.8047,32.4167,广元市,经开区,,50,50,47,28,25,59,59,126,105,30,20,4,8,0.6,0.6
2026-04-24T2300,1345A,113.2346,23.1423,广州市,广雅中学,NA,NA,38,24,24,14,NA,NA,41,39,51,30,2,2,0.7,0.5
2026-04-24T2300,1346A,113.2611,23.105,广州市,市五中,,33,30,17,23,13,12,12,50,39,48,27,3,3,/,/
2026-04-24T2300,1348A,113.3477,23.0916,广州市,广东商学院,,33,32,18,23,10,3,3,40,18,53,27,5,4,0.9,0.8
2026-04-24T2300,1349A,113.4332,23.105,广州市,市八十六中,,29,29,16,20,10,4,4,36,20,52,28,7,5,/,/
2026-04-24T2300,1350A,113.3506,22.9488,广州市,番禺中学,,35,35,20,23,11,4,4,42,20,57,29,6,4,0.7,0.6
2026-04-24T2300,1351A,113.2147,23.3918,广州市,花都师范,,45,45,23,27,13,15,15,55,45,52,20,6,7,0.9,0.8
2026-04-24T2300,1352A,113.2599,23.1329,广州市,市监测站,,28,NA,9,19,13,10,10,39,31,39,23,2,2,/,/
2026-04-24T2300,1353A,113.5618,23.3119,广州市,九龙镇镇龙,,31,31,13,21,8,23,23,44,35,21,13,5,5,0.5,0.5
2026-04-24T2300,1354A,113.2764,23.1544,广州市,麓湖,,29,27,18,20,11,2,2,31,17,40,24,4,4,0.7,0.7
2026-04-24T2300,2846A,113.3209,23.1323,广州市,体育西,,31,31,19,20,13,11,11,38,29,46,26,5,4,0.8,0.7
2026-04-24T2300,3298A,113.5718,23.5493,广州市,从化街口,,26,26,16,18,11,34,34,54,38,13,12,7,6,0.6,0.5
2026-04-24T2300,3299A,113.3463,23.369,广州市,白云竹料,,30,30,22,19,13,20,20,58,40,24,15,3,3,0.7,0.6
2026-04-24T2300,3300A,113.2981,23.2365,广州市,白云嘉禾,,28,28,21,17,13,14,14,46,31,34,24,6,6,/,/
2026-04-24T2300,3301A,113.4256,23.1716,广州市,黄埔科学城,,42,36,20,29,14,14,14,40,24,31,19,3,4,0.7,0.7
2026-04-24T2300,3302A,113.3942,23.0485,广州市,番禺大学城,,36,36,16,23,10,6,6,43,18,55,29,8,5,0.6,0.6
2026-04-24T2300,3303A,113.4923,22.8169,广州市,南沙黄阁,,40,32,21,28,12,17,17,45,32,39,23,7,8,/,/
2026-04-24T2300,3304A,113.534,22.7893,广州市,南沙街,,42,30,19,29,12,28,28,46,37,41,32,7,7,0.6,0.5
2026-04-24T2300,3443A,113.2905,23.5541,广州市,花都梯面,,26,22,17,18,12,8,8,56,37,20,12,8,10,/,/
2026-04-24T2300,3445A,113.786,23.7479,广州市,从化良口,,17,17,12,11,7,46,46,60,46,7,9,4,5,/,/
2026-04-24T2300,3446A,113.805,23.2614,广州市,增城荔城,,43,43,20,28,10,22,22,59,40,31,13,6,6,0.7,0.6
2026-04-24T2300,2506A,109.604387,23.066791,贵港市,江南子站,颗粒物(PM10),62,66,33,32,17,53,53,100,88,26,14,10,9,0.8,0.7
2026-04-24T2300,2508A,109.5669,23.1065,贵港市,荷城子站,,34,34,28,17,17,68,68,94,87,21,17,5,9,0.7,0.7
2026-04-24T2300,3405A,109.5886,23.1172,贵港市,新世纪学校,,31,31,29,16,18,69,69,99,89,22,19,/,/,0.6,0.6
2026-04-24T2300,4260A,109.5933,23.095,贵港市,中山路155-3号,,33,33,31,22,17,74,74,108,98,18,15,/,/,0.6,0.6
2026-04-24T2300,1439A,106.6863,26.6035,贵阳市,马鞍山,,36,36,24,20,15,16,16,62,53,21,12,3,2,/,/
2026-04-24T2300,1441A,106.6241,26.6266,贵阳市,鉴湖路,,48,48,35,21,15,61,61,87,84,20,15,8,6,0.7,0.6
2026-04-24T2300,1442A,106.7468,26.6344,贵阳市,燕子冲,,41,41,32,22,15,46,46,81,76,16,11,4,5,0.7,0.6
2026-04-24T2300,1443A,106.6556,26.4362,贵阳市,碧云窝,颗粒物(PM10),53,53,43,22,19,20,20,82,65,20,13,8,5,/,/
2026-04-24T2300,1445A,106.6963,26.6063,贵阳市,红边门,颗粒物(PM10),53,53,30,28,18,38,38,76,65,34,18,8,5,/,/
2026-04-24T2300,1446A,106.7162383,26.56964667,贵阳市,新华路,颗粒物(PM10),55,56,37,29,16,46,46,78,60,29,19,10,15,0.4,0.4
2026-04-24T2300,1447A,106.6742,26.542,贵阳市,太慈桥,,41,41,29,25,14,8,8,69,54,38,17,4,4,/,/
2026-04-24T2300,4230A,106.688212,26.56952,贵阳市,花果园大街66号,,43,31,19,30,16,66,66,76,75,16,15,5,4,/,/
2026-04-24T2300,4231A,106.687268,26.516892,贵阳市,漓江路57号,,44,44,22,30,16,33,33,81,66,34,19,6,6,0.9,0.7
2026-04-24T2300,1864A,110.3091,25.2705,桂林市,龙隐路小学,,39,39,24,23,15,65,65,98,88,12,8,4,4,0.4,0.4
2026-04-24T2300,1865A,110.2849361,25.22909545,桂林市,八中,,37,37,26,18,9,57,57,87,76,22,14,4,4,0.6,0.5
2026-04-24T2300,3531A,110.296,25.1254,桂林市,旅游学院,细颗粒物(PM2.5),60,46,32,40,20,52,52,98,86,20,11,10,7,0.7,0.6
2026-04-24T2300,4222A,110.1835,25.2444,桂林市,环湖路276号,,36,36,25,20,16,78,78,102,93,12,8,6,5,0.4,0.4
2026-04-24T2300,4301A,110.2803,25.2773,桂林市,信义路13号,,46,34,25,32,19,66,66,98,84,22,12,6,5,0.7,0.6
2026-04-24T2300,2674A,100.2262,34.4854,果洛藏族自治州,玛沁县大武镇,,44,44,47,20,20,65,65,127,112,8,4,18,19,0.4,0.4
2026-04-24T2300,1130A,126.5557,45.8109,哈尔滨市,松北商大,细颗粒物(PM2.5),64,44,53,42,35,60,60,137,89,12,12,5,6,0.7,0.7
2026-04-24T2300,1132A,126.6162,45.719,哈尔滨市,南岗学府路,颗粒物(PM10),52,52,63,34,30,61,61,134,89,13,18,1,3,0.7,0.7
2026-04-24T2300,1133A,126.6894,45.7733,哈尔滨市,太平宏伟公园,,49,45,58,34,28,62,62,140,96,17,19,6,6,0.3,0.4
2026-04-24T2300,1134A,126.6361,45.7672,哈尔滨市,道外承德广场,颗粒物(PM10),64,69,73,28,27,55,55,131,87,14,22,7,8,0.6,0.4
2026-04-24T2300,1136A,126.644,45.7261,哈尔滨市,动力和平路,,48,36,60,33,30,61,61,132,90,15,18,5,6,0.4,0.5
2026-04-24T2300,1137A,126.5933,45.7479,哈尔滨市,道里建国路,,46,37,54,32,31,60,60,133,89,12,17,1,3,0.8,1.2
2026-04-24T2300,1138A,126.6127,45.6119,哈尔滨市,平房东轻厂,颗粒物(PM10),61,65,56,33,38,47,47,132,84,24,21,10,12,0.5,0.5
2026-04-24T2300,1139A,126.5875,45.9827,哈尔滨市,呼兰师专,,46,39,52,32,22,47,47,120,76,14,15,10,10,0.2,0.2
2026-04-24T2300,1140A,126.6299,45.6799,哈尔滨市,省农科院,细颗粒物(PM2.5),66,62,70,43,51,50,50,110,81,16,16,5,6,0.4,0.4
2026-04-24T2300,4282A,126.6769,45.7379,哈尔滨市,华山路1号,,50,41,63,35,35,64,64,144,97,12,11,3,2,0.3,0.4
2026-04-24T2300,4283A,126.9717,45.5356,哈尔滨市,解放大街52号,颗粒物(PM10),76,86,75,29,24,53,53,150,95,17,15,2,4,0.4,0.5
2026-04-24T2300,2688A,93.5124,42.8176,哈密市,地区监测站,细颗粒物(PM2.5),137,NA,36,100,17,59,59,130,114,56,18,14,14,0.6,0.3
2026-04-24T2300,2689A,93.5014,42.8312,哈密市,哈密师范学校,"颗粒物(PM10),细颗粒物(PM2.5)",96,114,48,58,17,16,16,132,93,90,23,9,9,1.0,0.2
2026-04-24T2300,2671A,100.9016,36.9464,海北藏族自治州,海晏县西海镇,颗粒物(PM10),52,52,64,18,30,62,62,124,109,8,3,6,8,0.4,0.4
2026-04-24T2300,3867A,102.074,36.5056,海东市,平安区公安局北苑,颗粒物(PM10),53,54,73,30,41,95,95,135,125,10,9,8,10,0.5,0.6
2026-04-24T2300,4163A,102.0984,36.5119,海东市,滨河路,颗粒物(PM10),112,150,84,44,38,27,27,115,72,56,34,6,9,0.7,0.7
2026-04-24T2300,1410A,110.3189,20.0596,海口市,海南大学,NA,NA,16,17,10,11,NA,NA,79,NA,NA,8,NA,5,NA,0.5
2026-04-24T2300,1411A,110.2827,20.0051,海口市,秀英海南医院,,21,13,21,10,13,67,67,66,66,6,11,7,7,0.3,0.4
2026-04-24T2300,1412A,110.3391,19.9979,海口市,海南师范大学,,21,16,24,10,14,67,67,73,72,6,9,5,5,0.3,0.5
2026-04-24T2300,1413A,110.3303,20.0359,海口市,龙华路环保局宿舍,,24,13,24,10,12,74,74,76,76,6,10,/,/,0.7,0.8
2026-04-24T2300,3539A,110.5111,19.9737,海口市,桂林洋子站,,20,15,22,9,15,61,61,85,70,7,10,/,/,/,/
2026-04-24T2300,4134A,110.1952,20.0451,海口市,长滨二路9号,,23,14,15,9,9,72,72,69,69,3,7,/,/,/,/
2026-04-24T2300,2673A,100.6158,36.2985,海南藏族自治州,共和县恰卜恰镇,,41,41,50,24,28,76,76,144,132,12,8,10,9,0.4,0.3
2026-04-24T2300,2676A,97.373,37.376,海西蒙古族藏族自治州,德令哈市,,36,22,40,17,13,114,114,163,148,4,3,18,17,0.3,0.3
2026-04-24T2300,1049A,114.492,36.5712,邯郸市,矿院,,46,46,40,17,23,86,86,123,113,10,9,4,4,0.3,0.3
2026-04-24T2300,1050A,114.4839,36.6136,邯郸市,丛台公园,,36,34,39,25,23,89,89,121,114,8,8,3,3,0.3,0.3
2026-04-24T2300,3458A,114.7893,36.5592,邯郸市,香泉濮院小区,,41,41,44,17,25,87,87,112,103,12,8,3,3,0.3,0.3
2026-04-24T2300,3580A,114.1998,36.4439,邯郸市,峰峰矿区临水派出所,,44,44,47,30,27,95,95,136,126,20,19,7,7,0.9,0.7
2026-04-24T2300,4068A,114.5209,36.7697,邯郸市,建安街268号,,42,42,54,14,20,87,87,113,104,10,11,3,2,0.3,0.3
2026-04-24T2300,4069A,114.5488,36.6177,邯郸市,丛台东路558号,,42,42,43,20,20,78,78,114,104,16,11,2,3,0.3,0.4
2026-04-24T2300,2635A,107.0155,33.0707,汉中市,市监测站,颗粒物(PM10),53,54,48,27,21,85,85,117,104,8,17,4,5,0.5,0.6
2026-04-24T2300,2636A,107.0083,33.114,汉中市,鑫源开发区,细颗粒物(PM2.5),62,61,48,41,23,40,40,114,90,24,18,4,6,0.5,0.5
2026-04-24T2300,2637A,107.0072,33.0323,汉中市,南郑大河坎水厂,,46,46,41,27,20,85,85,116,102,8,15,4,5,0.3,0.4
2026-04-24T2300,1223A,120.2073,30.2111,杭州市,滨江,颗粒物(PM10),83,95,47,49,22,64,64,158,130,54,19,10,8,0.8,0.5
2026-04-24T2300,1224A,120.0625,30.2737,杭州市,西溪,,39,39,36,22,19,22,22,144,100,32,16,4,5,0.6,0.6
2026-04-24T2300,1226A,120.3417,30.315,杭州市,下沙,颗粒物(PM10),109,142,61,56,28,65,65,150,111,69,30,9,9,0.8,0.7
2026-04-24T2300,1227A,120.1252,30.2465,杭州市,卧龙桥,,36,36,33,20,15,37,37,148,93,21,18,8,9,0.5,0.5
2026-04-24T2300,1228A,120.1902,30.2691,杭州市,浙江农大,颗粒物(PM10),93,110,47,55,22,8,8,141,89,117,44,9,8,0.7,0.4
2026-04-24T2300,1230A,120.1195,30.3121,杭州市,和睦小学,细颗粒物(PM2.5),64,67,35,42,22,12,12,139,94,89,28,7,7,0.9,0.5
2026-04-24T2300,1231A,120.3076,30.4146,杭州市,临平镇,细颗粒物(PM2.5),76,84,48,48,26,96,96,159,134,45,28,7,7,0.6,0.5
2026-04-24T2300,1232A,120.2753,30.1839,杭州市,城厢镇,颗粒物(PM10),85,98,45,52,25,29,29,149,118,94,26,8,7,0.8,0.5
2026-04-24T2300,1233A,120.0883,30.1808,杭州市,云栖,,41,41,34,20,14,58,58,148,106,26,21,7,7,0.6,0.6
2026-04-24T2300,3557A,119.9463,30.0496,杭州市,镇二中,,46,46,37,26,19,62,62,152,125,32,26,5,6,0.5,0.4
2026-04-24T2300,3558A,119.7184,30.2367,杭州市,市府大楼,,43,41,25,30,16,77,77,143,127,25,16,7,7,0.7,0.5
2026-04-24T2300,3656A,120.1554,30.2863,杭州市,消防大队,细颗粒物(PM2.5),80,79,41,50,24,20,20,137,100,70,22,5,6,0.9,0.5
2026-04-24T2300,1270A,117.1957,31.7845,合肥市,明珠广场,NA,NA,56,34,27,16,NA,NA,128,NA,38,29,7,7,0.8,0.6
2026-04-24T2300,1271A,117.307,31.8765,合肥市,三里街,颗粒物(PM10),58,61,44,25,21,59,59,114,94,59,38,6,6,0.7,0.7
2026-04-24T2300,1272A,117.2587,31.8703,合肥市,琥珀山庄,颗粒物(PM10),56,58,35,31,17,35,35,128,95,53,25,8,7,1.4,0.9
2026-04-24T2300,1275A,117.2593,31.9376,合肥市,庐阳区,颗粒物(PM10),60,63,37,22,19,70,70,118,102,49,29,6,5,0.8,0.6
2026-04-24T2300,1276A,117.345251,31.861615,合肥市,瑶海区,颗粒物(PM10),53,53,46,17,17,86,86,125,109,47,39,6,7,0.7,0.7
2026-04-24T2300,1277A,117.3033,31.7967,合肥市,包河区,颗粒物(PM10),58,61,48,23,16,59,59,118,101,50,35,8,10,0.7,0.6
2026-04-24T2300,1278A,117.278,31.7392,合肥市,滨湖新区,,41,41,37,19,17,104,104,116,112,15,27,5,6,0.7,0.6
2026-04-24T2300,1279A,117.1324,31.8395,合肥市,高新区,颗粒物(PM10),51,51,34,22,12,78,78,122,103,40,20,5,5,0.7,0.5
2026-04-24T2300,3464A,117.3802,31.9148,合肥市,高教基地,颗粒物(PM10),56,58,34,19,12,36,36,130,95,44,24,8,8,0.7,0.6
2026-04-24T2300,4098A,117.2518,31.8404,合肥市,中国科学技术大学,颗粒物(PM10),53,53,36,21,14,88,88,128,110,31,21,6,6,0.8,0.7
2026-04-24T2300,3614A,79.9241,37.0878,和田地区,地区环保局,颗粒物(PM10),189,327,289,103,79,72,72,104,97,24,15,3,3,0.8,0.6
2026-04-24T2300,3615A,79.9132,37.1137,和田地区,市环保局,颗粒物(PM10),166,281,270,97,82,59,59,103,92,38,18,1,3,0.7,0.3
2026-04-24T2300,2517A,108.0496,24.6957,河池市,市环保站,,24,24,19,14,8,16,16,73,57,19,5,7,6,0.7,0.6
2026-04-24T2300,4302A,108.0901,24.6945,河池市,上任中路54号,,33,33,24,15,10,1,1,68,50,37,11,7,7,0.8,0.7
2026-04-24T2300,1697A,114.6962,23.7538,河源市,东埔,,28,25,17,19,13,10,10,71,48,33,11,6,6,0.7,0.5
2026-04-24T2300,1698A,114.6895,23.7232,河源市,老城,,20,20,17,14,13,40,40,65,49,13,10,6,6,0.7,0.5
2026-04-24T2300,3374A,115.5562,35.089,菏泽市,定陶老年大学,,44,44,41,16,13,80,80,111,100,16,11,5,5,0.3,0.2
2026-04-24T2300,4114A,115.4239,35.2593,菏泽市,黄河路600号,颗粒物(PM10),51,51,50,18,13,86,86,110,102,14,10,3,4,0.3,0.3
2026-04-24T2300,4115A,115.5025,35.2727,菏泽市,菏泽市人社局,颗粒物(PM10),54,55,40,21,12,70,70,110,101,24,9,4,6,0.3,0.2
2026-04-24T2300,4184A,115.479691,35.244011,菏泽市,永昌路1号,颗粒物(PM10),52,52,43,17,12,80,80,119,110,22,10,5,5,0.2,0.1
2026-04-24T2300,4193A,115.471542,35.280012,菏泽市,长城路999号,,48,48,42,15,11,88,88,118,112,19,10,8,8,0.3,0.3
2026-04-24T2300,2514A,111.5264,24.4178,贺州市,环保小区,,41,41,24,23,16,54,54,108,91,16,9,6,6,0.4,0.4
2026-04-24T2300,2515A,111.561,24.4074,贺州市,政协大楼,,44,44,24,26,16,44,44,111,91,24,13,9,9,0.5,0.4
2026-04-24T2300,3534A,111.4744,24.455,贺州市,西湾,,39,39,25,22,15,27,27,97,81,33,12,8,8,0.6,0.5
2026-04-24T2300,2385A,114.17,35.9019,鹤壁市,市监测站,,35,35,52,22,37,98,98,125,116,7,10,4,7,0.4,0.5
2026-04-24T2300,2386A,114.2953,35.7512,鹤壁市,市交警支队,颗粒物(PM10),52,52,64,19,30,78,78,117,105,16,12,6,7,0.4,0.5
2026-04-24T2300,2387A,114.2877,35.7302,鹤壁市,迎宾馆,,48,48,68,20,29,79,79,122,109,20,13,3,6,0.3,0.4
2026-04-24T2300,3474A,114.2616,35.6824,鹤壁市,大新区,,44,44,61,21,36,57,57,113,98,28,13,4,5,0.4,0.5
2026-04-24T2300,3596A,114.1573,35.9607,鹤壁市,南山宾馆,,50,50,61,31,39,93,93,120,112,11,15,7,8,0.5,0.6
2026-04-24T2300,2244A,130.2537,47.3416,鹤岗市,哈啤分公司,,19,18,21,6,6,59,59,74,67,8,8,10,9,0.3,0.2
2026-04-24T2300,2245A,130.2683,47.3087,鹤岗市,斯达机电,,21,21,19,6,6,63,63,77,69,6,7,11,10,0.4,0.4
2026-04-24T2300,2246A,130.3114,47.3388,鹤岗市,东山纸板厂,,22,22,40,6,9,60,60,76,68,8,12,8,8,0.4,0.4
2026-04-24T2300,2263A,127.4832,50.2524,黑河市,交通局,,35,NA,22,24,16,63,63,65,65,7,9,5,6,0.3,0.3
2026-04-24T2300,2264A,127.5146,50.2339,黑河市,环保局,,20,7,12,3,4,64,64,67,67,6,6,6,7,0.3,0.3
2026-04-24T2300,1074A,115.6839,37.754,衡水市,电机北厂,颗粒物(PM10),59,62,66,20,18,94,94,121,114,19,13,5,5,0.1,0.3
2026-04-24T2300,1075A,115.6303,37.7318,衡水市,市监测站,颗粒物(PM10),55,56,63,7,15,86,86,115,104,18,14,6,7,0.3,0.3
2026-04-24T2300,3188A,115.6684,37.7216,衡水市,市城管局,颗粒物(PM10),63,68,61,17,19,90,90,125,114,23,12,6,5,0.3,0.3
2026-04-24T2300,3459A,115.599,37.5491,衡水市,地表水厂,颗粒物(PM10),58,60,59,11,16,72,72,117,101,24,11,4,4,0.2,0.2
2026-04-24T2300,2457A,112.6209,26.9268,衡阳市,衡阳化工总厂,,40,36,36,28,25,76,76,114,105,17,16,5,8,0.7,0.6
2026-04-24T2300,2458A,112.621,26.8957,衡阳市,珠晖区环保局,,48,48,42,28,27,30,30,108,87,68,26,9,12,0.9,0.8
2026-04-24T2300,2459A,112.628,26.8654,衡阳市,市委党校,,36,30,39,25,30,68,68,112,102,17,15,10,12,0.8,0.8
2026-04-24T2300,2460A,112.6007,26.8977,衡阳市,市监测站,颗粒物(PM10),56,58,43,37,26,65,65,102,88,24,22,8,8,1.0,0.8
2026-04-24T2300,2461A,112.5658,26.9013,衡阳市,真空机电公司,细颗粒物(PM2.5),52,44,37,36,28,62,62,117,104,41,19,7,8,0.9,0.8
2026-04-24T2300,3399A,112.6703,26.8817,衡阳市,师范学院,细颗粒物(PM2.5),62,55,38,41,25,42,42,117,100,22,14,7,7,0.9,0.6
2026-04-24T2300,3038A,103.3757,23.3679,红河哈尼族彝族自治州,州图书馆,,46,41,42,32,32,86,86,104,91,5,6,4,4,0.5,0.5
2026-04-24T2300,4154A,103.401,23.3561,红河哈尼族彝族自治州,蒙自市朝阳路,,36,NA,30,25,31,84,84,109,92,4,4,3,4,0.4,0.5
2026-04-24T2300,1090A,111.6506,40.7517,呼和浩特市,呼市一监,,39,39,90,23,34,64,64,113,98,25,28,5,7,0.3,0.4
2026-04-24T2300,1094A,111.7516,40.8369,呼和浩特市,如意水处理厂,,44,44,92,13,33,41,41,113,90,50,26,7,8,0.3,0.3
2026-04-24T2300,1095A,111.727798,40.806187,呼和浩特市,二十九中,细颗粒物(PM2.5),58,52,91,39,37,46,46,107,90,40,25,8,10,0.5,0.5
2026-04-24T2300,1097A,111.717,40.7617,呼和浩特市,化肥厂生活区,细颗粒物(PM2.5),92,66,96,56,43,45,45,115,94,40,30,6,8,0.4,0.4
2026-04-24T2300,3699A,111.6519,40.8389,呼和浩特市,海东办,,29,29,81,8,31,81,81,107,92,15,36,4,5,0.2,0.3
2026-04-24T2300,4275A,111.591512,40.827312,呼和浩特市,成吉思汗西街8号,,31,27,82,12,36,37,37,104,82,62,35,6,6,0.4,0.4
2026-04-24T2300,4276A,111.6597,40.8077,呼和浩特市,公园东路75号,,34,34,90,10,32,78,78,105,93,21,26,4,5,0.3,0.4
2026-04-24T2300,4277A,111.5427,40.7846,呼和浩特市,金海路35号,,30,30,88,3,33,80,80,102,88,20,31,5,6,0.4,0.5
2026-04-24T2300,3061A,119.7511,49.1576,呼伦贝尔市,国华电力东,,23,22,23,16,11,73,73,82,80,5,5,4,4,0.3,0.3
2026-04-24T2300,4279A,119.7569,49.2222,呼伦贝尔市,伊敏大街东7号,,25,14,22,8,11,77,77,83,80,7,6,6,6,0.4,0.4
2026-04-24T2300,1250A,120.075,30.867,湖州市,城西水厂,细颗粒物(PM2.5),70,73,50,45,27,15,15,168,115,111,37,7,8,0.7,0.5
2026-04-24T2300,2873A,120.083,30.8929,湖州市,仁皇山新区,颗粒物(PM10),59,62,45,34,27,83,83,164,145,48,28,6,7,0.7,0.6
2026-04-24T2300,2907A,120.1846,30.8592,湖州市,吴兴区站,颗粒物(PM10),61,65,55,35,31,122,122,183,175,34,32,11,8,0.4,0.4
2026-04-24T2300,3562A,120.4146,30.8538,湖州市,南浔区站,颗粒物(PM10),58,60,53,38,35,96,96,166,150,26,22,8,8,0.6,0.7
2026-04-24T2300,1607A,120.904878,40.721091,葫芦岛市,龙港区,,38,26,56,18,32,119,119,146,138,10,15,10,11,0.5,0.7
2026-04-24T2300,1608A,120.8382,40.7521,葫芦岛市,化工街,,36,36,78,20,46,95,95,122,114,20,27,10,13,0.4,0.6
2026-04-24T2300,1609A,120.8339,40.7078,葫芦岛市,新区,,35,30,54,16,43,112,112,136,128,10,18,8,10,0.5,0.7
2026-04-24T2300,1610A,120.8697,40.7679,葫芦岛市,东城区,,41,41,54,25,42,100,100,133,120,19,26,8,10,0.6,0.7
2026-04-24T2300,2483A,109.9297,27.5383,怀化市,河西地税局,,45,45,26,9,14,18,18,85,57,13,11,6,7,/,/
2026-04-24T2300,2484A,109.9783,27.5342,怀化市,市四医院,NA,NA,43,32,37,25,NA,NA,82,69,26,15,4,6,0.5,0.4
2026-04-24T2300,2485A,109.9971,27.5579,怀化市,监测楼,,31,31,27,17,17,40,40,81,63,12,13,3,4,0.6,0.5
2026-04-24T2300,1210A,119.0566,33.5991,淮安市,钵池山,细颗粒物(PM2.5),66,70,42,43,20,58,58,128,104,47,20,10,10,1.0,0.6
2026-04-24T2300,1211A,119.0083,33.578,淮安市,北京南路,颗粒物(PM10),65,70,44,34,19,0,0,115,72,95,28,8,10,0.8,0.6
2026-04-24T2300,1212A,118.9938,33.6083,淮安市,市监测站,细颗粒物(PM2.5),52,51,36,36,20,64,64,135,93,47,31,12,9,0.9,0.6
2026-04-24T2300,1213A,119.135,33.5038,淮安市,楚州区监测站,颗粒物(PM10),73,81,46,28,22,3,3,133,92,85,30,7,8,0.6,0.6
2026-04-24T2300,3426A,118.8757,33.2897,淮安市,新华书店,颗粒物(PM10),52,52,38,32,16,75,75,126,104,52,13,8,7,0.4,0.3
2026-04-24T2300,4092A,119.119691,33.550006,淮安市,枚皋中路89号,,43,43,35,20,17,35,35,133,100,32,21,6,7,0.5,0.6
2026-04-24T2300,4206A,119.028838,33.631911,淮安市,承德北路606号,颗粒物(PM10),70,78,48,36,19,20,20,120,81,84,27,10,10,0.8,0.5
2026-04-24T2300,2282A,116.8005,33.9749,淮北市,监测站,,47,47,46,17,20,97,97,124,117,24,19,8,8,0.4,0.5
2026-04-24T2300,2283A,116.8094,33.9008,淮北市,烈山区政府,颗粒物(PM10),52,52,48,18,17,102,102,120,115,20,21,9,8,0.3,0.3
2026-04-24T2300,4017A,116.7926,33.9534,淮北市,市博物馆,,48,48,46,14,21,94,94,121,115,22,19,7,7,0.4,0.4
2026-04-24T2300,4100A,116.8322,33.9884,淮北市,杜集区第一实验学校,颗粒物(PM10),55,56,46,14,14,97,97,123,116,15,12,9,8,0.4,0.4
2026-04-24T2300,2277A,116.8304,32.7726,淮南市,潘集区政府,,48,48,36,24,14,82,82,126,110,28,23,10,6,0.5,0.4
2026-04-24T2300,2279A,116.8569,32.5949,淮南市,谢家集区政府,,48,48,27,20,13,102,102,130,120,22,16,9,8,0.4,0.2
2026-04-24T2300,2280A,116.8279,32.6333,淮南市,八公山区政府,,46,46,36,21,14,108,108,128,120,13,10,6,6,0.3,0.2
2026-04-24T2300,2894A,117.0561,32.6536,淮南市,经济技术开发区消防队,颗粒物(PM10),56,58,36,20,17,73,73,117,97,33,26,8,7,0.4,0.3
2026-04-24T2300,3329A,117.011,32.5891,淮南市,山南新区,,42,42,28,24,16,104,104,130,121,21,13,9,8,0.4,0.3
2026-04-24T2300,4209A,117.003137,32.644456,淮南市,国庆中路369号,,48,48,33,23,15,103,103,119,113,15,13,6,6,0.4,0.3
2026-04-24T2300,2446A,114.9021,30.474,黄冈市,职工中心,,46,44,31,32,22,72,72,110,97,17,13,9,7,0.7,0.7
2026-04-24T2300,2929A,114.8858,30.4519,黄冈市,红卫路,细颗粒物(PM2.5),54,51,31,37,22,50,50,114,99,36,14,12,7,0.4,0.3
2026-04-24T2300,3398A,114.9134,30.4446,黄冈市,市林业局,细颗粒物(PM2.5),76,74,39,48,24,50,50,114,97,45,16,4,4,0.7,0.6
2026-04-24T2300,2672A,102.02,35.5101,黄南藏族自治州,同仁县隆务镇,,44,44,55,21,28,112,112,135,128,1,2,9,10,0.2,0.2
2026-04-24T2300,2295A,118.2905,29.6965,黄山市,延安路89号,,13,13,10,7,6,24,24,77,48,10,8,5,5,0.3,0.3
2026-04-24T2300,2297A,118.1369,30.2755,黄山市,黄山区政府5号楼,,25,25,15,10,5,31,31,82,69,8,5,3,3,0.3,0.3
2026-04-24T2300,4210A,118.335445,29.720283,黄山市,滨江东路7-2号,,35,35,24,10,5,12,12,74,42,15,11,/,/,/,/
2026-04-24T2300,2423A,115.0547,30.2332,黄石市,沈家营,颗粒物(PM10),54,55,44,23,25,36,36,115,83,28,15,3,4,0.8,0.7
2026-04-24T2300,2426A,114.899,30.211,黄石市,铁山,,48,48,45,25,23,51,51,102,84,30,17,8,9,0.4,0.5
2026-04-24T2300,2427A,115.0259,30.2108,黄石市,团城山,,43,43,39,24,21,73,73,96,91,12,13,5,5,0.9,0.9
2026-04-24T2300,3149A,115.0174,30.1591,黄石市,笔架山北路,,39,39,42,17,18,84,84,106,99,7,9,8,8,0.8,0.9
2026-04-24T2300,4185A,115.078022,30.21118,黄石市,磁湖东路29号,,50,50,45,24,27,29,29,101,86,60,19,3,4,0.6,0.5
2026-04-24T2300,1392A,114.4181,23.0528,惠州市,河南岸金山湖子站,,18,17,13,12,8,40,40,70,65,22,14,7,7,0.6,0.6
2026-04-24T2300,1393A,114.4055,23.0824,惠州市,下埔横江三路子站,,19,19,16,13,10,56,56,72,65,13,10,4,5,0.8,0.7
2026-04-24T2300,1395A,114.4645,22.7832,惠州市,惠阳区承修路船湖子站,,20,20,20,13,10,47,47,47,NA,14,11,6,6,0.3,0.4
2026-04-24T2300,1396A,114.5316,22.7423,惠州市,大亚湾管委会子站,,17,17,14,11,8,47,47,50,50,12,12,5,4,0.4,0.4
2026-04-24T2300,3314A,114.4334,22.8134,惠州市,惠阳秋长,,20,NA,13,14,10,48,48,58,56,12,10,/,/,/,/
2026-04-24T2300,3452A,114.6521,22.7755,惠州市,大亚湾霞涌,,15,6,8,3,4,48,48,52,51,8,8,/,/,/,/
2026-04-24T2300,4300A,114.4089,23.1147,惠州市,文华一路1号,,19,17,16,13,10,53,53,64,56,13,13,/,/,/,/
2026-04-24T2300,2240A,130.9618,45.2926,鸡西市,环保局,,33,33,36,12,16,83,83,82,78,5,14,7,8,0.2,0.3
2026-04-24T2300,2243A,130.9294,45.2959,鸡西市,第一中学,,28,28,28,14,14,80,80,78,74,3,15,6,6,0.3,0.3
2026-04-24T2300,3707A,131.0069,45.2988,鸡西市,欧美日汽修厂,,45,45,52,16,15,66,66,76,72,5,13,6,7,0.3,0.4
2026-04-24T2300,2367A,114.9753,27.0803,吉安市,红声器材厂,,34,34,30,14,12,68,68,100,88,16,14,8,10,0.3,0.4
2026-04-24T2300,2369A,114.9903,27.1313,吉安市,市环境监测站,,34,34,28,17,17,68,68,91,82,15,14,15,16,/,/
2026-04-24T2300,2370A,115.009527,27.096792,吉安市,青原区法院,,34,34,29,10,14,49,49,90,71,23,16,8,9,0.4,0.5
2026-04-24T2300,1772A,126.54,43.8622,吉林市,哈达湾,颗粒物(PM10),82,94,75,45,52,87,87,147,123,15,15,13,8,0.3,0.4
2026-04-24T2300,1773A,126.5843,43.8358,吉林市,东局子,颗粒物(PM10),106,135,82,49,38,61,61,140,112,21,17,5,5,0.9,0.8
2026-04-24T2300,1774A,126.5051,43.8243,吉林市,电力学院,细颗粒物(PM2.5),102,119,79,62,53,67,67,153,118,11,19,2,5,0.7,0.7
2026-04-24T2300,1775A,126.6133,43.8971,吉林市,江北,颗粒物(PM10),99,118,92,45,46,66,66,148,116,14,21,10,12,0.9,0.8
2026-04-24T2300,1776A,126.5549,43.8304,吉林市,江南公园,颗粒物(PM10),76,86,73,46,49,82,82,146,120,16,15,8,8,0.6,0.7
2026-04-24T2300,2868A,126.4737,43.953,吉林市,九站,颗粒物(PM10),78,88,84,45,53,88,88,148,118,15,24,13,15,0.3,0.4
2026-04-24T2300,1299A,116.9866,36.6118,济南市,科干所,颗粒物(PM10),58,61,40,16,6,124,124,124,124,10,11,6,6,0.5,0.5
2026-04-24T2300,1300A,116.9379,36.6652,济南市,农科所,,44,44,45,16,6,111,111,118,116,13,11,6,6,0.2,0.2
2026-04-24T2300,1301A,117.1265,36.6736,济南市,开发区,,46,46,33,16,7,128,128,125,125,10,10,5,4,0.4,0.3
2026-04-24T2300,1303A,117.0616,36.6865,济南市,省种子仓库,,44,44,56,19,8,117,117,121,119,12,11,5,4,0.4,0.3
2026-04-24T2300,1304A,116.9495185,36.644937,济南市,机床二厂,,46,46,62,26,16,116,116,125,122,11,11,6,5,0.3,0.3
2026-04-24T2300,1305A,117.0496,36.6629,济南市,市监测站,,46,46,43,16,5,118,118,117,117,11,10,4,4,0.6,0.5
2026-04-24T2300,1306A,116.7674,36.5458,济南市,长清党校,颗粒物(PM10),53,54,45,10,8,108,108,124,119,12,11,6,6,0.5,0.4
2026-04-24T2300,1961A,117.5323,36.6865,济南市,东山小学,,44,44,56,19,7,119,119,124,122,15,10,4,4,0.3,0.2
2026-04-24T2300,3059A,117.7181,36.205,济南市,泰兴公司,颗粒物(PM10),60,63,49,20,13,32,32,124,99,63,31,8,9,0.4,0.3
2026-04-24T2300,3064A,117.6861,36.2172,济南市,莱芜战役纪念馆,,48,48,41,20,9,123,123,129,125,17,12,5,6,0.2,0.2
2026-04-24T2300,3494A,117.1673,36.9782,济南市,济阳区政府,颗粒物(PM10),57,59,67,22,10,95,95,111,97,23,20,6,7,0.4,0.4
2026-04-24T2300,3495A,117.1168,36.6299,济南市,锦屏中学,,42,42,39,16,4,115,115,117,114,7,6,6,5,0.3,0.4
2026-04-24T2300,4108A,117.7107,36.2385,济南市,山财大街5号,,48,48,40,22,11,128,128,129,129,17,15,5,5,0.5,0.5
2026-04-24T2300,4109A,116.9744,36.6889,济南市,无影山路12号,,44,44,47,16,8,109,109,115,112,11,11,5,4,0.4,0.3
2026-04-24T2300,1653A,116.6229,35.4288,济宁市,火炬城,,33,30,36,9,9,103,103,118,114,7,7,3,3,0.4,0.4
2026-04-24T2300,3500A,116.5808,35.3703,济宁市,北湖一中,,34,31,38,13,11,107,107,126,121,14,13,7,7,0.3,0.3
2026-04-24T2300,3501A,116.8251,35.5592,济宁市,服务中心,,42,42,42,18,15,75,75,119,108,21,16,6,3,0.5,0.5
2026-04-24T2300,3678A,116.5907,35.4054,济宁市,市第七中学,,35,30,47,12,11,110,110,128,122,11,11,5,5,0.2,0.2
2026-04-24T2300,4111A,116.6075,35.4566,济宁市,任和路,,38,38,47,11,12,114,114,127,124,7,8,7,7,0.3,0.3
2026-04-24T2300,4112A,116.5648,35.3921,济宁市,文体南路1号,,40,40,45,15,10,105,105,122,117,6,8,4,4,0.4,0.5
2026-04-24T2300,4122A,112.6071,35.1015,济源市,市委党校,颗粒物(PM10),66,72,76,21,28,80,80,120,110,21,20,8,12,0.4,0.7
2026-04-24T2300,4123A,112.596,35.0702,济源市,沁园中路1号,颗粒物(PM10),55,56,56,18,28,85,85,122,113,18,25,3,10,0.6,1
2026-04-24T2300,2255A,130.2749,46.8028,佳木斯市,佳纺,,28,28,38,10,14,64,64,83,72,8,14,3,3,0.3,0.3
2026-04-24T2300,2257A,130.3258,46.7975,佳木斯市,环保局,,22,15,18,3,10,69,69,88,77,8,13,2,2,0.1,0.1
2026-04-24T2300,4285A,130.363,46.806,佳木斯市,顺和街,,20,18,19,3,9,64,64,84,73,10,14,2,3,0.2,0.2
2026-04-24T2300,4286A,130.3952,46.8268,佳木斯市,长安路196号,,21,17,19,9,8,67,67,88,77,8,10,2,2,0.3,0.3
2026-04-24T2300,1252A,120.7439,30.778,嘉兴市,清河小学,颗粒物(PM10),56,58,51,27,28,90,90,151,133,31,24,8,8,0.6,0.7
2026-04-24T2300,1253A,120.7261,30.7477,嘉兴市,嘉兴学院,颗粒物(PM10),55,57,46,26,27,112,112,155,144,22,24,6,8,0.5,0.6
2026-04-24T2300,2872A,120.7845,30.7524,嘉兴市,南湖区残联,,45,45,48,26,29,123,123,172,158,21,20,6,7,0.6,0.7
2026-04-24T2300,3407A,120.6915,30.7741,嘉兴市,秀洲住建,颗粒物(PM10),52,52,49,22,25,114,114,170,162,19,22,7,8,0.3,0.6
2026-04-24T2300,1945A,98.291,39.7705,嘉峪关市,气象局,颗粒物(PM10),60,63,55,26,21,88,88,145,132,27,16,11,18,0.6,0.7
2026-04-24T2300,2884A,98.2672,39.7978,嘉峪关市,酒钢宾馆,颗粒物(PM10),56,58,61,11,22,102,102,141,135,16,11,16,24,0.4,0.7
2026-04-24T2300,3248A,98.2644,39.7723,嘉峪关市,雄关区,颗粒物(PM10),61,65,62,22,21,93,93,142,133,23,17,8,13,0.5,0.6
2026-04-24T2300,1383A,113.1063,22.6058,江门市,北街,,42,38,22,29,17,7,7,38,29,57,36,/,/,/,/
2026-04-24T2300,1384A,113.073,22.5835,江门市,西区,,40,28,23,28,16,9,9,39,27,51,32,/,/,/,/
2026-04-24T2300,1385A,113.0218,22.531,江门市,圭峰西,,38,26,20,26,14,19,19,38,32,36,29,/,/,/,/
2026-04-24T2300,1386A,113.0826,22.5947,江门市,东湖,,42,35,24,29,18,5,5,36,22,44,28,9,8,0.6,0.5
2026-04-24T2300,3311A,113.1077,22.5647,江门市,江海富民,,40,40,27,27,15,5,5,31,20,54,36,/,/,0.6,0.6
2026-04-24T2300,3449A,113.0496,22.4669,江门市,新会银湖,NA,NA,NA,24,29,17,NA,NA,24,14,52,39,8,8,0.5,0.5
2026-04-24T2300,3335A,113.3137,35.2643,焦作市,马村街道办,颗粒物(PM10),64,69,55,25,24,76,76,126,111,14,10,13,10,0.6,0.3
2026-04-24T2300,3336A,113.2464,35.2374,焦作市,焦作技师学院,颗粒物(PM10),56,58,49,21,26,72,72,128,111,18,13,10,11,0.6,0.7
2026-04-24T2300,3477A,113.1656,35.2536,焦作市,中站许衡医院,颗粒物(PM10),53,54,47,14,24,84,84,123,110,14,13,9,12,0.5,0.6
2026-04-24T2300,3981A,113.2456,35.18,焦作市,原李万街道办,,29,29,50,20,24,76,76,122,107,15,14,7,10,0.3,0.3
2026-04-24T2300,4264A,113.234,35.219,焦作市,新安路1731号,,50,50,50,19,23,82,82,134,120,14,10,10,11,0.3,0.4
2026-04-24T2300,4295A,113.2722,35.2121,焦作市,人民路3066号,颗粒物(PM10),62,66,52,31,27,74,74,114,103,17,15,5,6,0.4,0.4
2026-04-24T2300,1708A,116.3701,23.5345,揭阳市,新兴,,23,18,15,16,11,15,15,38,31,27,16,5,5,0.9,0.8
2026-04-24T2300,1709A,116.3261,23.5442,揭阳市,西马,,18,14,16,12,10,23,23,40,32,20,15,5,5,1.0,0.8
2026-04-24T2300,1710A,116.361,23.5627,揭阳市,东兴,,26,NA,16,18,11,12,12,32,26,26,17,2,2,/,/
2026-04-24T2300,1711A,116.4151,23.5295,揭阳市,渔湖,,26,NA,15,18,12,6,6,30,24,42,20,6,2,/,/
2026-04-24T2300,3320A,116.4028,23.5699,揭阳市,曲溪,,33,25,16,23,11,12,12,29,24,26,19,10,9,0.8,0.6
2026-04-24T2300,1944A,102.1691,38.5166,金昌市,天庆家园,颗粒物(PM10),55,56,62,24,28,92,92,132,119,20,10,11,5,0.5,0.5
2026-04-24T2300,4022A,102.1648,38.5369,金昌市,金川区人防中心,颗粒物(PM10),62,66,52,30,21,85,85,130,115,27,8,36,7,0.5,0.4
2026-04-24T2300,4239A,102.193042,38.531887,金昌市,长春路96号,颗粒物(PM10),70,77,66,30,25,98,98,127,117,13,6,78,10,0.8,0.4
2026-04-24T2300,1262A,119.6478,29.0773,金华市,十五中,,49,49,45,24,24,113,113,143,123,28,21,4,4,0.6,0.6
2026-04-24T2300,1263A,119.6859,29.1032,金华市,监测站,,47,47,37,22,21,112,112,163,136,42,29,6,4,0.6,0.6
2026-04-24T2300,3659A,119.656,29.1132,金华市,气象局,,48,48,39,22,20,39,39,126,91,82,33,4,4,0.4,0.4
2026-04-24T2300,1767A,121.1114,41.0879,锦州市,南山,细颗粒物(PM2.5),137,111,76,100,61,44,44,116,96,66,36,11,12,1.2,0.8
2026-04-24T2300,1768A,121.060361,40.842794,锦州市,开发区,,41,41,94,13,47,90,90,130,112,37,33,6,8,0.4,0.6
2026-04-24T2300,1769A,121.1836,41.1118,锦州市,百股街道,细颗粒物(PM2.5),150,164,74,114,64,31,31,121,95,79,35,21,9,1.1,0.7
2026-04-24T2300,1770A,121.1176,41.1224,锦州市,天安街道,细颗粒物(PM2.5),135,129,81,98,58,38,38,105,85,68,37,9,8,1.0,0.7
2026-04-24T2300,1771A,121.1303,41.1385,锦州市,北湖公园,细颗粒物(PM2.5),139,126,80,102,64,50,50,105,90,49,32,12,10,0.9,0.7
2026-04-24T2300,2160A,112.8496,35.5051,晋城市,自来水公司,颗粒物(PM10),71,79,52,14,15,107,107,129,126,22,26,5,4,0.4,0.4
2026-04-24T2300,2162A,112.8509,35.4886,晋城市,市环保局,,49,49,50,25,17,104,104,124,118,13,21,4,5,0.4,0.4
2026-04-24T2300,3620A,112.8258,35.4804,晋城市,泽州一中,颗粒物(PM10),58,60,51,26,23,109,109,126,122,16,17,4,4,0.6,0.6
2026-04-24T2300,4078A,112.8246,35.5152,晋城市,前书院路,颗粒物(PM10),60,64,52,29,17,76,76,123,114,35,26,7,8,0.5,0.8
2026-04-24T2300,4079A,112.8864,35.4773,晋城市,祥云街666号,,50,50,44,24,20,101,101,121,118,18,17,8,8,0.5,0.5
2026-04-24T2300,2174A,112.6992,37.6984,晋中市,榆次区政府,颗粒物(PM10),55,56,84,34,31,96,96,112,100,14,23,13,11,0.7,0.8
2026-04-24T2300,2865A,112.7195,37.683,晋中市,榆次三中,颗粒物(PM10),55,56,80,30,26,96,96,119,107,11,23,14,11,0.7,0.6
2026-04-24T2300,4080A,112.7375,37.7215,晋中市,广安街188号,颗粒物(PM10),53,54,79,26,25,102,102,114,104,15,20,6,9,0.2,0.4
2026-04-24T2300,4200A,112.7478,37.6954,晋中市,迎宾街26号,颗粒物(PM10),53,53,84,32,29,104,104,122,109,13,22,12,10,0.5,0.5
2026-04-24T2300,2439A,112.2012,31.048,荆门市,竹园小学,颗粒物(PM10),66,72,61,34,34,101,101,127,123,13,17,5,6,0.5,0.4
2026-04-24T2300,2440A,112.1968,30.9892,荆门市,掇刀,"颗粒物(PM10),细颗粒物(PM2.5)",66,72,60,43,33,98,98,129,122,16,14,11,8,0.6,0.6
2026-04-24T2300,3012A,112.1849,31.0361,荆门市,西山林语,颗粒物(PM10),58,60,57,35,30,74,74,119,107,12,10,7,6,0.5,0.5
2026-04-24T2300,3547A,112.1631,31.0134,荆门市,龙泉中学南校,颗粒物(PM10),58,61,54,38,30,99,99,129,123,14,13,8,5,0.4,0.4
2026-04-24T2300,4124A,112.2213,31.0654,荆门市,新台西路6号,细颗粒物(PM2.5),58,50,50,39,36,84,84,125,116,17,18,13,10,0.6,0.7
2026-04-24T2300,1844A,112.2493,30.3198,荆州市,市图书馆,,41,41,33,28,28,81,81,111,98,20,20,10,9,0.6,0.6
2026-04-24T2300,1845A,112.2009,30.3543,荆州市,市委党校,,42,39,36,29,28,67,67,92,81,20,19,9,9,0.5,0.5
2026-04-24T2300,3194A,112.2749,30.3124,荆州市,管委会,,45,37,38,31,29,75,75,102,90,19,22,11,10,0.5,0.5
2026-04-24T2300,4268A,112.1722,30.3366,荆州市,学苑路85号,,30,26,30,21,27,66,66,118,100,18,14,6,6,0.7,0.6
2026-04-24T2300,2343A,117.2114,29.2931,景德镇市,老干部活动中心,,43,36,17,30,15,19,19,56,46,18,9,5,6,0.9,0.6
2026-04-24T2300,2344A,117.1893,29.2789,景德镇市,兽医站,,37,37,24,17,13,27,27,62,51,15,13,4,4,0.8,0.6
2026-04-24T2300,2346A,117.246,29.2958,景德镇市,陶研所,,26,NA,19,18,12,27,27,65,51,7,10,4,5,1.0,0.7
2026-04-24T2300,4289A,117.154766,29.256967,景德镇市,青少年活动中心,,39,NA,18,27,12,17,17,61,52,29,12,63,14,/,/
2026-04-24T2300,1803A,115.9873,29.6816,九江市,十里,,36,36,23,18,10,28,28,95,73,52,22,7,6,0.9,0.7
2026-04-24T2300,1804A,115.9583,29.7047,九江市,茅山头,,38,38,20,15,10,30,30,103,76,46,17,4,4,0.7,0.5
2026-04-24T2300,1805A,115.9877,29.7295,九江市,西园,,36,36,19,17,11,69,69,102,83,33,23,9,4,0.7,0.6
2026-04-24T2300,1808A,115.9112,29.6038,九江市,综合工业园,,26,20,19,12,10,20,20,96,74,52,30,7,8,0.6,0.5
2026-04-24T2300,3190A,116.0254,29.6995,九江市,外国语学校,,33,33,20,14,10,38,38,90,66,50,24,13,10,0.8,0.7
2026-04-24T2300,4253A,116.010205,29.659402,九江市,莲花大道8号,,27,27,21,6,8,58,58,89,80,10,11,4,5,0.5,0.5
2026-04-24T2300,4240A,98.495752,39.733935,酒泉市,玉门东路5号,颗粒物(PM10),72,80,56,37,33,76,76,116,107,18,8,7,8,0.5,0.3
2026-04-24T2300,4241A,98.5099,39.7506,酒泉市,北大街108号,颗粒物(PM10),60,63,54,24,20,75,75,112,104,13,7,8,9,0.4,0.3
2026-04-24T2300,2698A,76.0071,39.466,喀什地区,巡警大队,颗粒物(PM10),196,342,153,80,55,98,98,106,98,13,14,4,4,0.2,0.2
2026-04-24T2300,2699A,75.9756,39.4693,喀什地区,吾办,颗粒物(PM10),193,335,145,43,50,NA,NA,109,106,6,6,4,5,NA,0.6
2026-04-24T2300,4027A,75.9485,39.4688,喀什地区,老干局,细颗粒物(PM2.5),212,310,142,162,57,101,101,109,104,7,7,3,3,0.3,0.4
2026-04-24T2300,1824A,114.3389,34.778,开封市,肿瘤医院,,37,37,40,21,22,81,81,115,102,13,13,6,6,0.6,0.6
2026-04-24T2300,1826A,114.2884,34.7966,开封市,世纪星幼儿园,,40,40,43,19,21,79,79,114,103,14,11,6,6,0.6,0.6
2026-04-24T2300,3147A,114.3434,34.8101,开封市,龙亭公园,,32,32,39,10,19,85,85,119,107,16,17,7,7,0.4,0.4
2026-04-24T2300,3210A,114.3645,34.7955,开封市,汴京公园,,37,37,42,16,20,79,79,115,102,15,15,4,4,0.4,0.4
2026-04-24T2300,3473A,114.2485,34.8306,开封市,技师学院,,39,39,46,18,20,89,89,119,109,13,14,4,4,0.5,0.4
2026-04-24T2300,3592A,114.4518,34.7503,开封市,祥符区生态环境局,,38,38,37,18,23,68,68,111,90,25,20,7,7,0.5,0.5
2026-04-24T2300,1951A,84.886,45.6029,克拉玛依市,长征新村,,28,19,22,19,14,78,78,98,79,8,5,7,7,0.5,0.4
2026-04-24T2300,1952A,84.8894,45.5827,克拉玛依市,南林小区,,24,19,26,3,4,76,76,98,79,2,3,2,2,0.2,0.1
2026-04-24T2300,1954A,84.896,44.3328,克拉玛依市,独山子区,,22,16,61,3,10,69,69,96,71,7,9,6,6,0.4,0.4
2026-04-24T2300,1955A,85.6888,46.0909,克拉玛依市,乌尔禾区商贸楼,,43,43,58,15,15,65,65,90,82,14,6,3,4,0.1,0.1
2026-04-24T2300,3612A,85.1045,45.6895,克拉玛依市,白碱滩区新站,,46,46,85,14,21,77,77,110,92,11,4,8,8,0.2,0.2
2026-04-24T2300,2697A,76.1457,39.7143,克孜勒苏柯尔克孜自治州,市人民政府,颗粒物(PM10),123,178,151,32,62,113,113,110,110,6,7,5,8,0.3,0.2
2026-04-24T2300,3665A,76.1654,39.7157,克孜勒苏柯尔克孜自治州,克州文化中心,NA,NA,NA,156,NA,67,118,118,105,NA,NA,5,3,5,0.8,0.2
2026-04-24T2300,1450A,102.8203,24.889,昆明市,呈贡新区,,46,43,46,32,36,103,103,159,137,7,15,4,6,0.4,0.4
2026-04-24T2300,1452A,102.7253,25.0904,昆明市,龙泉镇,细颗粒物(PM2.5),68,73,53,44,35,82,82,151,127,12,17,5,5,0.6,0.6
2026-04-24T2300,1453A,102.7267,25.0378,昆明市,东风东路,颗粒物(PM10),62,66,61,35,36,89,89,160,134,14,22,2,3,0.6,0.6
2026-04-24T2300,1454A,102.6744,25.0671,昆明市,金鼎山,细颗粒物(PM2.5),72,62,57,46,36,92,92,163,137,11,16,2,3,0.7,0.8
2026-04-24T2300,1455A,102.6643,25.0401,昆明市,碧鸡广场,颗粒物(PM10),77,87,57,29,37,85,85,154,129,17,20,5,6,0.6,0.6
2026-04-24T2300,3179A,102.7491,25.012,昆明市,官渡区博物馆,颗粒物(PM10),60,63,59,39,37,80,80,155,126,22,28,4,5,0.7,0.7
2026-04-24T2300,3375A,102.8016,24.8336,昆明市,青年创业园,颗粒物(PM10),58,60,59,36,42,102,102,154,136,6,16,4,5,0.6,0.7
2026-04-24T2300,3550A,102.8,24.9787,昆明市,昆明学院,颗粒物(PM10),65,71,66,40,34,88,88,156,128,14,24,5,6,0.5,0.6
2026-04-24T2300,3551A,102.5969,24.6738,昆明市,晋宁区生态环境分局,细颗粒物(PM2.5),58,58,57,39,44,103,103,154,138,8,10,3,6,0.5,0.6
2026-04-24T2300,3552A,102.6673,24.9861,昆明市,云天化总部,,50,50,51,34,31,88,88,158,127,13,17,3,5,0.6,0.7
2026-04-24T2300,1456A,91.132,29.6515,拉萨市,八廓街,,26,26,26,6,11,81,81,112,104,15,13,4,8,0.5,0.3
2026-04-24T2300,1457A,91.1221,29.6748,拉萨市,市环保局,,25,25,28,3,11,76,76,103,95,21,20,4,7,0.3,0.4
2026-04-24T2300,1458A,91.0874,29.6476,拉萨市,区监测站,,26,14,18,6,13,81,81,108,102,26,23,4,8,0.3,0.3
2026-04-24T2300,1459A,91.1774,29.6541,拉萨市,西藏大学,,31,22,20,6,6,98,98,106,104,9,13,3,7,0.3,0.3
2026-04-24T2300,1460A,90.9798,29.6586,拉萨市,区辐射站,,29,22,30,7,11,92,92,94,89,10,28,4,7,0.3,0.3
2026-04-24T2300,1461A,91.0831,29.6292,拉萨市,拉萨火车站,,29,14,22,6,11,90,90,107,103,18,23,4,5,0.2,0.3
2026-04-24T2300,2520A,109.2203,23.7252,来宾市,来宾技工学校,,32,32,25,18,14,70,70,119,110,18,10,6,7,0.5,0.4
2026-04-24T2300,3535A,109.1781,23.7293,来宾市,兴宾区政府,,48,48,31,29,14,67,67,133,120,25,10,10,10,0.5,0.5
2026-04-24T2300,4002A,109.2312,23.7428,来宾市,中南小学,,26,26,25,16,14,74,74,127,117,22,14,7,8,0.5,0.5
2026-04-24T2300,1479A,103.8309,36.0467,兰州市,铁路设计院,颗粒物(PM10),95,112,121,43,54,20,20,129,84,89,33,6,7,0.6,0.6
2026-04-24T2300,3241A,103.7439,36.0841,兰州市,百合公园,颗粒物(PM10),80,92,121,43,48,12,12,122,87,85,44,8,9,0.3,0.4
2026-04-24T2300,3242A,103.9613,35.9985,兰州市,和平,颗粒物(PM10),71,79,115,31,62,81,81,137,114,26,12,7,10,0.3,0.4
2026-04-24T2300,4236A,103.629272,36.093822,兰州市,庄浪东路808号,颗粒物(PM10),94,111,104,38,59,16,16,128,83,88,21,8,10,0.5,0.3
2026-04-24T2300,4237A,103.7251,36.104344,兰州市,安宁西路88号,"颗粒物(PM10),细颗粒物(PM2.5)",90,105,125,55,62,43,43,135,107,66,32,9,13,0.5,0.3
2026-04-24T2300,4238A,103.846982,36.067567,兰州市,北滨河东路1号,颗粒物(PM10),79,90,108,38,46,4,4,127,86,95,41,8,11,0.6,0.5
2026-04-24T2300,1067A,116.6712,39.5109,廊坊市,药材公司,颗粒物(PM10),87,101,71,51,42,98,98,130,118,16,13,4,3,0.6,0.5
2026-04-24T2300,1068A,116.7215,39.5592,廊坊市,开发区,"颗粒物(PM10),细颗粒物(PM2.5)",96,114,76,58,42,55,55,135,119,52,14,3,4,0.5,0.4
2026-04-24T2300,1070A,116.7246,39.5273,廊坊市,北华航天学院,细颗粒物(PM2.5),82,88,65,51,36,62,62,143,128,41,15,3,4,0.6,0.4
2026-04-24T2300,2919A,116.7022,39.5454,廊坊市,河北工业大学,细颗粒物(PM2.5),76,82,59,48,36,69,69,143,130,43,15,3,4,0.6,0.4
2026-04-24T2300,2536A,103.7629,29.5844,乐山市,牛耳桥,颗粒物(PM10),68,74,60,42,42,34,34,148,113,48,27,4,6,0.7,0.7
2026-04-24T2300,2537A,103.7501,29.6002,乐山市,市第三水厂,颗粒物(PM10),60,63,61,37,38,31,31,145,115,50,26,4,5,0.8,0.7
2026-04-24T2300,2538A,103.7571,29.5664,乐山市,市监测站,细颗粒物(PM2.5),74,80,64,47,37,78,78,138,120,25,21,10,6,1.1,0.7
2026-04-24T2300,3361A,103.7313,29.563,乐山市,理工大学,细颗粒物(PM2.5),90,79,59,55,34,58,58,153,125,39,23,7,6,1.0,0.7
2026-04-24T2300,2599A,100.2497,26.8802,丽江市,丽江古城,颗粒物(PM10),53,53,42,28,18,96,96,115,111,11,9,5,6,0.6,0.5
2026-04-24T2300,2600A,100.2203,26.8906,丽江市,市中心,,32,32,31,20,14,96,96,116,112,7,11,5,5,0.5,0.5
2026-04-24T2300,1267A,119.9141,28.4513,丽水市,监测站大楼,,26,26,21,10,11,27,27,87,51,25,15,4,5,0.5,0.5
2026-04-24T2300,1268A,119.93,28.4589,丽水市,莲都小学,,19,19,22,6,9,31,31,88,52,28,18,/,/,/,/
2026-04-24T2300,1269A,119.8794,28.4232,丽水市,余庄前,,14,14,19,3,11,6,6,78,35,14,11,4,4,0.4,0.4
2026-04-24T2300,1173A,119.1759,34.5885,连云港市,市环境监测站,,41,41,43,19,22,78,78,128,119,31,28,9,17,0.6,0.6
2026-04-24T2300,3000A,119.3577,34.6971,连云港市,德源药业,颗粒物(PM10),72,80,47,22,18,29,29,131,100,61,32,5,9,0.6,0.7
2026-04-24T2300,3007A,119.178,34.8442,连云港市,新城一中,,46,46,50,26,28,71,71,128,109,36,31,5,10,0.7,0.7
2026-04-24T2300,3008A,119.3607,34.7519,连云港市,胡沟管理处,,29,14,26,14,17,92,92,135,126,36,30,8,14,0.4,0.5
2026-04-24T2300,3009A,119.1478,34.5913,连云港市,矿山设计院,,35,31,46,12,20,110,110,127,124,16,23,6,21,0.6,0.7
2026-04-24T2300,3434A,119.2414,34.6539,连云港市,工贸学校,,35,34,45,16,21,110,110,128,124,10,12,5,9,0.4,0.5
2026-04-24T2300,3664A,119.4171,34.734,连云港市,连云街道,,35,28,44,13,20,111,111,123,118,9,17,7,10,0.4,0.5
2026-04-24T2300,2573A,102.2629,27.8981,凉山彝族自治州,西昌市政府,,29,24,21,13,16,91,91,112,99,10,8,11,4,0.8,0.5
2026-04-24T2300,2574A,102.2686,27.885,凉山彝族自治州,凉山州政府,,26,18,23,10,16,82,82,97,88,9,10,11,5,0.7,0.5
2026-04-24T2300,4229A,102.2342,27.8859,凉山彝族自治州,凯乐南路30号,,26,24,29,14,17,81,81,96,87,14,21,20,5,1.1,0.5
2026-04-24T2300,2212A,123.1978,41.2036,辽阳市,宏伟区,颗粒物(PM10),59,62,64,34,26,126,126,144,139,13,12,8,8,0.6,0.5
2026-04-24T2300,2213A,123.1684,41.2497,辽阳市,新华园,颗粒物(PM10),69,76,77,39,30,116,116,146,142,29,19,10,11,0.8,0.6
2026-04-24T2300,2214A,123.2355,41.2663,辽阳市,滨河路,细颗粒物(PM2.5),60,62,64,40,27,100,100,141,132,36,18,9,9,0.6,0.5
2026-04-24T2300,4083A,123.153,41.2874,辽阳市,铁西路150号,细颗粒物(PM2.5),66,71,82,43,33,118,118,127,126,20,18,12,11,0.8,0.7
2026-04-24T2300,2227A,125.1359,42.8845,辽源市,环保局,颗粒物(PM10),53,54,62,22,38,86,86,152,127,12,20,7,8,0.4,0.6
2026-04-24T2300,4085A,125.0998,42.9134,辽源市,安宁大街333号,颗粒物(PM10),55,56,77,22,42,98,98,146,123,8,18,5,7,0.4,0.6
2026-04-24T2300,1625A,115.9789,36.4372,聊城市,区政府,,50,50,52,11,11,88,88,119,108,14,10,6,6,0.6,0.6
2026-04-24T2300,3200A,115.9772,36.4986,聊城市,监控中心,,45,45,57,11,12,106,106,127,120,11,9,8,8,0.4,0.3
2026-04-24T2300,3513A,116.0443,36.436,聊城市,九州社区,颗粒物(PM10),52,52,51,15,16,93,93,129,115,18,14,9,6,0.4,0.4
2026-04-24T2300,4018A,116.0564,36.4609,聊城市,星美广场,颗粒物(PM10),53,53,49,14,11,83,83,117,104,16,11,6,5,0.3,0.4
2026-04-24T2300,4113A,116.0091,36.4495,聊城市,利民路,,40,40,50,16,13,92,92,129,118,17,11,9,8,0.5,0.4
2026-04-24T2300,2632A,94.3683,29.6373,林芝市,林芝监测站,,20,16,20,9,9,64,64,82,74,5,5,3,3,0.5,0.4
2026-04-24T2300,2633A,94.3616,29.6634,林芝市,林芝人民医院,,22,22,28,6,9,68,68,88,80,6,4,3,4,0.6,0.4
2026-04-24T2300,2603A,100.0779,23.8981,临沧市,市环保局,细颗粒物(PM2.5),84,53,58,52,40,91,91,134,127,16,10,6,7,0.9,0.7
2026-04-24T2300,2604A,100.0894,23.882,临沧市,市气象局,细颗粒物(PM2.5),120,91,56,81,44,100,100,139,129,16,10,10,9,NA,0.7
2026-04-24T2300,1733A,111.5552,36.0791,临汾市,临钢医院,NA,NA,NA,53,NA,20,NA,NA,111,NA,NA,21,NA,9,NA,0.7
2026-04-24T2300,1734A,111.4984,36.0734,临汾市,技工学校,颗粒物(PM10),56,58,59,28,25,94,94,106,103,15,24,6,10,0.4,0.6
2026-04-24T2300,1736A,111.5017,36.0857,临汾市,市委,颗粒物(PM10),61,65,62,18,19,100,100,113,111,12,22,6,9,0.6,0.9
2026-04-24T2300,3018A,111.5048,36.1015,临汾市,唐尧大酒店,颗粒物(PM10),60,63,72,22,19,100,100,112,109,12,22,6,8,0.6,0.8
2026-04-24T2300,4244A,111.4879,36.053,临汾市,启星学校,颗粒物(PM10),63,67,65,28,23,93,93,105,103,17,28,6,9,0.5,0.8
2026-04-24T2300,4271A,103.2464,35.6123,临夏回族自治州,滨河东路1号,颗粒物(PM10),122,177,122,73,50,12,12,113,75,76,28,10,9,0.8,0.4
2026-04-24T2300,4310A,103.207136,35.599807,临夏回族自治州,新华街21号,颗粒物(PM10),108,140,109,67,46,40,40,93,72,26,15,7,7,0.9,0.3
2026-04-24T2300,1618A,118.3429,35.0532,临沂市,沂河小区,颗粒物(PM10),56,58,50,21,18,71,71,125,111,32,22,26,13,0.3,0.4
2026-04-24T2300,1619A,118.2962,35.0568,临沂市,鲁南制药厂,颗粒物(PM10),51,51,53,17,22,83,83,130,115,29,34,23,15,0.2,0.3
2026-04-24T2300,1620A,118.2793,34.9976,临沂市,新光毛纺厂,颗粒物(PM10),67,73,50,29,21,64,64,127,105,40,27,34,16,0.3,0.3
2026-04-24T2300,1621A,118.3955,35.0889,临沂市,河东保险公司,颗粒物(PM10),53,53,45,20,17,88,88,135,123,29,22,26,13,0.3,0.3
2026-04-24T2300,3370A,118.3563,35.0215,临沂市,十里堡居委,颗粒物(PM10),55,56,44,23,18,59,59,133,112,50,30,21,12,0.5,0.5
2026-04-24T2300,3496A,118.359,35.1067,临沂市,南坊新区,,44,44,47,15,19,87,87,128,116,26,24,21,15,0.2,0.3
2026-04-24T2300,3860A,118.3915,35.0297,临沂市,皇山花园小区,颗粒物(PM10),51,51,41,28,17,75,75,131,115,38,26,19,13,0.4,0.4
2026-04-24T2300,1870A,109.4854,24.3898,柳州市,柳东小学,NA,NA,NA,21,34,13,49,49,111,101,38,8,10,6,NA,0.6
2026-04-24T2300,1871A,109.4109,24.3304,柳州市,环保监测站,,35,NA,23,24,13,26,26,101,83,47,13,5,5,0.9,0.7
2026-04-24T2300,1872A,109.3886,24.3408,柳州市,河西水厂,细颗粒物(PM2.5),70,70,26,45,16,29,29,116,94,49,14,10,11,0.8,0.5
2026-04-24T2300,1873A,109.4263,24.2951,柳州市,市四中,颗粒物(PM10),57,59,25,31,16,40,40,101,81,37,12,8,8,0.6,0.4
2026-04-24T2300,1874A,109.396,24.3658,柳州市,市九中,颗粒物(PM10),55,56,30,36,16,61,61,106,90,21,11,6,6,0.6,0.3
2026-04-24T2300,1875A,109.4912,24.3164,柳州市,古亭山,,29,24,25,20,14,29,29,98,74,57,14,5,6,0.6,0.6
2026-04-24T2300,3402A,109.5422,24.3994,柳州市,市二中,细颗粒物(PM2.5),68,48,23,44,15,28,28,105,85,50,13,32,10,0.5,0.4
2026-04-24T2300,2307A,116.5078,31.7369,六安市,监测大楼,,27,20,14,16,11,84,84,104,100,11,12,4,4,0.3,0.3
2026-04-24T2300,2308A,116.4738,31.7642,六安市,皖西学院,,30,21,15,17,10,96,96,112,109,8,8,4,4,0.4,0.3
2026-04-24T2300,2309A,116.4997,31.7904,六安市,朝阳厂,,28,14,11,14,10,88,88,109,103,12,10,5,6,0.3,0.3
2026-04-24T2300,2310A,116.5566,31.7885,六安市,开发区,,29,NA,8,20,13,92,92,118,108,13,17,4,4,0.4,0.4
2026-04-24T2300,2577A,104.8293,26.592,六盘水市,黄土坡,细颗粒物(PM2.5),58,54,41,39,28,69,69,80,77,14,13,6,7,0.2,0.2
2026-04-24T2300,2579A,104.8481,26.5898,六盘水市,民中,细颗粒物(PM2.5),52,50,36,36,28,62,62,77,74,15,13,4,5,0.6,0.5
2026-04-24T2300,2580A,104.9541,26.5506,六盘水市,双水,细颗粒物(PM2.5),74,58,41,47,27,61,61,75,70,11,9,4,4,0.3,0.3
2026-04-24T2300,4151A,104.8899,26.5685,六盘水市,钟山大道中段564号,细颗粒物(PM2.5),72,62,50,46,27,52,52,77,72,9,9,2,3,0.6,0.4
2026-04-24T2300,2336A,117.022,25.1031,龙岩市,龙岩市监测站,,16,11,16,11,11,46,46,74,62,8,9,6,8,0.6,0.7
2026-04-24T2300,2337A,117.0257,25.0662,龙岩市,闽西职业技术学院,,17,16,16,8,11,52,52,66,50,3,6,6,7,0.6,0.8
2026-04-24T2300,2338A,117.0195,25.0306,龙岩市,龙岩学院,,17,11,18,6,10,54,54,68,48,5,6,3,4,/,/
2026-04-24T2300,2885A,104.9344,33.3827,陇南市,滨江中学,颗粒物(PM10),59,62,76,33,34,76,76,111,100,8,10,8,8,0.5,0.5
2026-04-24T2300,3247A,104.9551,33.3709,陇南市,市总工会,颗粒物(PM10),64,69,64,28,37,75,75,112,101,9,9,8,8,0.5,0.5
2026-04-24T2300,2488A,111.9984,27.7346,娄底市,市监测站,,36,30,37,25,26,101,101,109,106,13,17,7,6,0.5,0.5
2026-04-24T2300,2491A,111.9888,27.7035,娄底市,市政府,,40,31,32,28,22,71,71,120,110,15,12,3,4,0.4,0.4
2026-04-24T2300,4127A,111.9812,27.7591,娄底市,涟钢职大,细颗粒物(PM2.5),54,54,33,37,18,86,86,117,108,16,11,2,5,0.6,0.8
2026-04-24T2300,4128A,112.0303,27.7457,娄底市,娄底体校,,50,50,34,32,24,47,47,105,92,21,9,3,4,0.5,0.4
2026-04-24T2300,1894A,105.4427,28.9063,泸州市,小市上码头,,41,41,32,24,18,48,48,102,86,27,16,8,9,0.6,0.6
2026-04-24T2300,1895A,105.4241,28.8573,泸州市,兰田宪桥,,40,32,34,28,26,40,40,97,77,27,21,8,8,0.7,0.6
2026-04-24T2300,1896A,105.4378,28.8833,泸州市,市环监站,,31,31,32,17,18,40,40,102,80,38,20,10,10,1.0,0.9
2026-04-24T2300,4272A,105.3689,28.7783,泸州市,纳溪中医医院,颗粒物(PM10),55,56,44,31,22,34,34,104,80,20,17,4,5,0.7,0.6
2026-04-24T2300,2183A,111.1447,37.5212,吕梁市,环保局,,45,45,85,24,26,72,72,118,107,23,29,3,4,0.5,0.5
2026-04-24T2300,2185A,111.1285,37.5338,吕梁市,自来水公司,颗粒物(PM10),64,69,95,33,36,62,62,116,101,16,28,3,4,0.8,0.6
2026-04-24T2300,2867A,111.1225,37.5093,吕梁市,马茂庄小学,颗粒物(PM10),68,74,94,26,25,48,48,118,102,31,35,2,3,0.8,0.5
2026-04-24T2300,1812A,112.3934,34.6517,洛阳市,市委党校,,36,36,38,13,21,115,115,115,112,10,13,6,9,0.4,0.6
2026-04-24T2300,1815A,112.494,34.6883,洛阳市,河南林校,,47,47,47,15,20,112,112,124,116,12,15,9,13,0.4,0.6
2026-04-24T2300,1816A,112.3843,34.623,洛阳市,开发区管委会,,37,36,41,13,22,117,117,118,115,8,10,8,12,0.4,0.5
2026-04-24T2300,1817A,112.4263,34.6249,洛阳市,市委新办公区,,39,39,44,9,23,114,114,116,112,13,13,8,10,0.4,0.5
2026-04-24T2300,3340A,112.6005,34.6323,洛阳市,伊滨,,40,40,44,15,24,100,100,116,110,14,19,9,11,0.3,0.4
2026-04-24T2300,3341A,112.495,34.6338,洛阳市,中移产业园,,39,39,41,19,25,111,111,118,110,9,12,8,12,0.3,0.5
2026-04-24T2300,3593A,112.5736,34.8993,洛阳市,吉利监测站,,37,37,44,21,22,100,100,126,120,12,16,7,9,0.4,0.4
2026-04-24T2300,3635A,112.3678,34.6623,洛阳市,河科大西苑校区,,38,34,38,11,23,120,120,124,120,8,11,8,10,0.4,0.5
2026-04-24T2300,3636A,112.4387,34.678,洛阳市,英才小学,,42,42,52,20,27,111,111,115,109,8,10,5,9,0.3,0.5
2026-04-24T2300,4214A,112.460027,34.694929,洛阳市,春都路1号院,颗粒物(PM10),54,55,47,22,22,109,109,118,110,10,13,8,11,0.4,0.5
2026-04-24T2300,2399A,114.051,33.5721,漯河市,三五一五工厂,,41,41,30,20,20,64,64,116,98,26,20,4,8,0.5,0.4
2026-04-24T2300,2400A,114.0055,33.5698,漯河市,漯河大学,,28,19,23,19,19,75,75,113,100,17,17,5,6,0.3,0.3
2026-04-24T2300,2401A,114.0134,33.5826,漯河市,市水利局,,29,29,28,16,16,78,78,112,100,13,11,4,5,0.4,0.4
2026-04-24T2300,2402A,114.0261,33.5697,漯河市,市广电局,,27,27,24,17,17,73,73,116,99,22,16,4,7,0.3,0.3
2026-04-24T2300,3478A,113.9691,33.568,漯河市,市图书馆,,36,36,31,17,16,68,68,106,93,21,16,10,7,0.6,0.5
2026-04-24T2300,4250A,114.089259,33.588274,漯河市,韶山路11号,,36,36,32,22,18,57,57,111,90,24,16,6,7,0.3,0.3
2026-04-24T2300,1798A,118.5084,31.6838,马鞍山市,湖东路四小,颗粒物(PM10),81,93,49,32,21,6,6,142,91,81,37,6,8,0.7,0.6
2026-04-24T2300,1799A,118.5019,31.6449,马鞍山市,开发区,颗粒物(PM10),78,88,48,30,22,20,20,143,89,81,38,6,8,0.5,0.6
2026-04-24T2300,3633A,118.4914,31.681,马鞍山市,雨山,颗粒物(PM10),78,89,44,31,23,24,24,141,106,73,36,10,12,0.9,0.7
2026-04-24T2300,4191A,118.527362,31.722269,马鞍山市,慈湖高新区,颗粒物(PM10),78,89,62,30,31,13,13,134,93,73,39,5,10,0.5,0.8
2026-04-24T2300,1686A,111.0285,21.469,茂名市,电白南海,,30,24,25,21,15,31,31,37,32,13,14,7,7,0.7,0.8
2026-04-24T2300,1687A,110.9294,21.6533,茂名市,茂石化七小,,28,NA,22,19,15,30,30,42,33,15,15,32,11,0.7,0.7
2026-04-24T2300,1688A,110.9108,21.6688,茂名市,健康路,,19,NA,20,13,16,21,21,42,31,17,16,5,13,0.6,0.7
2026-04-24T2300,1689A,110.8592,21.6826,茂名市,高岭,,26,19,38,18,19,19,19,35,26,13,16,5,13,/,/
2026-04-24T2300,3450A,111.0101,21.5165,茂名市,电白水东,,32,NA,17,22,16,32,32,42,32,14,15,7,6,/,/
2026-04-24T2300,2540A,103.8414,30.0871,眉山市,气象局,颗粒物(PM10),99,118,81,52,31,68,68,164,135,38,29,8,9,1.0,0.8
2026-04-24T2300,3148A,103.829,30.0563,眉山市,区人社局,细颗粒物(PM2.5),101,92,76,61,41,78,78,157,124,39,35,10,11,1.1,0.9
2026-04-24T2300,4148A,103.8836,30.0695,眉山市,眉职院,颗粒物(PM10),83,96,66,48,31,72,72,164,131,35,22,10,9,1.0,0.8
2026-04-24T2300,1690A,116.1248,24.3307,梅州市,梅江月梅,,19,NA,16,13,15,35,35,47,40,10,13,/,/,/,/
2026-04-24T2300,1691A,116.0798,24.2719,梅州市,梅县新城,,19,NA,14,13,10,30,30,51,36,14,11,8,8,0.6,0.6
2026-04-24T2300,3315A,116.1234,24.2994,梅州市,梅龙,,19,19,13,13,11,33,33,50,40,12,11,6,6,0.7,0.7
2026-04-24T2300,1878A,104.7775,31.4741,绵阳市,富乐山,细颗粒物(PM2.5),58,53,53,39,38,116,116,146,138,17,21,7,8,0.7,0.8
2026-04-24T2300,1880A,104.6698,31.4668,绵阳市,高新区自来水公司,颗粒物(PM10),88,103,69,51,35,5,5,154,108,115,34,7,7,1.0,0.8
2026-04-24T2300,3491A,104.6899,31.5324,绵阳市,西科大附属小学,颗粒物(PM10),93,110,77,53,36,56,56,157,121,65,30,7,5,0.7,0.6
2026-04-24T2300,3492A,104.5647,31.5343,绵阳市,安州区旅游局,细颗粒物(PM2.5),100,103,65,60,33,71,71,155,114,26,16,5,6,0.5,0.4
2026-04-24T2300,4146A,104.7092,31.4972,绵阳市,科技城新区公安局,细颗粒物(PM2.5),84,77,75,52,36,60,60,148,130,59,25,6,6,0.7,0.7
2026-04-24T2300,4226A,104.765114,31.453094,绵阳市,绵阳市气象局,颗粒物(PM10),87,101,67,42,35,54,54,135,111,64,35,8,8,0.7,0.6
2026-04-24T2300,1784A,129.61,44.561,牡丹江市,环保大楼,,39,39,37,9,20,96,96,110,98,5,12,2,3,0.2,0.2
2026-04-24T2300,1787A,129.6364,44.6075,牡丹江市,机车工厂,,45,45,49,8,25,80,80,106,92,12,15,6,7,0.3,0.2
2026-04-24T2300,1788A,129.6386,44.5462,牡丹江市,第一中学,,47,47,34,15,19,91,91,108,94,5,12,3,4,0.2,0.3
2026-04-24T2300,4287A,129.5992,44.5964,牡丹江市,东晓云街98号,,44,44,48,15,20,90,90,107,96,7,11,4,7,0.2,0.3
2026-04-24T2300,2531A,105.0703,29.61,内江市,市监测站,细颗粒物(PM2.5),68,64,37,44,23,103,103,136,122,22,15,9,8,0.7,0.6
2026-04-24T2300,2533A,105.0657,29.5807,内江市,内江二中,细颗粒物(PM2.5),106,70,37,66,24,70,70,135,115,42,17,8,7,0.5,0.3
2026-04-24T2300,2534A,105.0407,29.5828,内江市,内江日报社,细颗粒物(PM2.5),80,68,37,50,25,79,79,135,122,37,18,10,9,0.7,0.4
2026-04-24T2300,4147A,105.0433,29.6105,内江市,玉峰路西段888号,细颗粒物(PM2.5),82,55,40,51,26,80,80,138,122,44,15,4,3,0.7,0.4
2026-04-24T2300,2628A,92.0653,31.4846,那曲市,那曲监测站,细颗粒物(PM2.5),58,58,41,39,30,49,49,97,83,39,23,14,8,1.2,1
2026-04-24T2300,4243A,92.0515,31.4787,那曲市,那曲市委宣传部,,26,24,23,16,16,81,81,104,99,11,12,5,6,0.6,0.7
2026-04-24T2300,1291A,115.8887,28.7006,南昌市,省林业公司,,31,31,18,16,15,32,32,99,81,35,13,6,4,0.8,0.7
2026-04-24T2300,1292A,115.813,28.7443,南昌市,林科所,,14,14,18,8,15,39,39,98,75,16,15,7,8,0.4,0.8
2026-04-24T2300,1294A,115.8518,28.687,南昌市,建工学校,,40,40,27,19,16,40,40,101,84,38,14,6,6,0.9,0.7
2026-04-24T2300,1295A,115.8926,28.6425,南昌市,象湖,,26,21,16,18,16,40,40,99,78,29,17,8,8,0.9,0.8
2026-04-24T2300,3046A,115.9084,28.6062,南昌市,机电学校,,35,35,28,18,16,37,37,108,81,33,15,4,5,0.6,0.5
2026-04-24T2300,3690A,115.9718,28.7032,南昌市,外国语学校,,18,18,19,12,15,44,44,96,81,30,19,8,9,0.6,0.6
2026-04-24T2300,4106A,115.7923,28.6873,南昌市,工业二路,颗粒物(PM10),55,56,32,29,17,22,22,104,80,43,14,5,5,0.7,0.6
2026-04-24T2300,4192A,115.931587,28.686774,南昌市,南京东路235号,颗粒物(PM10),53,53,26,28,15,29,29,105,82,36,13,8,6,1.0,0.6
2026-04-24T2300,1906A,106.0791,30.8022,南充市,南充市委,细颗粒物(PM2.5),62,64,40,41,22,2,2,129,93,87,25,8,8,1.0,0.4
2026-04-24T2300,1907A,106.1038,30.8215,南充市,南充炼油厂,颗粒物(PM10),61,65,50,39,28,74,74,130,114,36,20,5,5,0.3,0.3
2026-04-24T2300,4227A,106.108336,30.788436,南充市,梨树横街98号,颗粒物(PM10),52,52,40,31,22,90,90,135,119,22,21,8,7,0.4,0.4
2026-04-24T2300,4304A,106.1172,30.843,南充市,清泉寺北路188号,颗粒物(PM10),60,63,42,30,21,85,85,134,123,33,18,7,7,0.5,0.5
2026-04-24T2300,4305A,106.067,30.7616,南充市,同庆路1号,颗粒物(PM10),55,57,39,36,21,61,61,127,106,32,24,9,7,0.5,0.4
2026-04-24T2300,1151A,118.8033,32.1085,南京市,迈皋桥,,46,46,33,26,11,50,50,153,112,42,32,7,7,0.3,0.4
2026-04-24T2300,1152A,118.7487,32.057,南京市,草场门,颗粒物(PM10),67,73,38,36,17,64,64,144,120,61,38,4,5,0.7,0.4
2026-04-24T2300,1154A,118.770105,32.004342,南京市,中华门,颗粒物(PM10),56,58,40,30,16,89,89,156,138,38,34,10,9,0.6,0.6
2026-04-24T2300,1155A,118.8059,32.0329,南京市,瑞金路,细颗粒物(PM2.5),60,58,40,40,19,32,32,154,111,72,32,6,7,1.2,0.9
2026-04-24T2300,1156A,118.7946,32.0774,南京市,玄武湖,,48,48,36,19,13,89,89,143,124,30,33,4,4,0.5,0.4
2026-04-24T2300,1157A,118.6415,32.0964,南京市,浦口,,44,44,42,14,11,83,83,140,126,26,16,5,5,0.5,0.4
2026-04-24T2300,1158A,118.730129,32.000956,南京市,奥体中心,颗粒物(PM10),70,78,44,35,16,0,0,130,97,91,40,7,8,0.8,0.4
2026-04-24T2300,1159A,118.9072,32.1047,南京市,仙林大学城,颗粒物(PM10),53,53,42,26,15,53,53,150,120,43,34,8,10,0.7,0.7
2026-04-24T2300,3422A,118.8443,31.919,南京市,江宁彩虹桥,颗粒物(PM10),58,60,39,30,15,30,30,145,117,89,45,3,3,0.6,0.5
2026-04-24T2300,3427A,118.8497,32.3599,南京市,六合雄州,,50,50,39,16,14,65,65,133,102,35,28,4,4,0.4,0.4
2026-04-24T2300,4086A,118.7641,32.0841,南京市,新模范马路66号,,48,48,40,27,15,90,90,152,134,43,34,3,4,0.6,0.5
2026-04-24T2300,4249A,118.8707617,31.34017673,南京市,汶溪路181号,颗粒物(PM10),53,53,41,30,14,106,106,150,138,32,20,5,6,0.3,0.3
2026-04-24T2300,4312A,119.019,31.6512,南京市,中山西路1号,,46,46,32,20,12,13,13,131,91,58,25,4,4,0.7,0.5
2026-04-24T2300,1401A,108.3098,22.788,南宁市,二十一中,,42,NA,24,29,16,95,95,103,100,11,11,1,3,0.5,0.5
2026-04-24T2300,1402A,108.3135,22.8529,南宁市,北湖,,49,38,24,34,20,94,94,103,102,20,14,4,4,0.6,0.6
2026-04-24T2300,1403A,108.3205,22.8222,南宁市,市监测站,,36,32,23,25,14,102,102,107,106,10,12,2,4,0.5,0.5
2026-04-24T2300,1404A,108.3828,22.8038,南宁市,大自然花园,,48,NA,24,33,16,99,99,104,103,13,13,5,7,0.5,0.5
2026-04-24T2300,1406A,108.2397,22.8462,南宁市,区农职院,,40,39,26,28,23,84,84,100,97,18,9,2,5,0.6,0.5
2026-04-24T2300,1407A,108.3285,22.7356,南宁市,英华嘉园,,40,30,25,28,15,94,94,114,107,13,11,5,6,0.5,0.5
2026-04-24T2300,3401A,108.4829,22.762,南宁市,红星社区,,43,34,24,30,16,96,96,109,107,12,10,5,6,0.5,0.5
2026-04-24T2300,4132A,108.2927,23.1477,南宁市,起凤路9号,,40,40,28,26,18,86,86,101,94,14,10,4,5,0.6,0.6
2026-04-24T2300,4221A,108.2177,22.7774,南宁市,乐贤路16号,,46,39,27,32,16,56,56,109,91,33,18,6,8,0.5,0.4
2026-04-24T2300,2332A,118.1682,26.6371,南平市,南平市监测站,,20,20,17,10,10,31,31,68,52,14,8,3,3,0.5,0.4
2026-04-24T2300,2334A,118.1757,26.6276,南平市,南平七中,,18,18,16,12,9,17,17,67,43,18,10,2,2,0.5,0.5
2026-04-24T2300,1168A,120.9056,31.9669,南通市,狼山街道,颗粒物(PM10),53,53,33,35,16,62,62,128,100,21,14,5,5,0.6,0.4
2026-04-24T2300,1170A,120.8635,32.0231,南通市,城中,颗粒物(PM10),57,59,45,27,17,79,79,125,101,17,16,4,6,0.5,0.4
2026-04-24T2300,1171A,120.9376,31.9301,南通市,星湖花园,细颗粒物(PM2.5),54,53,36,37,20,70,70,136,109,17,15,5,5,0.5,0.5
2026-04-24T2300,1172A,120.8053,32.046,南通市,紫琅学院,颗粒物(PM10),52,52,44,35,20,62,62,144,110,38,22,7,7,1.0,0.7
2026-04-24T2300,3291A,121.0631,32.0644,南通市,通州监测站,,48,48,43,28,19,92,92,126,110,11,16,3,4,0.5,0.5
2026-04-24T2300,3432A,120.9348,31.9874,南通市,环境教育馆,细颗粒物(PM2.5),52,48,36,36,16,52,52,129,95,31,19,4,5,0.7,0.5
2026-04-24T2300,4091A,120.8692,31.9885,南通市,洪江路,细颗粒物(PM2.5),60,57,35,40,18,64,64,121,97,23,17,5,6,1.0,0.8
2026-04-24T2300,2404A,112.5338,33.0086,南阳市,瓦房庄,,49,49,42,22,18,92,92,109,102,19,15,6,5,0.5,0.4
2026-04-24T2300,2405A,112.5002,32.9734,南阳市,汉画馆,颗粒物(PM10),51,51,42,17,19,81,81,104,93,26,17,8,6,0.4,0.4
2026-04-24T2300,2406A,112.5778,33.0144,南阳市,气象站,颗粒物(PM10),52,52,38,27,18,100,100,116,110,16,15,7,6,0.4,0.3
2026-04-24T2300,2407A,112.548,32.9687,南阳市,理工学院,颗粒物(PM10),54,55,45,27,21,92,92,108,101,18,16,8,8,0.4,0.4
2026-04-24T2300,4008A,112.5233,32.9921,南阳市,卧龙区政府,颗粒物(PM10),53,53,35,30,22,90,90,105,97,15,13,8,7,0.5,0.5
2026-04-24T2300,1234A,121.8352,29.9111,宁波市,区环保大楼,NA,NA,50,56,12,25,NA,NA,140,95,49,39,6,8,0.4,0.4
2026-04-24T2300,1235A,121.5595,29.8208,宁波市,万里学院,,37,37,46,10,26,77,77,170,117,24,22,3,5,0.4,0.4
2026-04-24T2300,1236A,121.713,29.9564,宁波市,龙赛医院,NA,NA,66,59,23,27,NA,NA,147,NA,NA,28,7,8,NA,0.5
2026-04-24T2300,1240A,121.5855,29.8635,宁波市,太古小学,,48,48,53,14,25,70,70,170,122,29,26,4,5,0.4,0.5
2026-04-24T2300,1241A,121.5239,29.8673,宁波市,市环境监测中心,,50,50,53,12,27,82,82,172,134,26,28,7,8,0.1,0.2
2026-04-24T2300,2871A,121.6156,29.9015,宁波市,万里国际学校,颗粒物(PM10),53,54,51,22,33,47,47,162,108,54,31,5,7,0.5,0.5
2026-04-24T2300,3710A,121.5593,29.8976,宁波市,白沙活动中心,颗粒物(PM10),53,54,42,12,25,76,76,173,126,29,27,6,7,0.4,0.5
2026-04-24T2300,4095A,121.8962,29.7529,宁波市,中科路88号,,43,43,49,11,21,26,26,146,96,44,22,7,8,0.4,0.5
2026-04-24T2300,2341A,119.5387,26.6611,宁德市,宁德市监测站,,39,12,16,7,9,123,123,112,112,14,14,8,7,0.3,0.4
2026-04-24T2300,3209A,119.5231,26.6562,宁德市,宁德一中,,32,20,18,8,10,101,101,106,106,10,12,6,6,0.3,0.4
2026-04-24T2300,2618A,98.859,25.8541,怒江傈僳族自治州,州监测站,细颗粒物(PM2.5),62,60,44,41,27,100,100,118,113,8,10,6,6,0.3,0.3
2026-04-24T2300,2619A,98.8607,25.8168,怒江傈僳族自治州,泸水一中,细颗粒物(PM2.5),76,NA,41,48,32,90,90,102,90,15,21,6,6,0.5,0.5
2026-04-24T2300,1888A,101.6891,26.571,攀枝花市,弄弄坪,,41,41,45,17,24,87,87,136,121,13,15,12,30,0.6,0.6
2026-04-24T2300,1889A,101.577,26.5914,攀枝花市,河门口,NA,NA,51,51,18,23,94,94,157,133,14,17,11,31,NA,NA
2026-04-24T2300,1891A,101.7365,26.4986,攀枝花市,仁和,,36,36,41,15,21,88,88,129,110,7,12,4,18,0.3,0.4
2026-04-24T2300,2835A,101.7222,26.567,攀枝花市,四十中小,,43,43,33,15,18,98,98,136,121,7,11,8,46,0.5,0.5
2026-04-24T2300,1604A,122.0303,41.1489,盘锦市,开发区,细颗粒物(PM2.5),128,NA,51,90,49,108,108,157,148,16,14,8,8,0.6,0.5
2026-04-24T2300,1605A,122.0486,41.0883,盘锦市,兴隆台,细颗粒物(PM2.5),132,NA,52,95,53,96,96,168,154,33,19,10,11,0.8,0.6
2026-04-24T2300,1606A,121.8297,41.1026,盘锦市,新生街道,细颗粒物(PM2.5),114,NA,40,75,41,76,76,169,149,32,23,12,7,0.8,0.6
2026-04-24T2300,1832A,113.3257,33.7423,平顶山市,新华旅馆,颗粒物(PM10),59,62,47,25,21,48,48,107,89,26,14,5,4,0.5,0.4
2026-04-24T2300,1833A,113.2917,33.737,平顶山市,规划设计院,颗粒物(PM10),52,52,41,25,22,56,56,110,92,30,16,6,6,0.6,0.4
2026-04-24T2300,1834A,113.182,33.7738,平顶山市,平顶山工学院,,32,32,31,21,21,87,87,109,100,15,10,8,8,0.4,0.4
2026-04-24T2300,3594A,112.8736,33.9068,平顶山市,石龙区,,40,40,52,13,28,109,109,106,100,8,19,7,8,0.4,0.6
2026-04-24T2300,4116A,113.284,33.7139,平顶山市,姚电大道23号,颗粒物(PM10),55,57,43,26,22,52,52,106,87,39,19,7,6,0.5,0.4
2026-04-24T2300,2656A,106.6633,35.5338,平凉市,聚贤嘉苑,颗粒物(PM10),58,60,81,26,28,56,56,119,94,32,20,7,7,0.3,0.3
2026-04-24T2300,2657A,106.7021,35.5307,平凉市,博物馆,颗粒物(PM10),64,69,82,23,28,67,67,124,102,24,18,9,9,0.4,0.4
2026-04-24T2300,2348A,113.8384,27.6436,萍乡市,中医院,,46,46,38,32,28,16,16,101,72,45,19,5,6,0.6,0.6
2026-04-24T2300,2350A,113.8677,27.6438,萍乡市,市环保局,颗粒物(PM10),55,57,40,26,32,16,16,99,74,48,21,4,6,0.8,0.8
2026-04-24T2300,2351A,113.8663,27.6202,萍乡市,安源区政府,,44,44,40,29,31,28,28,92,74,23,18,4,7,0.5,0.6
2026-04-24T2300,4107A,113.8686,27.6668,萍乡市,联洪村委会,颗粒物(PM10),55,56,47,25,27,18,18,95,67,36,14,2,4,0.4,0.4
2026-04-24T2300,2319A,119.0142,25.4324,莆田市,荔城区仓后路,,29,21,17,13,6,92,92,75,75,8,7,/,/,/,/
2026-04-24T2300,2320A,119.0016,25.4553,莆田市,莆田市监测站,,29,29,15,19,4,58,58,69,64,17,12,3,3,0.5,0.5
2026-04-24T2300,2321A,119.112,25.4561,莆田市,涵江区六中,,35,16,17,7,5,110,110,85,85,7,10,/,/,0.5,0.6
2026-04-24T2300,2322A,119.1014,25.3215,莆田市,秀屿区政府,,30,23,18,13,7,96,96,97,97,12,8,4,4,0.6,0.6
2026-04-24T2300,2392A,115.0312,35.7636,濮阳市,环保局,,40,40,35,11,11,84,84,107,102,18,11,4,4,0.6,0.5
2026-04-24T2300,3021A,115,35.7667,濮阳市,濮水河管理处,,37,37,38,12,12,90,90,106,103,17,14,4,4,0.6,0.6
2026-04-24T2300,4118A,115.0552,35.7816,濮阳市,中原东路68号,,46,46,38,17,12,87,87,112,105,15,9,4,3,0.6,0.5
2026-04-24T2300,4216A,115.0923632,35.76857718,濮阳市,任丘路479号,颗粒物(PM10),51,51,39,19,13,70,70,106,94,23,14,4,2,0.4,0.4
2026-04-24T2300,2601A,100.9801,22.7634,普洱市,市环保局,颗粒物(PM10),81,93,87,48,43,106,106,148,134,14,11,5,5,0.7,0.7
2026-04-24T2300,2602A,100.9763,22.8237,普洱市,普洱第二中学,细颗粒物(PM2.5),78,81,80,49,46,95,95,147,128,18,21,6,6,1.0,0.9
2026-04-24T2300,3345A,131.0413,45.7795,七台河市,中波台,,21,18,21,9,8,66,66,77,71,8,10,4,3,0.2,0.2
2026-04-24T2300,3637A,131.0136,45.7688,七台河市,人民广场,,25,25,26,6,7,76,76,85,77,8,12,9,10,0.5,0.6
2026-04-24T2300,3684A,130.8639,45.8144,七台河市,新建矿广场,,36,36,39,8,10,60,60,72,63,12,15,17,10,0.2,0.2
2026-04-24T2300,1779A,123.9307,47.3641,齐齐哈尔市,安居小区,,23,18,35,3,16,72,72,77,74,6,10,3,3,0.2,0.3
2026-04-24T2300,1780A,123.9497,47.3389,齐齐哈尔市,中心广场,,24,18,36,6,16,75,75,76,75,4,10,7,6,0.2,0.3
2026-04-24T2300,1781A,123.9483,47.3229,齐齐哈尔市,农牧车辆厂,,24,22,35,3,16,75,75,81,80,6,10,4,5,0.5,0.4
2026-04-24T2300,1783A,123.9442,47.2994,齐齐哈尔市,市环境监测站,,23,23,37,3,19,70,70,80,78,11,12,4,4,0.2,0.3
2026-04-24T2300,3662A,123.6341,47.2079,齐齐哈尔市,富区青少年活动中心,,28,20,41,19,20,60,60,78,73,11,11,3,3,0.2,0.3
2026-04-24T2300,2591A,107.9765,26.5724,黔东南苗族侗族自治州,市环境监测站,,35,35,23,19,16,31,31,85,70,26,11,2,3,0.5,0.4
2026-04-24T2300,2881A,107.8909,26.531,黔东南苗族侗族自治州,凯里学院,,28,NA,16,19,14,50,50,94,82,13,8,2,2,0.3,0.4
2026-04-24T2300,2593A,107.5223,26.2371,黔南布依族苗族自治州,小围寨,,28,27,19,19,15,47,47,82,74,15,8,6,6,0.3,0.3
2026-04-24T2300,3538A,107.5175,26.2977,黔南布依族苗族自治州,沙坝,,36,36,27,18,16,30,30,70,60,16,10,4,4,0.5,0.5
2026-04-24T2300,2589A,104.9022,25.0943,黔西南布依族苗族自治州,场坝街,,40,40,26,18,19,74,74,85,81,4,8,6,9,0.4,0.4
2026-04-24T2300,2590A,104.8812,25.0994,黔西南布依族苗族自治州,坪东大道,,30,NA,28,21,18,70,70,84,78,5,9,3,4,0.3,0.3
2026-04-24T2300,2502A,108.6238,21.9667,钦州市,市环保站,,48,48,35,11,13,46,46,94,87,18,12,3,2,0.8,0.9
2026-04-24T2300,2503A,108.655,21.9481,钦州市,沙埠小学,颗粒物(PM10),52,52,32,25,16,28,28,92,80,31,13,4,3,0.6,0.4
2026-04-24T2300,2504A,108.5989,21.7435,钦州市,港区一小,颗粒物(PM10),53,53,45,30,22,31,31,74,66,33,25,4,6,0.7,0.6
2026-04-24T2300,3404A,108.5959,21.9634,钦州市,北职校,,47,47,31,25,18,50,50,95,88,19,12,4,2,0.6,0.6
2026-04-24T2300,1046A,119.5247,39.9346,秦皇岛市,建设大厦,颗粒物(PM10),70,78,86,39,43,95,95,133,121,20,14,8,12,0.5,0.7
2026-04-24T2300,3132A,119.5979,39.938,秦皇岛市,文明里,颗粒物(PM10),83,95,92,43,42,96,96,136,119,34,29,12,14,0.4,0.7
2026-04-24T2300,4066A,119.7458,39.9952,秦皇岛市,南园路157号,颗粒物(PM10),69,76,94,41,46,85,85,128,112,42,32,9,12,0.4,0.6
2026-04-24T2300,4067A,119.5131,39.8858,秦皇岛市,翠岛大街1号,颗粒物(PM10),70,77,68,38,42,104,104,134,127,30,27,10,12,0.4,0.6
2026-04-24T2300,4198A,119.509013,39.825305,秦皇岛市,北戴河轮滑馆,细颗粒物(PM2.5),78,80,74,49,41,106,106,143,134,26,23,10,10,0.4,0.4
2026-04-24T2300,1310A,120.404,36.0625,青岛市,市南区东部子站,细颗粒物(PM2.5),76,75,59,48,38,111,111,115,115,36,36,8,10,0.6,0.7
2026-04-24T2300,1311A,120.362344,36.10282,青岛市,四方区子站,细颗粒物(PM2.5),68,61,51,44,29,144,144,139,130,21,30,9,9,0.7,0.8
2026-04-24T2300,1312A,120.294373,36.054183,青岛市,市南区西部子站,细颗粒物(PM2.5),62,58,61,41,36,129,129,114,114,32,49,6,8,0.8,0.9
2026-04-24T2300,1313A,120.4581,36.0858,青岛市,崂山区子站,颗粒物(PM10),65,70,56,41,29,89,89,120,106,35,33,9,12,0.5,0.6
2026-04-24T2300,1315A,120.3945,36.3083,青岛市,城阳区子站,颗粒物(PM10),62,66,52,38,20,137,137,132,126,18,24,10,8,0.7,0.7
2026-04-24T2300,3642A,120.3454,36.0735,青岛市,市北区南部,颗粒物(PM10),58,61,51,36,31,144,144,138,138,16,27,6,7,0.7,0.8
2026-04-24T2300,3643A,120.3897,36.18,青岛市,李沧区北部,细颗粒物(PM2.5),72,66,59,46,24,122,122,121,112,27,25,11,11,0.6,0.6
2026-04-24T2300,4110A,120.5222,36.4089,青岛市,盟旺路653号,,43,36,44,18,18,135,135,138,134,9,14,4,6,0.6,0.7
2026-04-24T2300,4290A,120.196923,35.954556,青岛市,珠江路669号,颗粒物(PM10),62,66,74,29,34,137,137,135,132,20,47,7,11,0.7,0.9
2026-04-24T2300,4291A,120.0424,35.8656,青岛市,黄岛区人民政府广场,颗粒物(PM10),75,85,68,43,36,100,100,121,120,29,38,9,12,0.8,0.8
2026-04-24T2300,1703A,113.0218,23.7086,清远市,凤城街办,,48,48,27,32,20,33,33,58,51,33,18,/,/,/,/
2026-04-24T2300,3025A,113.0479,23.6343,清远市,技师学院,,45,45,27,27,17,13,13,51,42,39,21,7,8,0.8,0.7
2026-04-24T2300,3318A,112.9898,23.7403,清远市,清新太和,,32,32,25,21,16,38,38,63,51,15,14,7,7,0.6,0.5
2026-04-24T2300,3455A,113.076,23.72,清远市,清城东城,,34,34,25,22,16,25,25,60,51,22,15,/,/,/,/
2026-04-24T2300,2661A,107.6325,35.7357,庆阳市,庆阳五中,颗粒物(PM10),62,66,67,25,21,74,74,108,95,27,13,7,3,0.4,0.2
2026-04-24T2300,2662A,107.6361,35.7067,庆阳市,市环保局,颗粒物(PM10),53,53,62,19,20,98,98,114,104,16,15,28,7,0.3,0.3
2026-04-24T2300,1916A,103.7897,25.5036,曲靖市,环境监测站,细颗粒物(PM2.5),78,72,50,49,38,83,83,152,114,12,17,7,8,0.7,0.7
2026-04-24T2300,1917A,103.8013,25.5357,曲靖市,烟厂办公区,细颗粒物(PM2.5),64,54,46,42,30,77,77,127,107,9,13,7,9,0.7,0.7
2026-04-24T2300,3376A,103.7926,25.4651,曲靖市,南苑二区,细颗粒物(PM2.5),88,68,50,54,36,88,88,131,111,9,14,4,4,0.7,0.7
2026-04-24T2300,3377A,103.7442,25.5259,曲靖市,曲靖师范学院,细颗粒物(PM2.5),82,65,48,51,37,86,86,131,116,8,26,2,4,0.5,0.6
2026-04-24T2300,1264A,118.8694,28.94,衢州市,环保大楼,,21,15,17,8,12,17,17,109,67,41,19,/,/,/,/
2026-04-24T2300,1266A,118.8622,28.9809,衢州市,衢州学院,,23,11,16,3,11,6,6,101,54,45,22,5,6,0.5,0.5
2026-04-24T2300,4097A,118.9646,28.9832,衢州市,衢州三中,,17,14,20,7,12,12,12,110,65,34,21,7,7,0.5,0.4
2026-04-24T2300,1611A,118.5818,24.9116,泉州市,涂山街,,24,12,14,11,9,74,74,66,66,14,16,3,3,0.7,0.7
2026-04-24T2300,1612A,118.597,24.8976,泉州市,津头埔,,25,NA,14,16,13,80,80,72,72,17,16,3,3,0.5,0.6
2026-04-24T2300,1613A,118.6669,24.9422,泉州市,万安,,23,18,17,14,12,73,73,70,70,14,14,4,4,0.5,0.6
2026-04-24T2300,4105A,118.6355,24.9148,泉州市,霞新路6号,,22,18,14,15,11,69,69,67,67,17,17,/,/,0.4,0.6
2026-04-24T2300,2626A,88.8873,29.2723,日喀则市,日喀则监测站,,34,34,30,14,10,108,108,112,109,3,10,7,6,0.3,0.4
2026-04-24T2300,3726A,88.8775,29.2425,日喀则市,林业技术推广中心,,35,35,29,13,9,104,104,108,107,4,7,7,7,0.3,0.3
2026-04-24T2300,1659A,119.4711,35.421,日照市,监测站,颗粒物(PM10),51,51,48,35,27,133,133,146,145,25,43,10,11,0.6,0.8
2026-04-24T2300,1660A,119.523,35.4216,日照市,市政府广场,"颗粒物(PM10),细颗粒物(PM2.5)",62,66,67,41,33,120,120,126,124,29,40,10,12,0.7,0.8
2026-04-24T2300,1661A,119.5511,35.4113,日照市,港务局,颗粒物(PM10),70,78,86,34,34,104,104,135,128,49,55,9,12,0.6,0.8
2026-04-24T2300,3507A,119.5326,35.4627,日照市,职业技术学院,颗粒物(PM10),63,68,71,38,28,127,127,139,136,31,37,11,13,0.7,0.8
2026-04-24T2300,3604A,119.3267,35.1043,日照市,岚山环保分局,颗粒物(PM10),55,56,77,30,39,101,101,146,140,26,40,10,22,0.7,1
2026-04-24T2300,1835A,111.1922,34.7752,三门峡市,市政府,,37,37,38,20,17,72,72,113,101,21,16,8,10,0.4,0.4
2026-04-24T2300,1836A,111.1588,34.794,三门峡市,开发区,细颗粒物(PM2.5),74,NA,32,47,28,92,92,115,107,10,11,10,12,0.5,0.5
2026-04-24T2300,3039A,111.1911,34.7829,三门峡市,三门峡市第一小学,,37,37,45,25,17,88,88,116,107,10,11,12,14,0.6,0.7
2026-04-24T2300,3598A,111.1031,34.719,三门峡市,富达温泉假日酒店,颗粒物(PM10),63,67,53,17,15,68,68,118,105,16,14,13,14,0.3,0.3
2026-04-24T2300,2324A,117.621,26.2626,三明市,三钢,,22,17,16,15,12,38,38,91,67,16,10,4,6,0.5,0.8
2026-04-24T2300,2325A,117.6352,26.2714,三明市,三明二中,,20,14,13,14,11,36,36,86,67,14,7,3,3,0.5,0.6
2026-04-24T2300,2326A,117.6028,26.2377,三明市,三元区政府,,20,20,16,14,12,32,32,91,68,15,8,4,5,0.7,0.7
2026-04-24T2300,1877A,109.4962,18.2682,三亚市,河西子站,,24,13,19,7,12,75,75,80,80,8,5,3,3,0.6,0.5
2026-04-24T2300,3540A,109.7348,18.3443,三亚市,君悦子站,,14,14,20,8,10,44,44,85,83,25,7,3,3,0.7,0.6
2026-04-24T2300,4135A,109.1714,18.3739,三亚市,城东小学站,,19,14,23,13,16,14,14,70,55,24,9,/,/,/,/
2026-04-24T2300,2624A,91.7592,29.234,山南市,山南监测站,,32,12,23,6,7,101,101,105,103,2,8,5,5,0.2,0.2
2026-04-24T2300,2625A,91.7701,29.2436,山南市,山南人民医院,,31,21,24,8,6,98,98,107,104,2,5,7,8,0.2,0.2
2026-04-24T2300,1674A,116.6795,23.3666,汕头市,金平子站,,35,NA,19,24,15,19,19,38,25,32,23,6,8,1.0,0.8
2026-04-24T2300,1675A,116.7248,23.3632,汕头市,龙湖子站,,28,19,17,19,14,26,26,33,27,23,17,6,7,/,/
2026-04-24T2300,1676A,116.7257,23.2774,汕头市,濠江子站,,26,18,17,18,13,29,29,33,26,22,21,7,9,/,/
2026-04-24T2300,1677A,116.7518,23.4712,汕头市,澄海子站,,28,22,13,19,12,28,28,34,28,21,16,10,7,0.9,0.8
2026-04-24T2300,1678A,116.6088,23.2539,汕头市,潮阳子站,,32,NA,17,22,14,23,23,36,30,20,13,6,6,0.8,0.8
2026-04-24T2300,3444A,116.4539,23.2684,汕头市,潮南峡山,,15,14,17,10,11,32,32,42,35,13,12,6,7,1.0,0.8
2026-04-24T2300,3624A,116.4069,23.2533,汕头市,潮南子站,,23,22,20,16,13,24,24,38,26,19,15,6,6,/,/
2026-04-24T2300,1693A,115.3653,22.7751,汕尾市,市环保局,,15,7,10,7,8,45,45,56,48,7,7,4,5,0.7,0.7
2026-04-24T2300,1695A,115.362,22.7926,汕尾市,新城中学,,15,9,8,7,7,45,45,56,48,6,6,6,6,0.6,0.6
2026-04-24T2300,2645A,109.9155,33.8714,商洛市,监测站,NA,NA,NA,36,NA,20,96,96,118,112,13,16,6,8,0.4,0.4
2026-04-24T2300,3045A,109.9647,33.8486,商洛市,商州区中学,颗粒物(PM10),61,65,55,19,15,79,79,115,107,27,20,7,7,0.4,0.4
2026-04-24T2300,2408A,115.6701,34.4283,商丘市,环境监测站,,35,33,38,24,19,99,99,119,112,8,6,2,2,0.3,0.3
2026-04-24T2300,2409A,115.6458,34.4047,商丘市,粮食局,,29,27,33,16,16,92,92,114,108,13,10,4,4,0.3,0.3
2026-04-24T2300,3171A,115.6069,34.4465,商丘市,梁园区档案局,,35,35,36,18,17,100,100,117,112,11,10,5,5,0.3,0.3
2026-04-24T2300,4119A,115.6701,34.3767,商丘市,北海东路185号,NA,NA,NA,38,NA,17,80,80,118,110,15,14,4,5,0.4,0.4
2026-04-24T2300,4120A,115.6172,34.3704,商丘市,中山大街3号,,45,45,38,17,18,80,80,110,100,14,10,7,7,0.3,0.3
2026-04-24T2300,1141A,121.401,31.2382,上海市,普陀,颗粒物(PM10),58,60,52,32,25,55,55,134,100,42,32,6,8,0.5,0.5
2026-04-24T2300,1142A,121.4774,31.2043,上海市,十五厂,颗粒物(PM10),66,72,52,34,23,35,35,130,87,50,26,5,7,0.7,0.6
2026-04-24T2300,1143A,121.4673,31.3011,上海市,虹口,颗粒物(PM10),60,64,47,29,22,48,48,121,91,44,29,4,6,0.4,0.6
2026-04-24T2300,1147A,121.4253,31.226,上海市,静安监测站,NA,NA,58,46,32,23,57,57,136,105,NA,30,9,10,NA,0.6
2026-04-24T2300,1148A,121.7029,31.1905,上海市,浦东川沙,颗粒物(PM10),78,88,52,38,24,46,46,127,81,62,32,9,9,0.5,0.6
2026-04-24T2300,1149A,121.5339,31.229,上海市,浦东新区监测站,颗粒物(PM10),69,76,46,39,23,43,43,124,88,45,26,6,7,0.5,0.5
2026-04-24T2300,1150A,121.5776,31.2038,上海市,浦东张江,颗粒物(PM10),74,83,44,40,23,56,56,133,91,38,26,6,8,0.4,0.3
2026-04-24T2300,3265A,121.4242,31.3303,上海市,宝山庙行,颗粒物(PM10),60,63,48,28,23,45,45,119,92,49,33,7,10,0.5,0.4
