timepoint,stationcode,longitude,latitude,area,positionname,primarypollutant,aqi,pm10,pm10_24h,pm2_5,pm2_5_24h,o3,o3_24h,o3_8h,o3_8h_24h,no2,no2_24h,so2,so2_24h,co,co_24h
2026-07-02T1200,2568A,102.2503,31.8896,阿坝藏族羌族自治州,马师校,,34,22,27,11,8,106,106,35,35,3,5,3,3,0.2,0.3
2026-07-02T1200,3994A,102.2174,31.9016,阿坝藏族羌族自治州,马尔康中学西区,,30,NA,10,8,8,93,93,31,31,4,5,2,2,0.1,0.1
2026-07-02T1200,2695A,80.2899,41.1684,阿克苏地区,电视台,颗粒物(PM10),98,117,79,17,24,62,62,68,55,23,15,3,4,1.0,0.7
2026-07-02T1200,2696A,80.2592,41.1541,阿克苏地区,艺术中心,颗粒物(PM10),63,67,77,28,35,54,54,42,42,29,37,3,4,0.3,0.5
2026-07-02T1200,2205A,105.699,38.8409,阿拉善盟,蒙二幼,,45,43,25,8,7,141,141,127,127,6,5,12,12,0.3,0.4
2026-07-02T1200,2206A,105.7198,38.8508,阿拉善盟,环保局新楼,,43,38,22,7,5,137,137,129,128,5,4,11,10,0.5,0.4
2026-07-02T1200,2708A,88.1266,47.8515,阿勒泰地区,市站,,38,23,26,3,4,121,121,127,127,7,7,7,7,0.5,0.4
2026-07-02T1200,4166A,88.1198,47.7931,阿勒泰地区,阿勒泰路33号,,35,27,28,3,4,111,111,112,112,8,5,7,7,0.4,0.4
2026-07-02T1200,2630A,80.1171,32.4999,阿里地区,阿里监测站,,36,8,13,3,4,114,114,121,112,2,3,5,4,0.3,0.3
2026-07-02T1200,3192A,80.0906,32.5029,阿里地区,阿里藏医院,,37,6,10,3,3,117,117,124,115,1,2,7,6,0.5,0.5
2026-07-02T1200,2644A,109.0088,32.6974,安康市,汉滨区检察院,,28,28,31,10,14,42,42,49,34,7,6,3,3,0.6,0.5
2026-07-02T1200,4054A,109.0324,32.6913,安康市,市邮政管理局,,32,32,29,12,19,42,42,61,45,11,6,2,2,0.7,0.6
2026-07-02T1200,2291A,117.0806,30.5181,安庆市,环科院,,14,7,11,3,4,43,43,35,35,10,10,8,8,0.5,0.5
2026-07-02T1200,2292A,117.0331,30.5118,安庆市,马山宾馆,,15,8,11,3,5,46,46,28,28,8,19,2,2,0.5,0.5
2026-07-02T1200,2294A,116.9897,30.6146,安庆市,安庆大学,,17,9,15,3,8,53,53,44,40,6,7,3,4,0.4,0.5
2026-07-02T1200,3173A,117.0598,30.5351,安庆市,市人大,,18,6,8,3,4,57,57,38,38,1,10,4,4,0.4,0.5
2026-07-02T1200,3123A,105.9408,26.2431,安顺市,凤凰山,,18,6,14,3,11,56,56,43,43,3,7,6,7,0.4,0.5
2026-07-02T1200,3124A,105.9443,26.2567,安顺市,金钟山,,19,NA,11,7,10,60,60,48,48,3,5,6,7,0.3,0.4
2026-07-02T1200,3125A,105.8983,26.248,安顺市,娄家坡,NA,NA,NA,12,10,8,58,58,46,46,2,4,5,6,NA,0.5
2026-07-02T1200,1819A,114.3552,36.1017,安阳市,红庙街,臭氧1小时(O3_1h),97,52,46,29,28,197,197,129,129,5,9,9,6,0.5,0.6
2026-07-02T1200,1820A,114.361,36.0681,安阳市,银杏小区,臭氧1小时(O3_1h),95,44,48,40,33,196,196,127,127,2,8,2,3,0.4,0.6
2026-07-02T1200,3141A,114.3921,36.0879,安阳市,信访局,臭氧1小时(O3_1h),102,57,44,29,32,204,204,135,135,9,10,4,3,0.6,0.7
2026-07-02T1200,3669A,114.4706,36.0634,安阳市,左辅环卫站,臭氧1小时(O3_1h),70,51,55,34,31,176,176,112,112,7,13,2,4,0.9,0.9
2026-07-02T1200,4117A,114.2918,36.0769,安阳市,钢三路198号,臭氧1小时(O3_1h),77,43,58,28,34,181,181,108,108,5,11,5,5,0.6,0.8
2026-07-02T1200,1748A,123.0441,41.1201,鞍山市,深沟寺,,32,21,36,17,26,100,100,70,70,3,12,6,7,0.5,1
2026-07-02T1200,1749A,123.011,41.0931,鞍山市,太阳城,NA,NA,18,28,18,31,99,99,72,72,NA,14,7,7,0.7,1.2
2026-07-02T1200,1750A,123.0483,41.1445,鞍山市,太平,,32,26,46,17,26,101,101,72,72,6,17,7,8,0.7,1.3
2026-07-02T1200,1751A,122.964,41.0968,鞍山市,铁西三道街,,36,28,48,19,29,114,114,72,72,8,20,6,6,1.8,1.8
2026-07-02T1200,1753A,123.0219,41.0822,鞍山市,明达新区,,33,19,30,16,27,103,103,78,78,6,11,5,5,0.6,1
2026-07-02T1200,4201A,122.944647,41.082639,鞍山市,兴盛南路290号,,34,26,41,22,31,106,106,69,69,10,21,7,6,0.9,1.2
2026-07-02T1200,2195A,107.4206,40.7609,巴彦淖尔市,附二中,,44,20,30,9,12,140,140,76,76,12,17,12,13,0.6,0.6
2026-07-02T1200,2196A,107.37,40.7372,巴彦淖尔市,市环保大楼,,46,46,37,11,10,141,141,70,70,10,10,11,10,0.7,0.6
2026-07-02T1200,1956A,86.1476,41.7529,巴音郭楞蒙古自治州,孔雀公园,,46,46,32,3,4,113,113,109,103,7,6,6,6,0.2,0.2
2026-07-02T1200,1957A,86.1971,41.7166,巴音郭楞蒙古自治州,棉纺厂,颗粒物(PM10),53,53,27,9,6,117,117,95,95,6,12,/,/,/,/
2026-07-02T1200,1958A,86.236,41.7172,巴音郭楞蒙古自治州,经济开发区,,35,33,21,3,6,112,112,98,98,5,6,4,4,0.2,0.2
2026-07-02T1200,3181A,106.776805,31.852614,巴中市,市五中,,29,22,27,6,22,90,90,36,36,9,12,7,8,0.5,0.7
2026-07-02T1200,3183A,106.7419,31.8654,巴中市,圣泉水务公司,,34,34,27,7,20,96,96,46,46,7,15,8,9,0.6,0.6
2026-07-02T1200,3616A,106.7617,31.8343,巴中市,市中心医院,,32,14,37,7,24,102,102,48,48,5,12,7,7,0.6,0.8
2026-07-02T1200,2235A,122.7909,45.608,白城市,洮北区环保局,,39,31,25,27,26,117,117,85,85,3,7,7,5,0.2,0.3
2026-07-02T1200,2236A,122.8741,45.5725,白城市,市环保局,,37,17,21,15,19,117,117,80,80,5,10,5,5,0.2,0.3
2026-07-02T1200,2231A,126.4219,41.9172,白山市,喜丰,,31,17,35,6,13,99,99,61,61,4,12,8,8,0.6,0.7
2026-07-02T1200,2232A,126.4082,41.9416,白山市,环保局,,32,18,23,8,12,101,101,56,56,3,7,9,10,0.3,0.4
2026-07-02T1200,2647A,104.1727,36.5448,白银市,第三小学,,43,17,28,3,11,135,135,103,103,6,8,4,9,0.3,0.4
2026-07-02T1200,2648A,104.1467,36.5482,白银市,动力公司,,44,18,28,3,12,138,138,109,109,3,6,2,5,0.3,0.4
2026-07-02T1200,2512A,106.6102,23.901,百色市,市监测站,,23,23,30,12,14,64,64,29,29,4,10,10,10,0.3,0.5
2026-07-02T1200,2513A,106.6524,23.8842,百色市,市中心血站,,25,25,29,8,16,66,66,33,33,3,9,11,12,0.4,0.5
2026-07-02T1200,4133A,106.6273,23.8798,百色市,龙景西路,颗粒物(PM10),52,52,33,7,16,66,66,28,28,4,10,14,13,0.9,0.9
2026-07-02T1200,2270A,117.396,32.9389,蚌埠市,工人疗养院,,43,27,38,10,24,137,137,87,87,7,14,5,5,0.4,0.5
2026-07-02T1200,2271A,117.3606,32.9428,蚌埠市,百货大楼,,42,27,34,12,22,133,133,84,84,6,12,7,8,0.6,0.6
2026-07-02T1200,2273A,117.4183,32.8909,蚌埠市,蚌埠学院,,44,27,34,7,28,138,138,78,78,2,11,5,5,0.4,0.5
2026-07-02T1200,2274A,117.3534,32.9672,蚌埠市,淮上区政府,,44,27,36,10,25,138,138,88,88,5,10,5,5,0.4,0.4
2026-07-02T1200,2275A,117.3143,32.8977,蚌埠市,高新区,,44,22,35,9,28,138,138,80,80,7,14,9,8,0.4,0.4
2026-07-02T1200,3715A,117.3091,32.9314,蚌埠市,蚌埠田家炳中学,,43,27,41,8,26,136,136,80,80,6,14,7,8,0.5,0.6
2026-07-02T1200,1585A,109.8761,40.6533,包头市,市环境监测站,,49,31,35,10,18,154,154,62,62,15,36,13,11,0.4,0.5
2026-07-02T1200,1587A,109.9992,40.5843,包头市,包头八中,,44,37,44,22,20,139,139,55,55,15,34,15,17,0.5,0.7
2026-07-02T1200,1589A,109.8641,40.6288,包头市,惠龙物流,,48,27,35,15,19,152,152,72,72,14,31,12,11,0.3,0.4
2026-07-02T1200,1590A,110.0376,40.5546,包头市,东河鸿龙湾,,47,30,29,15,18,150,150,63,63,15,31,13,14,0.5,0.5
2026-07-02T1200,3283A,109.9154,40.5684,包头市,滨河大厦,,47,32,28,19,18,148,148,61,61,20,41,14,13,0.6,0.6
2026-07-02T1200,3419A,109.9449,40.6259,包头市,包头市委党校,,47,22,27,14,18,148,148,62,62,19,38,13,16,0.4,0.6
2026-07-02T1200,3683A,109.8332,40.6577,包头市,昆区政府,,45,33,37,16,17,144,144,67,67,20,40,13,10,0.6,0.7
2026-07-02T1200,1931A,107.0802,34.3129,宝鸡市,竹园沟,,29,NA,21,6,11,92,92,100,96,3,4,6,6,0.6,0.6
2026-07-02T1200,1933A,107.1429,34.3549,宝鸡市,监测站,,29,21,25,8,12,92,92,98,91,6,6,9,8,0.3,0.4
2026-07-02T1200,1934A,107.1172,34.3759,宝鸡市,技工学校,,32,12,24,9,12,100,100,105,100,1,4,5,6,0.4,0.4
2026-07-02T1200,1936A,107.2025,34.3518,宝鸡市,文理学院,,42,42,33,13,14,98,98,101,91,12,11,7,8,0.4,0.4
2026-07-02T1200,1937A,107.2396,34.3626,宝鸡市,三迪小学,,32,22,26,10,13,102,102,104,99,10,10,7,8,0.4,0.5
2026-07-02T1200,4155A,107.1721,34.3558,宝鸡市,滨河北路,,29,19,23,9,12,90,90,95,89,6,5,6,6,0.4,0.5
2026-07-02T1200,4308A,107.3898,34.3601,宝鸡市,陈仓区北开路21号,,31,31,32,11,13,93,93,87,87,11,10,4,5,0.3,0.4
2026-07-02T1200,1051A,115.4803,38.8568,保定市,游泳馆,臭氧1小时(O3_1h),111,60,42,52,35,221,221,NA,NA,14,14,5,5,NA,0.3
2026-07-02T1200,1052A,115.509,38.8895,保定市,华电二区,臭氧1小时(O3_1h),107,NA,40,50,32,214,214,105,NA,10,13,NA,3,0.8,0.7
2026-07-02T1200,1053A,115.4588,38.9037,保定市,接待中心,臭氧1小时(O3_1h),112,71,46,48,36,224,224,131,131,10,12,1,2,0.6,0.5
2026-07-02T1200,1054A,115.4484,38.8344,保定市,地表水厂,臭氧1小时(O3_1h),116,72,58,46,33,232,232,153,153,9,13,3,3,0.7,0.6
2026-07-02T1200,3581A,115.3136,38.9511,保定市,满城区生态环境分局,臭氧1小时(O3_1h),74,68,47,42,32,179,179,90,90,18,16,2,2,0.3,0.2
2026-07-02T1200,3582A,115.4709,38.7628,保定市,清苑区第二中学,臭氧1小时(O3_1h),103,70,72,44,34,206,206,136,136,3,15,6,5,0.5,0.5
2026-07-02T1200,3583A,115.6231,39.0223,保定市,徐水物探局,臭氧1小时(O3_1h),105,85,63,45,33,209,209,92,92,13,26,7,5,0.7,0.5
2026-07-02T1200,4004A,115.4199,38.8665,保定市,双鹰农机,臭氧1小时(O3_1h),118,65,52,57,37,235,235,150,150,15,16,4,3,0.5,0.3
2026-07-02T1200,4034A,115.515,38.8589,保定市,植保所站,臭氧1小时(O3_1h),118,45,46,42,33,236,236,150,150,13,19,3,3,0.4,0.3
2026-07-02T1200,2594A,99.1589,25.1137,保山市,市环境监测站,,25,25,24,11,11,41,41,32,32,11,8,6,6,0.4,0.4
2026-07-02T1200,2595A,99.1616,25.1381,保山市,市环保局,,24,24,18,15,19,42,42,38,37,8,5,5,5,0.3,0.3
2026-07-02T1200,1867A,109.1435,21.4085,北海市,海滩公园,NA,NA,17,17,8,7,67,67,38,38,5,6,2,3,NA,0.5
2026-07-02T1200,1868A,109.0983,21.466,北海市,新市环保局,,28,28,17,17,10,73,73,43,43,8,7,8,7,0.4,0.4
2026-07-02T1200,1869A,109.1775,21.5232,北海市,北海工业园,,35,35,26,17,12,71,71,NA,NA,7,7,5,4,0.3,0.4
2026-07-02T1200,3400A,109.1844,21.4396,北海市,龙潭自来水厂,,24,24,18,3,9,60,60,28,27,3,5,6,5,0.4,0.4
2026-07-02T1200,1001A,116.3611,39.8786,北京市,万寿西宫,臭氧1小时(O3_1h),112,49,36,42,24,223,223,100,100,17,17,4,3,0.6,0.5
2026-07-02T1200,1003A,116.4174,39.9289,北京市,东四,臭氧1小时(O3_1h),114,61,38,41,25,227,227,96,96,22,22,3,3,0.4,0.3
2026-07-02T1200,1004A,116.4073,39.8858,北京市,天坛,臭氧1小时(O3_1h),104,63,40,30,24,208,208,79,79,17,17,2,1,0.8,0.6
2026-07-02T1200,1005A,116.4622,39.9364,北京市,农展馆,臭氧1小时(O3_1h),102,51,44,35,29,203,203,90,90,16,22,2,1,0.5,0.5
2026-07-02T1200,1006A,116.3399,39.9293,北京市,官园,臭氧1小时(O3_1h),98,66,41,29,24,198,198,93,93,13,14,5,5,0.6,0.5
2026-07-02T1200,1007A,116.2879,39.9613,北京市,海淀万柳,臭氧1小时(O3_1h),67,57,37,38,23,173,173,75,75,15,20,5,5,0.6,0.6
2026-07-02T1200,1008A,116.6635,40.1349,北京市,顺义新城,臭氧1小时(O3_1h),59,35,49,29,37,167,167,86,86,9,13,1,1,0.7,0.6
2026-07-02T1200,1009A,116.6275,40.327,北京市,怀柔镇,细颗粒物(PM2.5),70,62,46,45,33,164,164,99,99,10,11,1,1,0.5,0.5
2026-07-02T1200,1010A,116.2295,40.217,北京市,昌平镇,颗粒物(PM10),54,55,37,33,24,152,152,82,82,10,16,4,3,0.7,0.7
2026-07-02T1200,1011A,116.3968,39.982,北京市,奥体中心,,50,49,39,34,27,160,160,74,74,18,20,4,4,0.7,0.5
2026-07-02T1200,3418A,116.8336,40.4095,北京市,密云新城,,50,47,41,30,27,158,158,86,86,7,9,1,1,0.6,0.5
2026-07-02T1200,3671A,116.0879,39.9725,北京市,门头沟三家店,,48,37,29,22,17,151,151,76,76,10,10,2,2,0.7,0.6
2026-07-02T1200,3672A,116.1507,39.8246,北京市,丰台云岗,细颗粒物(PM2.5),74,65,39,47,20,178,178,82,82,14,15,3,3,0.6,0.5
2026-07-02T1200,3674A,115.9578,39.7602,北京市,房山燕山,,49,43,31,28,20,156,156,77,77,9,8,1,1,0.6,0.6
2026-07-02T1200,3675A,116.4669,39.7734,北京市,大兴旧宫,臭氧1小时(O3_1h),103,49,42,33,28,206,206,101,101,16,18,2,1,0.7,0.6
2026-07-02T1200,3694A,115.9859,40.4562,北京市,延庆石河营,,39,10,26,6,19,122,122,63,63,8,14,3,2,0.4,0.4
2026-07-02T1200,3695A,116.6151,40.3052,北京市,怀柔新城,臭氧1小时(O3_1h),55,38,45,24,31,164,164,93,93,9,9,1,1,0.8,0.7
2026-07-02T1200,3696A,116.2542,39.8764,北京市,丰台小屯,臭氧1小时(O3_1h),83,57,36,34,22,186,186,84,84,10,12,3,3,0.6,0.5
2026-07-02T1200,3697A,116.8399,40.3843,北京市,密云镇,,46,32,42,26,29,146,146,86,86,6,11,2,2,0.6,0.6
2026-07-02T1200,4057A,115.9423,40.4431,北京市,延庆百泉,,40,11,25,8,16,128,128,67,67,5,11,2,1,0.3,0.4
2026-07-02T1200,4058A,116.6598,39.9164,北京市,通州新华,臭氧1小时(O3_1h),89,53,51,40,32,191,191,102,102,16,17,3,3,0.8,0.7
2026-07-02T1200,4182A,116.1942,39.9158,北京市,石景山八角,臭氧1小时(O3_1h),75,55,36,39,21,180,180,94,94,14,12,2,2,0.6,0.5
2026-07-02T1200,4194A,117.078628,40.151726,北京市,平谷新城,臭氧1小时(O3_1h),63,51,40,37,29,170,170,105,105,7,4,3,2,0.7,0.6
2026-07-02T1200,1761A,123.8274146,41.31234549,本溪市,大峪,NA,NA,19,40,11,27,103,103,78,78,3,15,6,6,NA,0.7
2026-07-02T1200,1763A,123.7169,41.3094,本溪市,彩屯,,30,24,37,17,31,96,96,65,65,9,17,9,7,1.3,1.4
2026-07-02T1200,1764A,123.7672166,41.28649327,本溪市,东明,,42,42,38,15,23,108,108,95,95,4,13,6,6,0.4,0.7
2026-07-02T1200,1765A,123.799345,41.266614,本溪市,新立屯,,33,28,34,14,27,104,104,89,89,3,15,8,8,0.6,1
2026-07-02T1200,1766A,123.829144,41.336777,本溪市,威宁,,32,19,33,14,26,100,100,63,63,2,18,8,8,0.4,0.6
2026-07-02T1200,2587A,105.287,27.3133,毕节市,八中,,25,18,21,16,12,79,79,34,34,5,10,7,7,0.5,0.5
2026-07-02T1200,2588A,105.3079,27.2987,毕节市,师专,,24,24,17,8,11,64,64,34,34,8,8,6,7,0.7,0.6
2026-07-02T1200,4263A,105.3688,27.3598,毕节市,工业大道,,31,31,18,3,7,60,60,24,24,13,12,6,7,/,/
2026-07-02T1200,1629A,117.9961,37.3604,滨州市,第二水厂,NA,NA,36,61,25,53,197,197,107,107,3,15,6,7,NA,1
2026-07-02T1200,1630A,117.9789,37.3931,滨州市,北中新校,臭氧1小时(O3_1h),101,41,56,21,49,201,201,118,118,6,17,10,12,0.7,1
2026-07-02T1200,3514A,117.9379,37.3959,滨州市,中海酒店,臭氧1小时(O3_1h),102,27,43,14,41,204,204,124,124,9,17,9,11,1.1,0.6
2026-07-02T1200,3515A,117.9381509,37.35547456,滨州市,开发区一中,臭氧1小时(O3_1h),102,53,61,27,49,204,204,113,113,13,23,12,12,0.5,0.7
2026-07-02T1200,3516A,118.0914,37.6938,滨州市,金海六路,臭氧1小时(O3_1h),112,49,53,29,48,224,224,128,128,9,14,10,7,0.4,0.4
2026-07-02T1200,4028A,117.9955,37.3752,滨州市,滨州市西街道办事处,臭氧1小时(O3_1h),97,34,49,17,48,197,197,119,119,1,12,5,6,0.4,0.7
2026-07-02T1200,2311A,115.8071,33.8399,亳州市,污水处理厂,,44,13,20,7,11,140,140,82,82,7,12,4,5,0.3,0.4
2026-07-02T1200,2312A,115.7789,33.8519,亳州市,三国揽胜宫,,44,28,30,8,12,139,139,82,82,5,9,4,4,0.5,0.3
2026-07-02T1200,3332A,115.7631,33.803,亳州市,亳州学院,,45,15,22,8,14,142,142,79,79,4,10,3,4,0.5,0.5
2026-07-02T1200,2693A,82.0482,44.8553,博尔塔拉蒙古自治州,市党校,,41,41,39,3,6,92,92,109,90,7,4,3,3,0.3,0.3
2026-07-02T1200,2694A,82.0805,44.8966,博尔塔拉蒙古自治州,市环保局,,33,21,29,3,5,105,105,114,95,13,7,5,5,0.5,0.4
2026-07-02T1200,1071A,116.8733,38.2922,沧州市,沧县城建局,臭氧1小时(O3_1h),95,NA,33,34,31,196,196,122,122,5,11,4,5,0.3,0.3
2026-07-02T1200,1072A,116.8462,38.3189,沧州市,电视转播站,臭氧1小时(O3_1h),82,40,45,27,29,185,185,192,169,7,12,7,6,0.3,0.3
2026-07-02T1200,1073A,116.8588,38.3161,沧州市,市环保局,臭氧1小时(O3_1h),92,52,56,24,35,193,193,116,116,6,12,2,3,0.2,0.2
2026-07-02T1200,3324A,116.8011,38.294,沧州市,河北水利电力学院,臭氧1小时(O3_1h),73,NA,34,39,32,178,178,115,115,6,11,9,9,0.4,0.2
2026-07-02T1200,2622A,97.1813,31.1289,昌都市,昌都监测站,NA,NA,20,19,3,5,112,112,75,75,7,14,5,7,NA,0.6
2026-07-02T1200,3719A,97.1707,31.1428,昌都市,昌都会议中心,,40,14,14,3,5,127,127,82,82,5,6,5,5,0.3,0.3
2026-07-02T1200,2692A,87.2722,44.0298,昌吉回族自治州,新区政务中心,,33,25,37,3,15,105,105,98,92,3,12,10,11,0.3,0.4
2026-07-02T1200,3613A,87.3069,44.0093,昌吉回族自治州,亚心广场,,35,24,43,6,15,111,111,105,102,4,10,8,10,0.1,0.2
2026-07-02T1200,4164A,87.2057,43.9289,昌吉回族自治州,财政所,,38,34,39,6,11,119,119,98,98,6,9,7,9,0.2,0.2
2026-07-02T1200,1120A,125.2874,43.9024,长春市,客车厂,,35,30,39,24,33,95,95,69,69,10,30,5,5,0.5,0.6
2026-07-02T1200,1121A,125.2943,43.8508,长春市,邮电学院,,38,29,30,26,30,100,100,72,72,8,20,6,6,0.5,0.6
2026-07-02T1200,1122A,125.3648,43.8745,长春市,劳动公园,细颗粒物(PM2.5),78,NA,33,49,34,74,74,64,64,12,23,6,7,0.6,0.5
2026-07-02T1200,1123A,125.3233,43.8781,长春市,园林处,,36,36,33,25,28,88,88,73,73,9,18,4,4,0.5,0.5
2026-07-02T1200,1124A,125.4604,43.7904,长春市,净月潭,细颗粒物(PM2.5),56,NA,25,38,27,70,70,49,49,7,12,6,6,0.4,0.4
2026-07-02T1200,1126A,125.38,43.8422,长春市,经开区环卫处,细颗粒物(PM2.5),54,40,35,37,28,69,69,62,62,11,25,4,5,0.5,0.4
2026-07-02T1200,1127A,125.234,43.7761,长春市,高新区管委会,,27,27,30,14,26,83,83,64,64,5,23,6,6,0.5,0.5
2026-07-02T1200,1128A,125.1695,43.83,长春市,岱山公园,,30,25,33,21,29,94,94,60,60,12,40,3,3,0.5,0.6
2026-07-02T1200,4281A,125.334645,43.916281,长春市,北亚泰大街1068号,,49,NA,41,34,34,81,81,70,70,13,30,4,5,0.5,0.5
2026-07-02T1200,1335A,113.082,28.2421,长沙市,经开区环保局,,18,18,25,6,19,46,46,22,22,5,18,4,4,0.6,0.8
2026-07-02T1200,1336A,112.8873,28.2202,长沙市,高开区环保局,,17,NA,24,8,19,53,53,28,28,4,14,3,3,0.4,0.7
2026-07-02T1200,1337A,113.0785,28.2012,长沙市,马坡岭,,17,15,26,6,18,53,53,26,26,4,18,6,6,0.5,0.8
2026-07-02T1200,1338A,112.9448,28.1894,长沙市,湖南师范大学,,19,19,25,8,19,57,57,27,27,3,10,7,8,0.2,0.5
2026-07-02T1200,1339A,113.0177,28.1322,长沙市,雨花区环保局,,15,15,25,7,20,46,46,19,19,2,15,4,4,0.9,1.2
2026-07-02T1200,1340A,112.9795,28.2593,长沙市,伍家岭,,18,17,28,7,18,56,56,26,26,5,20,3,3,0.4,0.6
2026-07-02T1200,1341A,113.002,28.1944,长沙市,火车新站,,18,18,27,3,18,48,48,19,19,2,19,7,8,0.5,0.8
2026-07-02T1200,1342A,112.9846,28.1177,长沙市,天心区环保局,,21,21,24,8,22,58,58,34,34,7,21,3,3,0.3,0.6
2026-07-02T1200,1343A,112.8906,28.1307,长沙市,湖南中医药大学,,32,32,25,3,14,60,60,20,20,2,20,5,6,0.6,0.9
2026-07-02T1200,1727A,113.1146,36.1547,长治市,清华站,臭氧1小时(O3_1h),57,37,31,21,20,165,165,99,99,17,11,12,10,0.8,0.6
2026-07-02T1200,1730A,113.0887,36.2126,长治市,审计局,NA,NA,NA,33,NA,21,150,150,79,74,9,11,8,9,0.9,0.8
2026-07-02T1200,1731A,113.0845,36.1856,长治市,长治八中,臭氧1小时(O3_1h),58,50,39,23,20,166,166,84,83,10,14,12,12,1.0,0.8
2026-07-02T1200,2845A,113.1561,36.1912,长治市,德盛苑,,50,42,26,24,19,159,159,128,122,20,12,13,12,0.8,0.6
2026-07-02T1200,3568A,113.0603,36.0464,长治市,向阳小学,,50,38,34,24,21,159,159,116,116,3,6,7,7,1.0,0.8
2026-07-02T1200,3569A,112.8788,36.315,长治市,屯留一中,,41,36,28,17,15,129,129,57,57,6,16,10,10,1.1,0.8
2026-07-02T1200,4189A,113.113092,36.199482,长治市,英华南巷50号,臭氧1小时(O3_1h),57,48,37,23,21,165,165,96,96,14,13,13,12,1.0,0.9
2026-07-02T1200,4190A,113.23666,36.33435,长治市,学府街1号,颗粒物(PM10),58,60,41,24,23,159,159,89,89,18,17,13,8,1.1,0.9
2026-07-02T1200,1854A,111.696,28.9725,常德市,市二中,,15,11,10,6,5,47,47,25,25,2,6,7,8,1.2,1.1
2026-07-02T1200,3138A,111.7152,29.0288,常德市,武陵区永安,,17,13,12,6,7,52,52,23,23,2,5,6,8,0.8,0.8
2026-07-02T1200,3139A,111.6891,28.9881,常德市,鼎城区玉霞,NA,NA,13,12,7,5,50,50,24,24,NA,8,8,9,0.8,0.7
2026-07-02T1200,3140A,111.6651,29.0526,常德市,武陵区长庚,,17,10,11,3,4,54,54,32,32,2,4,8,8,0.6,0.6
2026-07-02T1200,1196A,119.9524,31.7586,常州市,市监测站,,30,10,27,3,17,95,95,46,46,8,21,11,12,0.4,0.5
2026-07-02T1200,1200A,119.9351,31.703,常州市,武进监测站,,26,9,21,3,16,82,82,48,48,6,13,13,13,0.5,0.7
2026-07-02T1200,3002A,119.9701,31.813,常州市,行政中心,,28,18,28,3,16,88,88,52,52,4,12,6,7,0.3,0.4
2026-07-02T1200,3003A,120.0434,31.7726,常州市,经开区,,37,24,36,8,22,116,116,57,57,10,20,9,8,0.8,1
2026-07-02T1200,3010A,119.8919,31.7892,常州市,钟楼,,32,20,28,3,16,102,102,53,53,8,17,8,9,0.5,0.6
2026-07-02T1200,3429A,119.8595,31.706,常州市,武进经发区,,30,15,28,9,17,96,96,48,48,2,9,10,9,0.7,0.9
2026-07-02T1200,3430A,119.5812,31.7256,常州市,金坛城区,,29,12,15,10,17,91,91,47,47,7,10,12,8,0.8,0.8
2026-07-02T1200,4089A,119.9551,31.863,常州市,崇义南街5-H号,,32,12,30,3,17,101,101,52,52,4,18,7,8,0.8,0.9
2026-07-02T1200,2220A,120.4318,41.588,朝阳市,西梁,,39,NA,30,27,18,87,87,64,64,4,6,6,6,0.9,0.8
2026-07-02T1200,2221A,120.452,41.565,朝阳市,河畔小区,,43,34,23,30,21,88,88,69,68,5,6,8,8,0.8,0.7
2026-07-02T1200,2222A,120.4176,41.5648,朝阳市,八里堡,颗粒物(PM10),53,54,28,26,24,95,95,67,67,7,9,2,3,0.6,0.8
2026-07-02T1200,3026A,116.6179,23.6608,潮州市,市政府,,27,27,21,9,8,47,47,25,25,3,4,4,5,0.2,0.1
2026-07-02T1200,4036A,116.646,23.676,潮州市,金山,,37,37,18,7,7,64,64,34,34,1,5,1,2,0.2,0.2
2026-07-02T1200,2473A,113.0116,25.8228,郴州市,市职中,,18,17,20,10,12,57,57,29,29,4,9,7,8,0.6,0.7
2026-07-02T1200,2475A,113.0381,25.8074,郴州市,市审计局,,19,13,18,13,12,60,60,37,37,4,8,4,4,/,/
2026-07-02T1200,2476A,113.0348,25.7757,郴州市,市环保局,,18,12,18,10,11,57,57,36,36,2,7,7,7,0.5,0.6
2026-07-02T1200,4252A,113.0138,25.8011,郴州市,好美居路49号,,23,23,28,3,6,57,57,34,34,3,8,6,7,/,/
2026-07-02T1200,1431A,103.9727,30.7242,成都市,金泉两河,,41,18,50,9,45,130,130,54,54,10,17,3,6,0.2,0.4
2026-07-02T1200,1432A,104.1423,30.6765,成都市,十里店,,41,30,50,15,40,130,130,80,80,10,13,6,6,0.5,0.7
2026-07-02T1200,1433A,104.0594,30.5765,成都市,三瓦窑,,40,40,53,16,43,122,122,62,62,13,18,6,6,0.7,0.8
2026-07-02T1200,1434A,104.1122,30.6306,成都市,沙河铺,,47,47,51,18,39,126,126,69,69,12,16,6,5,0.5,0.6
2026-07-02T1200,2880A,104.0219,30.6561,成都市,大石西路,,34,13,61,10,52,108,108,54,54,12,18,5,6,0.4,0.6
2026-07-02T1200,3136A,104.2724,30.559,成都市,龙泉驿区区政府,,38,22,31,15,33,119,119,73,73,9,10,9,10,0.5,0.6
2026-07-02T1200,3357A,104.0028,30.6891,成都市,金博路,,38,10,51,9,48,119,119,55,55,9,19,8,9,0.5,0.7
2026-07-02T1200,3359A,104.056,30.5228,成都市,华阳,,37,36,46,19,44,116,116,62,59,11,13,4,3,0.4,0.6
2026-07-02T1200,3488A,104.387954,30.746684,成都市,青白江技师分院,,41,31,44,22,39,130,130,79,79,8,12,8,7,0.6,0.7
2026-07-02T1200,3489A,104.0788,30.4054,成都市,科学城,,39,NA,32,7,30,123,123,51,51,4,12,12,7,0.3,0.4
2026-07-02T1200,4011A,103.8505,30.6946,成都市,光华大道三段,,39,28,64,9,54,123,123,52,52,7,14,4,5,0.4,0.6
2026-07-02T1200,4144A,104.3257,30.6406,成都市,八角井街185号,颗粒物(PM10),52,52,48,19,33,130,130,83,83,11,12,8,6,0.5,0.6
2026-07-02T1200,4224A,104.2433276,30.53529463,成都市,鲸龙路1057号,,38,18,44,11,32,121,121,68,68,9,12,10,11,0.7,0.8
2026-07-02T1200,1062A,117.9531,40.908,承德市,铁路,,45,36,36,20,19,142,142,56,56,9,15,9,6,0.5,0.4
2026-07-02T1200,1063A,117.9397,40.9763,承德市,中国银行,,44,40,36,25,18,138,138,54,54,6,10,22,4,0.7,0.4
2026-07-02T1200,4073A,117.9462,40.95,承德市,杏林街1号,颗粒物(PM10),52,52,32,35,24,146,146,58,58,7,12,14,5,0.7,0.5
2026-07-02T1200,4274A,117.7994,40.9605,承德市,滨河大街98号,NA,NA,NA,29,18,18,150,150,60,60,8,8,15,12,0.7,0.5
2026-07-02T1200,2314A,117.4698,30.6617,池州市,池州学院,NA,NA,6,11,3,5,62,62,38,38,7,10,NA,4,0.5,0.6
2026-07-02T1200,3237A,117.4918,30.6617,池州市,展览馆,NA,NA,8,15,3,6,60,60,33,33,NA,7,3,3,0.3,0.5
2026-07-02T1200,3333A,117.5626,30.695,池州市,第八中学,,19,6,11,3,7,59,59,34,34,3,6,4,4,0.3,0.4
2026-07-02T1200,3334A,117.5037,30.6242,池州市,第十二中学,,18,8,14,3,6,56,56,30,30,4,11,6,5,0.5,0.9
2026-07-02T1200,1744A,118.9229,42.2816,赤峰市,松山一中,,44,17,28,11,20,140,140,79,79,7,15,14,16,0.5,0.7
2026-07-02T1200,1745A,118.9588,42.2733,赤峰市,哈达街,,41,22,29,3,18,129,129,78,78,10,15,19,24,0.3,0.5
2026-07-02T1200,1746A,118.8792,42.2551,赤峰市,天义路,,38,14,24,11,20,121,121,72,72,10,17,11,16,0.5,0.6
2026-07-02T1200,3058A,119.2656,42.0356,赤峰市,银河街,颗粒物(PM10),56,58,34,33,24,115,115,58,58,12,12,14,10,1.1,0.7
2026-07-02T1200,3286A,118.9359,42.3146,赤峰市,桥北物流园区,,44,16,30,8,23,139,139,70,70,10,17,4,7,0.4,0.6
2026-07-02T1200,2521A,107.3473,22.4137,崇左市,市环保局江州分局,,25,19,25,9,10,77,77,31,31,3,8,6,6,0.5,0.5
2026-07-02T1200,4256A,107.375,22.3736,崇左市,石景林东路7号,,40,40,24,6,12,72,72,39,39,4,10,5,5,0.4,0.5
2026-07-02T1200,3207A,118.31131,32.3033,滁州市,市政府原办公楼,,37,NA,21,20,32,117,117,82,78,2,6,5,6,0.5,0.5
2026-07-02T1200,3331A,118.3268,32.2633,滁州市,图书馆,,34,27,39,7,22,108,108,72,72,2,5,10,10,0.5,0.6
2026-07-02T1200,4101A,118.3196,32.3335,滁州市,银山路666号,,38,22,36,16,26,121,121,84,80,5,6,4,3,0.3,0.3
2026-07-02T1200,4102A,118.3426,32.2979,滁州市,黄山路555号,,33,29,39,12,30,104,104,79,74,4,7,5,8,0.4,0.5
2026-07-02T1200,2606A,101.5379,25.0492,楚雄彝族自治州,市经济开发区,,15,13,17,3,10,48,48,36,36,6,9,1,3,0.5,0.6
2026-07-02T1200,4153A,101.5536,25.0343,楚雄彝族自治州,团结路562号,,16,10,13,9,9,50,50,39,39,3,6,4,5,0.4,0.5
2026-07-02T1200,2549A,107.5087,31.2186,达州市,市环境监测站,,29,25,31,6,17,91,91,33,33,14,20,6,6,0.3,0.5
2026-07-02T1200,2550A,107.4988,31.2132,达州市,凤凰小区,,29,22,35,3,17,92,92,36,36,10,19,5,5,0.3,0.5
2026-07-02T1200,2551A,107.5081,31.1987,达州市,达县机关宾馆,,31,24,34,3,19,98,98,38,38,14,28,4,4,0.3,0.4
2026-07-02T1200,2552A,107.4644,31.2124,达州市,市政中心,,34,34,43,3,20,97,97,36,36,10,22,3,3,0.3,0.4
2026-07-02T1200,2614A,100.2168,25.5818,大理白族自治州,大理市环境监测站,,25,25,19,7,10,57,57,41,41,12,15,6,5,0.6,0.5
2026-07-02T1200,2615A,100.1542,25.7055,大理白族自治州,大理古城,,23,NA,16,16,9,52,52,37,37,8,10,9,8,0.7,0.6
2026-07-02T1200,1109A,121.6119,38.974,大连市,甘井子,,40,31,23,28,20,93,93,85,83,9,10,8,8,0.6,0.6
2026-07-02T1200,1110A,121.565,38.9509,大连市,周水子,,38,26,21,26,20,93,93,77,77,15,15,5,5,0.8,0.7
2026-07-02T1200,1111A,121.5637,38.8849,大连市,星海三站,,26,23,25,18,17,83,83,83,80,10,7,7,6,0.9,0.8
2026-07-02T1200,1112A,121.6301,38.9117,大连市,青泥洼桥,细颗粒物(PM2.5),54,NA,24,37,19,96,96,85,84,8,7,7,7,0.6,0.6
2026-07-02T1200,1113A,121.6248,38.8643,大连市,傅家庄,,27,NA,12,13,14,85,85,88,86,9,7,8,7,0.5,0.5
2026-07-02T1200,1114A,121.5117,38.8636,大连市,七贤岭,,40,NA,23,28,19,84,84,76,73,15,13,4,4,0.9,0.8
2026-07-02T1200,1116A,121.7507,39.1339,大连市,金州,,35,19,20,19,18,109,109,99,99,11,10,9,10,0.6,0.6
2026-07-02T1200,1117A,121.7811,39.0495,大连市,开发区,,35,25,27,24,17,102,102,82,82,7,15,8,8,0.5,0.4
2026-07-02T1200,1118A,121.9762,39.0631,大连市,双D港,,32,15,17,10,16,101,101,100,100,6,8,6,6,0.6,0.6
2026-07-02T1200,4082A,121.2548,38.8188,大连市,旅顺,,46,42,25,32,21,96,96,66,66,7,11,6,6,0.4,0.4
2026-07-02T1200,1789A,124.8085,46.0381,大庆市,大同区,,40,28,34,19,19,126,126,102,102,7,12,4,5,0.7,0.7
2026-07-02T1200,1790A,125.1166,46.5255,大庆市,龙凤区,NA,NA,30,38,13,21,113,113,80,80,7,10,NA,8,NA,0
2026-07-02T1200,1791A,124.8894,46.4007,大庆市,红岗区,,39,16,27,11,19,122,122,89,89,4,7,10,9,0.5,0.5
2026-07-02T1200,1792A,125.1391,46.578,大庆市,萨尔图区,,39,29,36,21,22,122,122,95,95,7,10,5,6,0.3,0.5
2026-07-02T1200,1793A,124.9026,46.6217,大庆市,让胡路区,,40,32,36,20,26,127,127,92,92,5,8,4,4,0.6,0.7
2026-07-02T1200,3481A,125.127,46.6277,大庆市,萨区政府监测点,,42,32,37,23,26,134,134,109,109,2,5,6,6,0.4,0.3
2026-07-02T1200,1723A,113.2926,40.0759,大同市,云冈宾馆,,48,46,38,18,12,153,153,77,77,18,23,15,10,0.4,0.3
2026-07-02T1200,1724A,113.3437,40.0921,大同市,大同大学,,49,45,42,11,14,154,154,83,83,16,21,11,10,0.7,0.6
2026-07-02T1200,1725A,113.2637,40.129,大同市,安家小村,,50,37,31,12,13,160,160,75,75,14,17,14,9,0.6,0.5
2026-07-02T1200,3282A,113.3399,40.0586,大同市,大同市卫生学校,臭氧1小时(O3_1h),60,42,38,12,13,168,168,87,87,15,20,13,11,0.7,0.7
2026-07-02T1200,3565A,113.1371,40.1122,大同市,云冈站,,45,26,30,12,14,144,144,70,70,9,17,10,8,0.7,0.6
2026-07-02T1200,3566A,113.1186,40.2556,大同市,图书馆,,50,23,21,6,9,158,158,72,72,10,10,10,7,0.9,0.7
2026-07-02T1200,3567A,113.5931,40.0459,大同市,区一中,臭氧1小时(O3_1h),62,54,31,12,13,169,169,84,84,11,13,13,10,0.5,0.5
2026-07-02T1200,4199A,113.2798248,40.09972476,大同市,魏都大道141号,,48,46,38,14,13,151,151,70,70,19,23,13,7,0.7,0.6
2026-07-02T1200,2269A,124.1068,50.4091,大兴安岭地区,科技局,NA,NA,16,23,12,10,73,73,42,42,NA,5,8,7,0.3,0.2
2026-07-02T1200,3663A,124.117,50.4279,大兴安岭地区,红旗社区,,26,14,10,9,12,83,83,50,50,5,9,6,5,0.2,0.2
2026-07-02T1200,1600A,124.33,40.0625,丹东市,江湾东路,,30,25,33,21,20,67,67,69,67,9,9,4,5,0.6,0.5
2026-07-02T1200,1601A,124.4242,40.1513,丹东市,临江后街,NA,NA,NA,24,NA,18,74,74,70,69,NA,8,NA,5,0.3,0.4
2026-07-02T1200,1602A,124.3935,40.1461,丹东市,元宝山,,30,30,31,19,19,66,66,70,67,8,9,4,5,0.6,0.7
2026-07-02T1200,1603A,124.3634,40.1093,丹东市,民主桥,,38,38,31,26,20,58,58,68,62,13,10,6,7,0.8,0.8
2026-07-02T1200,3541A,109.5726195,19.51688767,儋州市,第一中学子站,,20,20,12,7,4,35,35,35,34,2,2,2,2,0.5,0.6
2026-07-02T1200,3542A,109.5567,19.5187,儋州市,东坡学校子站,,12,NA,12,7,4,37,37,37,36,1,2,3,5,0.6,0.6
2026-07-02T1200,2616A,98.5611,24.4273,德宏傣族景颇族自治州,德宏州监测站,,16,NA,5,3,10,50,50,51,51,10,7,8,8,0.5,0.5
2026-07-02T1200,3677A,98.5887,24.4366,德宏傣族景颇族自治州,芒市人民政府综合楼,,14,14,27,3,8,42,42,41,41,8,8,2,3,0.6,0.6
2026-07-02T1200,1901A,104.424,31.1209,德阳市,东山公园,细颗粒物(PM2.5),84,62,48,52,49,128,128,66,66,14,14,7,4,0.8,0.8
2026-07-02T1200,1902A,104.3827,31.1318,德阳市,西小区,颗粒物(PM10),53,54,56,31,52,109,109,52,52,13,21,9,8,1.0,1.1
2026-07-02T1200,1904A,104.3553,31.1091,德阳市,耐火材料厂,,47,47,55,30,60,137,137,57,57,7,19,5,5,0.6,0.7
2026-07-02T1200,4145A,104.4144,31.1495,德阳市,市林业局,颗粒物(PM10),57,59,53,37,52,134,134,62,62,14,23,12,11,0.9,1
2026-07-02T1200,1622A,116.3034,37.4675,德州市,儿童乐园,臭氧1小时(O3_1h),112,NA,41,21,29,223,223,162,162,8,12,13,10,1.0,0.8
2026-07-02T1200,1624A,116.2992,37.4449,德州市,监理站,臭氧1小时(O3_1h),109,48,48,15,28,217,217,152,152,12,14,16,13,0.6,0.5
2026-07-02T1200,3066A,116.2722,37.438,德州市,九衢泉纯净水厂,臭氧1小时(O3_1h),107,51,49,18,36,214,214,139,139,10,22,6,6,1.0,0.9
2026-07-02T1200,3371A,116.3693,37.44,德州市,开发区人民医院,臭氧1小时(O3_1h),101,46,46,20,37,202,202,137,137,9,19,12,10,0.8,0.7
2026-07-02T1200,3511A,116.5687,37.3331,德州市,陵城艺术中心,臭氧1小时(O3_1h),99,34,45,13,35,199,199,142,142,8,15,6,6,0.5,0.6
2026-07-02T1200,4292A,116.352738,37.420875,德州市,新河东路,臭氧1小时(O3_1h),102,39,42,14,34,203,203,128,128,12,27,13,11,1.0,0.8
2026-07-02T1200,2621A,99.7054,27.8319,迪庆藏族自治州,迪庆州站,,37,13,14,9,7,117,117,72,72,9,8,6,7,0.2,0.2
2026-07-02T1200,3180A,99.7122,27.8129,迪庆藏族自治州,质量技术监督局,,41,15,12,11,7,131,131,81,81,9,8,10,10,0.3,0.3
2026-07-02T1200,4257A,104.6092,35.5962,定西市,将台街,,43,18,31,3,10,135,135,124,121,5,6,5,5,0.2,0.2
2026-07-02T1200,4309A,104.6159,35.5701,定西市,正龙路62号,,42,28,37,3,7,133,133,120,118,5,6,5,5,0.2,0.2
2026-07-02T1200,4071A,114.9883,38.5232,定州市,交通局,臭氧1小时(O3_1h),116,91,67,39,37,232,232,127,127,19,26,8,5,0.6,0.5
2026-07-02T1200,4072A,115.0045,38.5136,定州市,第五中学,臭氧1小时(O3_1h),112,103,74,53,39,224,224,121,121,18,26,6,4,0.5,0.4
2026-07-02T1200,1390A,113.7943,23.0132,东莞市,东城石井,,33,22,20,10,10,104,104,47,47,11,13,1,2,0.5,0.5
2026-07-02T1200,1391A,113.7384,22.9659,东莞市,南城西平,,26,19,21,9,8,82,82,32,32,9,13,6,6,0.7,0.7
2026-07-02T1200,3319A,113.7283,23.041,东莞市,万江金泰,,33,24,20,12,10,104,104,37,37,12,13,8,8,0.6,0.6
2026-07-02T1200,4129A,113.8666,23.1062,东莞市,裕兴路,,24,24,25,7,8,75,75,32,32,6,9,6,6,0.6,0.6
2026-07-02T1200,4130A,114.0076,22.9739,东莞市,教育路1号,,25,17,22,8,8,80,80,29,29,10,13,6,6,0.7,0.7
2026-07-02T1200,4131A,113.7981,22.8124,东莞市,长怡路1号,,22,18,26,3,8,69,69,29,29,3,11,4,4,0.5,0.5
2026-07-02T1200,1666A,118.6612,37.4313,东营市,市环保局,臭氧1小时(O3_1h),92,34,41,19,35,193,193,107,107,8,14,5,7,0.6,0.7
2026-07-02T1200,3036A,118.6903,37.4337,东营市,开发区管委会,臭氧1小时(O3_1h),102,44,44,14,33,203,203,113,113,12,17,10,11,0.6,0.7
2026-07-02T1200,3365A,118.5721,37.5654,东营市,垦利区民丰路,臭氧1小时(O3_1h),103,44,42,18,33,205,205,118,118,9,15,NA,14,0.6,0.5
2026-07-02T1200,3498A,118.5063,37.8606,东营市,河口城区,臭氧1小时(O3_1h),100,41,32,18,27,200,200,134,134,10,12,10,6,1.0,1
2026-07-02T1200,3646A,118.4979,37.4623,东营市,胜利站,臭氧1小时(O3_1h),101,41,42,18,40,201,201,121,121,10,14,8,8,0.8,0.9
2026-07-02T1200,3734A,118.5753,37.4405,东营市,理想之城,臭氧1小时(O3_1h),107,41,41,19,35,213,213,107,107,16,17,10,9,NA,0.6
2026-07-02T1200,1591A,110.0024,39.8127,鄂尔多斯市,综合楼,,44,22,38,10,16,139,139,109,109,11,25,12,15,0.4,0.6
2026-07-02T1200,1592A,109.9485,39.8259,鄂尔多斯市,巴音孟克林场办事处,,44,14,31,6,11,139,139,124,124,6,18,4,7,0.3,0.5
2026-07-02T1200,1593A,109.7734,39.5987,鄂尔多斯市,康泽苑,臭氧1小时(O3_1h),53,41,29,3,10,162,162,97,97,8,15,11,10,0.3,0.5
2026-07-02T1200,1594A,109.8121,39.5987,鄂尔多斯市,华泰汽车城,NA,NA,NA,28,NA,11,NA,NA,135,NA,NA,29,NA,8,NA,0.6
2026-07-02T1200,1595A,109.9734,39.7884,鄂尔多斯市,奥林花园,,44,19,40,11,14,139,139,76,76,6,36,6,6,0.3,0.5
2026-07-02T1200,2436A,114.894,30.3989,鄂州市,市政府,,19,11,23,3,7,58,58,36,36,5,15,1,2,0.7,0.7
2026-07-02T1200,2437A,114.8986,30.3714,鄂州市,赵家坝,,22,11,16,3,4,68,68,49,49,1,8,7,8,0.7,0.7
2026-07-02T1200,3654A,114.8093,30.4091,鄂州市,精准医疗中心,,22,8,24,3,9,70,70,61,60,5,11,3,5,0.6,0.6
2026-07-02T1200,2454A,109.4978,30.2979,恩施土家族苗族自治州,湖北民院,,25,25,29,3,14,29,29,14,14,8,9,4,4,0.6,0.6
2026-07-02T1200,3549A,109.5061,30.3771,恩施土家族苗族自治州,龙凤新区,,24,24,21,16,13,24,24,13,11,10,9,6,6,0.6,0.5
2026-07-02T1200,2499A,108.3411,21.6159,防城港市,沙万,,27,27,26,8,14,43,43,26,26,5,14,3,3,0.6,0.8
2026-07-02T1200,2500A,108.3515,21.7733,防城港市,防城档案局,,24,24,24,8,10,65,65,31,31,6,10,7,6,0.6,0.6
2026-07-02T1200,2501A,108.3506,21.6414,防城港市,大海花园,,29,29,24,8,14,58,58,32,32,4,12,7,8,0.6,0.9
2026-07-02T1200,1371A,113.1293,23.0065,佛山市,湾梁,NA,NA,NA,22,NA,14,NA,NA,111,10,NA,24,NA,NA,NA,NA
2026-07-02T1200,1372A,113.1082,23.0477,佛山市,华材职中,,27,22,21,14,13,86,86,29,29,8,18,8,7,0.3,0.3
2026-07-02T1200,1373A,113.1439,23.045,佛山市,南海气象局,颗粒物(PM10),52,52,24,7,13,82,82,25,25,14,25,/,/,/,/
2026-07-02T1200,1374A,113.2879,22.8094,佛山市,顺德苏岗,,22,NA,19,8,9,68,68,24,24,14,20,/,/,0.7,0.7
2026-07-02T1200,1376A,112.8384,22.8678,佛山市,高明孔堂,,32,32,21,11,11,101,101,29,29,10,14,/,/,/,/
2026-07-02T1200,1377A,112.8835,23.1584,佛山市,三水监测站,,31,31,23,13,14,75,75,22,22,13,19,5,4,0.7,0.6
2026-07-02T1200,1378A,112.8668,23.185,佛山市,三水云东海,,27,27,28,16,17,80,80,21,21,10,16,/,/,/,/
2026-07-02T1200,3625A,113.2568,22.7629,佛山市,容桂街道办,,20,12,13,9,10,63,63,25,25,11,17,/,/,/,/
2026-07-02T1200,1282A,119.2681,26.0506,福州市,师大,,26,21,21,3,6,82,82,44,44,5,8,4,4,0.3,0.3
2026-07-02T1200,1283A,119.2983,26.1028,福州市,五四北路,NA,NA,14,20,10,5,83,83,44,44,6,10,NA,4,0.4,0.4
2026-07-02T1200,1284A,119.2648,26.0769,福州市,杨桥西路,,26,15,20,7,5,81,81,44,44,5,9,4,4,/,/
2026-07-02T1200,3048A,119.5799,26.0937,福州市,九龙,,33,27,25,9,5,103,103,49,49,2,6,6,6,0.1,0.1
2026-07-02T1200,3526A,119.5188,25.9666,福州市,吴航,,30,17,18,8,9,93,93,44,44,6,11,6,6,0.5,0.4
2026-07-02T1200,4104A,119.3106,26.0648,福州市,路通桥巷6号,,28,25,19,7,9,87,87,43,43,4,7,/,/,/,/
2026-07-02T1200,1755A,123.7974,41.8494,抚顺市,望花区,,37,37,33,18,29,105,105,60,60,12,18,7,7,0.7,0.9
2026-07-02T1200,1756A,123.9161,41.8827,抚顺市,顺城区,,38,33,27,14,23,121,121,68,68,11,22,11,10,0.8,0.7
2026-07-02T1200,1757A,124.0437,41.8615,抚顺市,东洲区,,36,18,27,15,28,113,113,52,52,8,18,10,9,0.5,0.7
2026-07-02T1200,1758A,123.9246,41.8638,抚顺市,新抚区,,39,25,27,14,26,124,124,56,56,8,15,7,6,0.9,0.8
2026-07-02T1200,1759A,124.0972,41.8961,抚顺市,大伙房水库,,36,16,24,14,23,114,114,51,51,11,18,11,11,0.5,0.6
2026-07-02T1200,1760A,123.708,41.8386,抚顺市,沈抚新城,,33,16,28,11,26,105,105,52,52,11,20,7,8,0.7,0.8
2026-07-02T1200,2377A,116.3544,27.9833,抚州市,市站,,25,25,16,12,5,48,48,31,29,2,3,3,2,0.7,0.6
2026-07-02T1200,2378A,116.3562,27.9631,抚州市,血防站,,32,32,25,3,5,33,33,29,24,6,6,4,5,0.5,0.4
2026-07-02T1200,2379A,116.3561,28.0007,抚州市,采茶剧团,,21,21,18,9,4,51,51,30,30,5,7,7,6,0.6,0.6
2026-07-02T1200,2380A,116.3854,27.9648,抚州市,医学分院,,33,33,20,8,3,51,51,32,32,3,4,5,3,0.7,0.7
2026-07-02T1200,2207A,121.6095,41.9978,阜新市,工业园区,,35,31,29,24,25,99,99,84,84,8,11,4,8,0.4,0.4
2026-07-02T1200,2208A,121.6567,42.0188,阜新市,长青街,,36,36,27,21,24,108,108,90,90,9,11,7,10,0.5,0.5
2026-07-02T1200,2209A,121.6672,42.07,阜新市,农业园区,NA,NA,48,44,22,26,101,101,85,85,7,9,NA,5,0.9,0.8
2026-07-02T1200,2211A,121.6343,42.0455,阜新市,玉龙新城,,29,29,30,17,24,92,92,76,76,8,10,4,5,0.7,0.6
2026-07-02T1200,2301A,115.8276,32.8929,阜阳市,市监测站,,45,33,28,12,14,143,143,106,106,8,12,5,5,0.6,0.5
2026-07-02T1200,2303A,115.8551,32.8606,阜阳市,开发区,NA,NA,21,37,10,16,134,134,74,74,8,21,5,4,NA,0.4
2026-07-02T1200,2875A,115.783962,32.889217,阜阳市,阜阳职业技术学院,,47,32,34,9,14,148,148,104,104,4,12,3,4,0.4,0.4
2026-07-02T1200,3468A,115.79,32.8614,阜阳市,市规划展馆,,47,37,32,9,14,148,148,105,105,7,16,3,3,0.5,0.5
2026-07-02T1200,3469A,115.835101,32.918568,阜阳市,枣园社区,,44,24,28,9,12,139,139,105,105,7,10,1,2,0.5,0.5
2026-07-02T1200,2669A,102.9097,34.9841,甘南藏族自治州,州政府,,37,17,19,3,10,116,116,89,89,4,6,3,3,0.3,0.3
2026-07-02T1200,3380A,102.8915,34.9618,甘南藏族自治州,甘肃民族师范学院,,40,11,19,10,10,126,126,94,94,9,9,3,3,0.3,0.2
2026-07-02T1200,2570A,101.96,30.048,甘孜藏族自治州,水桥子,,21,6,13,3,6,67,67,19,19,6,24,2,2,0.5,0.5
2026-07-02T1200,3065A,101.9534,29.9976,甘孜藏族自治州,州环保局,,23,6,15,3,7,71,71,26,26,9,26,3,2,0.6,0.6
2026-07-02T1200,2363A,114.9368,25.8663,赣州市,地委,,17,12,19,3,5,54,54,39,39,2,5,4,3,0.3,0.5
2026-07-02T1200,2364A,114.946,25.8483,赣州市,气象台,,14,13,16,6,5,42,42,36,36,7,7,4,4,0.3,0.5
2026-07-02T1200,2365A,114.932,25.8332,赣州市,市图书馆,,16,11,14,8,6,51,51,41,41,2,5,18,20,0.3,0.5
2026-07-02T1200,2366A,114.8905,25.8472,赣州市,华坚鞋城,NA,NA,27,22,8,7,50,50,37,37,NA,6,2,1,0.2,0.3
2026-07-02T1200,3109A,115.0094,25.8614,赣州市,赣县区卫计委,,13,NA,18,3,6,41,41,26,26,1,7,2,2,0.3,0.3
2026-07-02T1200,2684A,106.2753,36.0057,固原市,监测站,NA,NA,NA,25,2,11,144,144,126,126,4,7,5,6,0.3,0.3
2026-07-02T1200,2685A,106.2384,36.0189,固原市,新区,,45,12,23,3,10,144,144,128,128,5,7,6,6,0.3,0.3
2026-07-02T1200,2544A,106.6307,30.4577,广安市,市委,,30,25,33,17,17,96,96,87,87,13,14,5,5,0.5,0.6
2026-07-02T1200,2545A,106.6266,30.4662,广安市,友谊中学,,33,15,29,10,18,105,105,92,92,8,12,8,8,0.3,0.5
2026-07-02T1200,2547A,106.6386,30.4551,广安市,广电花园,,30,13,25,11,20,95,95,84,84,11,15,8,8,0.6,0.6
2026-07-02T1200,2902A,106.6347,30.4868,广安市,北辰小学,NA,NA,19,30,14,22,95,95,86,86,11,12,NA,16,0.4,0.5
2026-07-02T1200,2524A,105.8211,32.4444,广元市,老城,,28,10,33,3,22,88,88,74,74,7,10,6,8,0.5,0.6
2026-07-02T1200,2526A,105.8629,32.429,广元市,监测站,,30,25,41,3,20,93,93,74,74,8,10,3,4,0.4,0.5
2026-07-02T1200,3617A,105.8047,32.4167,广元市,经开区,,29,20,34,8,21,92,92,69,69,8,13,4,5,0.5,0.6
2026-07-02T1200,1345A,113.2346,23.1423,广州市,广雅中学,,29,25,24,12,13,92,92,24,24,11,31,4,4,0.6,0.7
2026-07-02T1200,1346A,113.2611,23.105,广州市,市五中,,38,23,26,13,15,119,119,35,35,12,23,5,4,/,/
2026-07-02T1200,1348A,113.3477,23.0916,广州市,广东商学院,,31,28,28,14,12,99,99,30,30,12,23,6,5,0.6,0.6
2026-07-02T1200,1349A,113.4332,23.105,广州市,市八十六中,,31,19,22,11,11,99,99,32,32,12,28,7,7,/,/
2026-07-02T1200,1350A,113.3506,22.9488,广州市,番禺中学,,42,42,26,12,11,110,110,34,34,11,18,6,6,0.6,0.6
2026-07-02T1200,1351A,113.2147,23.3918,广州市,花都师范,,30,30,22,13,12,64,64,24,24,13,21,3,3,0.5,0.6
2026-07-02T1200,1352A,113.2599,23.1329,广州市,市监测站,,33,28,26,21,17,105,105,29,29,11,24,4,3,/,/
2026-07-02T1200,1353A,113.5618,23.3119,广州市,九龙镇镇龙,,20,20,19,12,13,61,61,20,20,8,15,6,7,0.6,0.6
2026-07-02T1200,1354A,113.2764,23.1544,广州市,麓湖,,29,22,24,9,15,91,91,25,25,12,21,6,5,0.5,0.5
2026-07-02T1200,2846A,113.3209,23.1323,广州市,体育西,,32,26,22,13,12,100,100,30,30,18,25,6,6,0.5,0.5
2026-07-02T1200,3298A,113.5718,23.5493,广州市,从化街口,,18,18,20,11,12,48,48,16,16,5,12,7,7,0.4,0.5
2026-07-02T1200,3299A,113.3463,23.369,广州市,白云竹料,,19,17,22,10,12,59,59,22,22,8,19,2,2,0.5,0.6
2026-07-02T1200,3300A,113.2981,23.2365,广州市,白云嘉禾,,29,29,25,16,13,81,81,24,24,11,25,14,15,/,/
2026-07-02T1200,3301A,113.4256,23.1716,广州市,黄埔科学城,,28,21,22,14,12,88,88,28,28,7,14,8,8,0.6,0.6
2026-07-02T1200,3302A,113.3942,23.0485,广州市,番禺大学城,颗粒物(PM10),58,60,24,13,10,96,96,34,34,20,24,6,6,0.7,0.5
2026-07-02T1200,3303A,113.4923,22.8169,广州市,南沙黄阁,,28,28,23,12,11,81,81,30,30,10,16,7,7,/,/
2026-07-02T1200,3304A,113.534,22.7893,广州市,南沙街,,25,23,20,7,9,79,79,37,37,8,15,8,8,0.4,0.4
2026-07-02T1200,3443A,113.2905,23.5541,广州市,花都梯面,,17,17,17,7,9,32,32,14,14,4,9,8,8,/,/
2026-07-02T1200,3445A,113.786,23.7479,广州市,从化良口,,15,15,13,7,8,32,32,20,20,5,8,4,4,/,/
2026-07-02T1200,3446A,113.805,23.2614,广州市,增城荔城,,21,17,20,10,10,65,65,25,25,5,10,9,9,0.5,0.5
2026-07-02T1200,2506A,109.604387,23.066791,贵港市,江南子站,,29,29,27,19,16,88,88,33,33,6,13,6,5,0.6,0.7
2026-07-02T1200,2508A,109.5669,23.1065,贵港市,荷城子站,,33,31,24,23,16,85,85,38,38,8,14,8,6,0.7,0.7
2026-07-02T1200,3405A,109.5886,23.1172,贵港市,新世纪学校,,33,27,25,23,15,85,85,36,36,6,12,/,/,0.7,0.7
2026-07-02T1200,4260A,109.5933,23.095,贵港市,中山路155-3号,,43,43,31,25,17,93,93,36,36,6,13,/,/,0.5,0.6
2026-07-02T1200,1439A,106.6863,26.6035,贵阳市,马鞍山,,14,14,13,3,5,40,40,28,28,8,9,8,9,/,/
2026-07-02T1200,1441A,106.6241,26.6266,贵阳市,鉴湖路,,27,27,25,7,8,47,47,36,36,6,8,7,7,0.7,0.8
2026-07-02T1200,1442A,106.7468,26.6344,贵阳市,燕子冲,,24,24,23,6,7,46,46,16,16,11,12,8,8,0.4,0.5
2026-07-02T1200,1443A,106.6556,26.4362,贵阳市,碧云窝,,22,22,27,9,8,52,52,33,33,4,7,7,6,/,/
2026-07-02T1200,1445A,106.6963,26.6063,贵阳市,红边门,,19,19,20,10,9,49,49,26,26,9,12,9,7,/,/
2026-07-02T1200,1446A,106.7162383,26.56964667,贵阳市,新华路,,34,34,30,8,9,50,50,28,28,10,13,34,32,0.4,0.6
2026-07-02T1200,1447A,106.6742,26.542,贵阳市,太慈桥,,19,19,17,11,8,47,47,23,23,6,11,4,3,/,/
2026-07-02T1200,4230A,106.688212,26.56952,贵阳市,花果园大街66号,NA,NA,12,15,NA,10,36,36,30,30,8,12,2,2,/,/
2026-07-02T1200,4231A,106.687268,26.516892,贵阳市,漓江路57号,,15,NA,15,10,8,45,45,20,20,7,13,2,2,0.7,0.8
2026-07-02T1200,1864A,110.3091,25.2705,桂林市,龙隐路小学,,32,32,24,22,12,83,83,27,27,6,6,6,7,0.5,0.5
2026-07-02T1200,1865A,110.2849361,25.22909545,桂林市,八中,,41,41,26,11,9,83,83,30,30,7,8,8,14,0.7,0.7
2026-07-02T1200,3531A,110.296,25.1254,桂林市,旅游学院,,30,30,27,16,14,76,76,28,28,1,5,11,11,0.3,0.3
2026-07-02T1200,4222A,110.1835,25.2444,桂林市,环湖路276号,,36,NA,19,25,15,74,74,28,28,4,11,6,8,0.3,0.5
2026-07-02T1200,4301A,110.2803,25.2773,桂林市,信义路13号,,45,45,24,24,14,81,81,26,26,8,9,7,12,0.6,0.5
2026-07-02T1200,2674A,100.2262,34.4854,果洛藏族自治州,玛沁县大武镇,,36,14,14,6,6,113,113,99,99,1,2,19,19,0.3,0.3
2026-07-02T1200,1130A,126.5557,45.8109,哈尔滨市,松北商大,颗粒物(PM10),54,55,37,25,25,71,71,37,35,24,28,6,6,0.5,0.5
2026-07-02T1200,1132A,126.6162,45.719,哈尔滨市,南岗学府路,,45,45,47,24,24,85,85,40,40,23,36,7,7,0.4,0.4
2026-07-02T1200,1133A,126.6894,45.7733,哈尔滨市,太平宏伟公园,颗粒物(PM10),52,52,41,21,15,78,78,34,33,20,32,11,8,0.3,0.4
2026-07-02T1200,1134A,126.6361,45.7672,哈尔滨市,道外承德广场,,50,50,54,19,18,88,88,43,42,20,33,6,6,0.1,0.1
2026-07-02T1200,1136A,126.644,45.7261,哈尔滨市,动力和平路,,43,43,48,18,15,90,90,36,36,24,39,8,9,0.6,0.5
2026-07-02T1200,1137A,126.5933,45.7479,哈尔滨市,道里建国路,,40,36,46,28,23,100,100,48,48,16,29,6,5,1.1,1.3
2026-07-02T1200,1138A,126.6127,45.6119,哈尔滨市,平房东轻厂,,30,22,27,20,16,95,95,38,38,8,27,8,8,0.8,0.8
2026-07-02T1200,1139A,126.5875,45.9827,哈尔滨市,呼兰师专,颗粒物(PM10),54,55,41,16,17,89,89,37,37,21,27,2,3,0.5,0.5
2026-07-02T1200,1140A,126.6299,45.6799,哈尔滨市,省农科院,颗粒物(PM10),70,77,56,22,20,79,79,26,26,25,49,5,6,0.5,0.5
2026-07-02T1200,4282A,126.6769,45.7379,哈尔滨市,华山路1号,,34,34,37,21,16,92,92,46,46,16,29,4,3,0.1,0.2
2026-07-02T1200,4283A,126.9717,45.5356,哈尔滨市,解放大街52号,,47,47,36,3,7,87,87,56,56,10,24,7,3,0.4,0.5
2026-07-02T1200,2688A,93.5124,42.8176,哈密市,地区监测站,颗粒物(PM10),76,86,48,32,22,128,128,98,98,6,12,2,3,0.4,0.2
2026-07-02T1200,2689A,93.5014,42.8312,哈密市,哈密师范学校,颗粒物(PM10),73,81,54,19,21,105,105,83,79,13,16,9,8,0.1,0.1
2026-07-02T1200,2671A,100.9016,36.9464,海北藏族自治州,海晏县西海镇,NA,NA,20,26,6,13,146,146,81,81,NA,3,6,7,NA,0.4
2026-07-02T1200,3867A,102.074,36.5056,海东市,平安区公安局北苑,细颗粒物(PM2.5),52,NA,28,36,19,120,120,75,75,8,9,17,11,0.7,0.5
2026-07-02T1200,4163A,102.0984,36.5119,海东市,滨河路,,32,13,28,12,16,102,102,50,50,10,19,13,8,0.7,0.6
2026-07-02T1200,1410A,110.3189,20.0596,海口市,海南大学,,22,22,12,14,5,48,48,40,36,2,3,4,4,0.3,0.3
2026-07-02T1200,1411A,110.2827,20.0051,海口市,秀英海南医院,,16,16,10,9,5,50,50,44,41,2,3,5,5,0,0.1
2026-07-02T1200,1412A,110.3391,19.9979,海口市,海南师范大学,,24,24,15,10,5,46,46,38,34,2,3,2,3,0.3,0.3
2026-07-02T1200,1413A,110.3303,20.0359,海口市,龙华路环保局宿舍,,23,23,12,10,6,49,49,42,40,4,3,/,/,0.3,0.2
2026-07-02T1200,3539A,110.5111,19.9737,海口市,桂林洋子站,,18,18,15,8,6,43,43,31,31,4,5,/,/,/,/
2026-07-02T1200,4134A,110.1952,20.0451,海口市,长滨二路9号,NA,NA,22,13,10,4,NA,NA,38,NA,3,3,/,/,/,/
2026-07-02T1200,2673A,100.6158,36.2985,海南藏族自治州,共和县恰卜恰镇,,40,23,18,12,11,125,125,96,96,3,4,10,10,0.4,0.4
2026-07-02T1200,2676A,97.373,37.376,海西蒙古族藏族自治州,德令哈市,,40,16,18,3,8,127,127,117,117,1,2,20,19,0.3,0.3
2026-07-02T1200,1049A,114.492,36.5712,邯郸市,矿院,臭氧1小时(O3_1h),98,31,49,27,38,198,198,117,117,9,10,4,3,0.6,0.7
2026-07-02T1200,1050A,114.4839,36.6136,邯郸市,丛台公园,臭氧1小时(O3_1h),97,39,47,26,36,197,197,129,129,5,10,10,9,0.7,0.7
2026-07-02T1200,3458A,114.7893,36.5592,邯郸市,香泉濮院小区,臭氧1小时(O3_1h),75,38,44,34,38,180,180,123,123,10,16,3,3,0.4,0.2
2026-07-02T1200,3580A,114.1998,36.4439,邯郸市,峰峰矿区临水派出所,臭氧1小时(O3_1h),74,42,43,20,34,179,179,138,126,12,9,7,5,1.3,0.6
2026-07-02T1200,4068A,114.5209,36.7697,邯郸市,建安街268号,臭氧1小时(O3_1h),99,47,60,23,36,199,199,124,124,11,20,4,3,1.1,0.7
2026-07-02T1200,4069A,114.5488,36.6177,邯郸市,丛台东路558号,臭氧1小时(O3_1h),73,49,60,26,37,178,178,102,102,2,12,3,3,0.5,0.6
2026-07-02T1200,2635A,107.0155,33.0707,汉中市,市监测站,,32,27,27,22,16,74,74,96,83,16,8,10,5,0.9,0.4
2026-07-02T1200,2636A,107.0083,33.114,汉中市,鑫源开发区,,30,30,25,15,5,69,69,94,82,15,9,11,7,0.7,0.4
2026-07-02T1200,2637A,107.0072,33.0323,汉中市,南郑大河坎水厂,,33,33,28,17,15,68,68,89,78,18,10,8,3,0.8,0.5
2026-07-02T1200,1223A,120.2073,30.2111,杭州市,滨江,,19,8,14,6,10,58,58,24,24,13,20,5,5,0.4,0.5
2026-07-02T1200,1224A,120.0625,30.2737,杭州市,西溪,,16,14,12,7,6,49,49,21,21,8,13,4,4,0.9,1
2026-07-02T1200,1226A,120.3417,30.315,杭州市,下沙,,23,6,10,3,8,71,71,36,36,8,18,3,3,0.6,0.7
2026-07-02T1200,1227A,120.1252,30.2465,杭州市,卧龙桥,,15,12,11,3,6,48,48,18,18,11,14,4,5,0.5,0.5
2026-07-02T1200,1228A,120.1902,30.2691,杭州市,浙江农大,,16,6,9,3,8,51,51,25,25,15,21,6,6,0.5,0.5
2026-07-02T1200,1230A,120.1195,30.3121,杭州市,和睦小学,,19,10,10,6,8,58,58,27,27,3,10,7,7,0.7,0.7
2026-07-02T1200,1231A,120.3076,30.4146,杭州市,临平镇,,22,8,14,3,7,68,68,33,33,8,20,6,6,0.6,0.7
2026-07-02T1200,1232A,120.2753,30.1839,杭州市,城厢镇,,23,12,13,6,8,71,71,30,30,10,19,4,5,0.9,0.9
2026-07-02T1200,1233A,120.0883,30.1808,杭州市,云栖,,16,10,16,3,6,51,51,16,16,12,17,4,5,0.7,0.8
2026-07-02T1200,3557A,119.9463,30.0496,杭州市,镇二中,,20,19,9,9,8,62,62,25,25,11,16,5,5,0.9,0.9
2026-07-02T1200,3558A,119.7184,30.2367,杭州市,市府大楼,,15,7,5,3,6,47,47,22,22,5,9,7,7,0.7,0.6
2026-07-02T1200,3656A,120.1554,30.2863,杭州市,消防大队,,18,8,10,6,7,57,57,28,28,6,14,7,7,0.8,0.8
2026-07-02T1200,1270A,117.1957,31.7845,合肥市,明珠广场,,37,24,24,8,15,116,116,67,67,3,10,7,8,0.6,0.6
2026-07-02T1200,1271A,117.307,31.8765,合肥市,三里街,,32,22,25,6,16,100,100,58,58,6,13,9,9,0.6,0.7
2026-07-02T1200,1272A,117.2587,31.8703,合肥市,琥珀山庄,,35,22,24,8,15,110,110,71,71,3,8,8,7,0.6,0.6
2026-07-02T1200,1275A,117.2593,31.9376,合肥市,庐阳区,,40,27,24,11,15,128,128,75,75,10,13,7,7,0.7,0.7
2026-07-02T1200,1276A,117.345251,31.861615,合肥市,瑶海区,,32,22,26,6,14,101,101,60,60,6,13,8,8,0.6,0.7
2026-07-02T1200,1277A,117.3033,31.7967,合肥市,包河区,,30,22,20,6,12,94,94,60,60,3,7,8,8,0.7,0.7
2026-07-02T1200,1278A,117.278,31.7392,合肥市,滨湖新区,,30,24,18,7,12,95,95,59,59,4,8,12,11,0.7,0.7
2026-07-02T1200,1279A,117.1324,31.8395,合肥市,高新区,,42,27,27,14,16,134,134,72,72,2,6,7,7,0.6,0.6
2026-07-02T1200,3464A,117.3802,31.9148,合肥市,高教基地,,35,22,22,6,15,111,111,63,63,4,7,5,5,0.5,0.5
2026-07-02T1200,4098A,117.2518,31.8404,合肥市,中国科学技术大学,,38,22,20,7,14,119,119,73,73,4,12,9,9,0.7,0.6
2026-07-02T1200,3614A,79.9241,37.0878,和田地区,地区环保局,颗粒物(PM10),195,339,337,81,89,93,93,44,44,9,20,2,2,0.3,0.3
2026-07-02T1200,3615A,79.9132,37.1137,和田地区,市环保局,颗粒物(PM10),176,301,277,88,79,90,90,60,60,20,24,3,2,0.5,0.4
2026-07-02T1200,2517A,108.0496,24.6957,河池市,市环保站,,33,33,21,10,6,43,43,15,15,4,8,6,4,0.8,0.8
2026-07-02T1200,4302A,108.0901,24.6945,河池市,上任中路54号,,33,33,23,10,8,54,54,23,23,2,11,6,4,0.7,0.7
2026-07-02T1200,1697A,114.6962,23.7538,河源市,东埔,,18,NA,12,12,12,49,49,16,16,4,8,4,4,0.6,0.7
2026-07-02T1200,1698A,114.6895,23.7232,河源市,老城,,17,NA,17,11,8,53,53,21,21,6,8,6,8,0.7,0.7
2026-07-02T1200,3374A,115.5562,35.089,菏泽市,定陶老年大学,NA,NA,NA,45,NA,36,195,195,125,125,NA,11,4,4,0.4,0.4
2026-07-02T1200,4114A,115.4239,35.2593,菏泽市,黄河路600号,臭氧1小时(O3_1h),74,52,47,15,32,179,179,124,124,6,8,5,5,0.4,0.5
2026-07-02T1200,4115A,115.5025,35.2727,菏泽市,菏泽市人社局,臭氧1小时(O3_1h),58,39,40,15,31,166,166,121,121,12,17,6,6,0.4,0.4
2026-07-02T1200,4184A,115.479691,35.244011,菏泽市,永昌路1号,臭氧1小时(O3_1h),90,46,46,13,31,192,192,133,133,6,13,7,7,0.2,0.2
2026-07-02T1200,4193A,115.471542,35.280012,菏泽市,长城路999号,臭氧1小时(O3_1h),78,39,40,14,28,182,182,138,138,6,9,6,5,0.4,0.4
2026-07-02T1200,2514A,111.5264,24.4178,贺州市,环保小区,,15,12,23,3,12,47,47,22,22,5,11,10,4,0.3,0.3
2026-07-02T1200,2515A,111.561,24.4074,贺州市,政协大楼,NA,NA,NA,NA,NA,NA,NA,NA,NA,NA,NA,NA,NA,NA,NA,NA
2026-07-02T1200,3534A,111.4744,24.455,贺州市,西湾,,15,NA,29,3,10,48,48,27,27,4,10,10,10,0.2,0.4
2026-07-02T1200,2385A,114.17,35.9019,鹤壁市,市监测站,臭氧1小时(O3_1h),88,66,54,50,39,190,190,126,126,10,9,8,6,0.6,0.8
2026-07-02T1200,2386A,114.2953,35.7512,鹤壁市,市交警支队,臭氧1小时(O3_1h),90,61,56,52,42,192,192,102,102,13,22,8,8,0.5,0.6
2026-07-02T1200,2387A,114.2877,35.7302,鹤壁市,迎宾馆,臭氧1小时(O3_1h),105,64,56,32,36,210,210,114,114,7,20,12,11,0.7,0.8
2026-07-02T1200,3474A,114.2616,35.6824,鹤壁市,大新区,臭氧1小时(O3_1h),104,75,58,49,38,208,208,106,106,15,22,6,7,0.6,0.7
2026-07-02T1200,3596A,114.1573,35.9607,鹤壁市,南山宾馆,臭氧1小时(O3_1h),89,39,47,35,45,191,191,133,133,8,13,14,13,0.5,0.7
2026-07-02T1200,2244A,130.2537,47.3416,鹤岗市,哈啤分公司,,37,21,23,14,11,117,117,74,74,9,8,4,3,0,0
2026-07-02T1200,2245A,130.2683,47.3087,鹤岗市,斯达机电,,33,12,21,9,10,105,105,67,67,6,7,6,5,0.2,0.2
2026-07-02T1200,2246A,130.3114,47.3388,鹤岗市,东山纸板厂,NA,NA,14,31,3,9,96,96,61,61,9,10,NA,5,0.2,0.2
2026-07-02T1200,2263A,127.4832,50.2524,黑河市,交通局,,32,NA,24,21,15,100,100,78,78,7,12,5,5,0.4,0.5
2026-07-02T1200,2264A,127.5146,50.2339,黑河市,环保局,,34,NA,22,13,15,108,108,87,87,7,9,7,7,0.3,0.3
2026-07-02T1200,1074A,115.6839,37.754,衡水市,电机北厂,臭氧1小时(O3_1h),106,71,54,35,28,211,211,153,153,8,11,4,2,0.4,0.5
2026-07-02T1200,1075A,115.6303,37.7318,衡水市,市监测站,臭氧1小时(O3_1h),105,56,53,33,27,210,210,143,143,7,10,5,7,0.7,0.6
2026-07-02T1200,3188A,115.6684,37.7216,衡水市,市城管局,臭氧1小时(O3_1h),105,62,53,44,30,210,210,155,155,NA,13,2,5,0.5,0.4
2026-07-02T1200,3459A,115.599,37.5491,衡水市,地表水厂,臭氧1小时(O3_1h),108,66,61,41,32,216,216,132,132,9,25,8,8,0.5,0.4
2026-07-02T1200,2457A,112.6209,26.9268,衡阳市,衡阳化工总厂,,48,48,30,20,14,83,83,39,39,3,7,6,5,0.7,0.8
2026-07-02T1200,2458A,112.621,26.8957,衡阳市,珠晖区环保局,,34,34,33,20,13,83,83,39,39,1,10,5,6,0.9,1
2026-07-02T1200,2459A,112.628,26.8654,衡阳市,市委党校,,33,33,25,23,14,85,85,NA,NA,2,5,5,4,0.5,0.6
2026-07-02T1200,2460A,112.6007,26.8977,衡阳市,市监测站,,31,31,23,18,15,88,88,50,50,4,9,8,8,0.7,0.9
2026-07-02T1200,2461A,112.5658,26.9013,衡阳市,真空机电公司,,35,30,21,24,14,89,89,46,46,5,8,6,5,1.2,1
2026-07-02T1200,3399A,112.6703,26.8817,衡阳市,师范学院,,40,40,23,20,13,91,91,41,41,2,5,8,9,0.6,0.8
2026-07-02T1200,3038A,103.3757,23.3679,红河哈尼族彝族自治州,州图书馆,NA,NA,NA,7,9,5,50,50,42,42,3,4,NA,3,0.3,0.3
2026-07-02T1200,4154A,103.401,23.3561,红河哈尼族彝族自治州,蒙自市朝阳路,,15,14,13,3,7,45,45,39,39,2,3,6,6,0.2,0.2
2026-07-02T1200,1090A,111.6506,40.7517,呼和浩特市,呼市一监,,42,34,26,10,14,132,132,76,76,10,16,12,9,0.5,0.6
2026-07-02T1200,1094A,111.7516,40.8369,呼和浩特市,如意水处理厂,,44,37,26,14,16,139,139,82,82,17,21,14,9,0.6,0.6
2026-07-02T1200,1095A,111.727798,40.806187,呼和浩特市,二十九中,,44,30,30,25,19,140,140,80,80,11,19,15,11,0.8,0.8
2026-07-02T1200,1097A,111.717,40.7617,呼和浩特市,化肥厂生活区,,43,35,29,10,20,137,137,79,79,19,24,17,14,0.7,0.8
2026-07-02T1200,3699A,111.6519,40.8389,呼和浩特市,海东办,,49,39,25,3,7,155,155,81,81,15,31,12,9,0.8,0.6
2026-07-02T1200,4275A,111.591512,40.827312,呼和浩特市,成吉思汗西街8号,,46,46,29,16,8,141,141,70,70,22,32,10,6,0.7,0.4
2026-07-02T1200,4276A,111.6597,40.8077,呼和浩特市,公园东路75号,臭氧1小时(O3_1h),55,48,26,3,12,164,164,102,102,18,20,18,13,0.9,0.8
2026-07-02T1200,4277A,111.5427,40.7846,呼和浩特市,金海路35号,,47,47,40,11,12,119,119,68,68,20,28,9,7,0.7,0.6
2026-07-02T1200,3061A,119.7511,49.1576,呼伦贝尔市,国华电力东,,32,24,21,22,14,70,70,62,62,11,10,5,5,0.4,0.3
2026-07-02T1200,4279A,119.7569,49.2222,呼伦贝尔市,伊敏大街东7号,,49,NA,20,34,12,72,72,60,60,9,12,6,7,0.4,0.2
2026-07-02T1200,1250A,120.075,30.867,湖州市,城西水厂,,18,8,13,3,8,57,57,18,18,16,19,4,5,0.7,0.7
2026-07-02T1200,2873A,120.083,30.8929,湖州市,仁皇山新区,,20,6,13,3,11,63,63,25,25,6,18,5,5,0.5,0.6
2026-07-02T1200,2907A,120.1846,30.8592,湖州市,吴兴区站,NA,NA,NA,14,NA,11,84,84,26,26,11,22,5,6,0.4,0.5
2026-07-02T1200,3562A,120.4146,30.8538,湖州市,南浔区站,,22,14,16,3,17,69,69,28,28,3,21,6,6,0.6,0.8
2026-07-02T1200,1607A,120.904878,40.721091,葫芦岛市,龙港区,,45,NA,29,31,24,99,99,92,91,7,6,8,8,0.5,0.5
2026-07-02T1200,1608A,120.8382,40.7521,葫芦岛市,化工街,NA,NA,36,32,NA,22,98,98,87,87,NA,12,7,11,0.4,0.4
2026-07-02T1200,1609A,120.8339,40.7078,葫芦岛市,新区,,35,NA,30,24,23,98,98,89,89,6,6,3,4,0.4,0.4
2026-07-02T1200,1610A,120.8697,40.7679,葫芦岛市,东城区,,40,31,29,28,25,103,103,88,88,8,11,1,2,0.6,0.6
2026-07-02T1200,2483A,109.9297,27.5383,怀化市,河西地税局,,16,16,17,10,9,43,43,25,25,5,10,6,6,/,/
2026-07-02T1200,2484A,109.9783,27.5342,怀化市,市四医院,,43,43,23,14,11,58,58,32,32,9,8,8,8,0.3,0.2
2026-07-02T1200,2485A,109.9971,27.5579,怀化市,监测楼,,37,37,18,23,12,69,69,37,37,9,7,8,10,0.4,0.3
2026-07-02T1200,1210A,119.0566,33.5991,淮安市,钵池山,细颗粒物(PM2.5),56,53,36,38,27,141,141,76,76,10,16,9,7,0.9,0.8
2026-07-02T1200,1211A,119.0083,33.578,淮安市,北京南路,颗粒物(PM10),56,58,35,31,27,144,144,77,77,7,14,9,7,1.3,0.9
2026-07-02T1200,1212A,118.9938,33.6083,淮安市,市监测站,,49,41,24,34,27,141,141,79,79,14,16,8,7,1.1,0.9
2026-07-02T1200,1213A,119.135,33.5038,淮安市,楚州区监测站,,45,37,24,31,27,142,142,69,69,4,17,6,6,0.8,0.7
2026-07-02T1200,3426A,118.8757,33.2897,淮安市,新华书店,,40,35,28,18,17,128,128,79,79,7,12,9,8,0.9,0.9
2026-07-02T1200,4092A,119.119691,33.550006,淮安市,枚皋中路89号,颗粒物(PM10),53,54,28,28,19,139,139,70,70,11,14,8,8,1.0,0.9
2026-07-02T1200,4206A,119.028838,33.631911,淮安市,承德北路606号,,46,46,41,30,28,134,134,66,66,4,12,8,7,1.0,0.9
2026-07-02T1200,2282A,116.8005,33.9749,淮北市,监测站,臭氧1小时(O3_1h),52,33,41,21,28,161,161,84,84,7,14,6,7,0.4,0.5
2026-07-02T1200,2283A,116.8094,33.9008,淮北市,烈山区政府,臭氧1小时(O3_1h),59,38,51,6,32,167,167,80,80,4,16,4,4,0.5,0.6
2026-07-02T1200,4017A,116.7926,33.9534,淮北市,市博物馆,臭氧1小时(O3_1h),58,33,38,19,28,166,166,88,88,5,11,4,4,0.5,0.6
2026-07-02T1200,4100A,116.8322,33.9884,淮北市,杜集区第一实验学校,,49,48,55,9,29,156,156,76,76,7,13,7,7,0.7,0.7
2026-07-02T1200,2277A,116.8304,32.7726,淮南市,潘集区政府,,40,26,35,13,19,128,128,84,84,5,10,7,7,0.2,0.3
2026-07-02T1200,2279A,116.8569,32.5949,淮南市,谢家集区政府,,39,17,25,11,19,123,123,84,84,5,12,7,7,0.2,0.2
2026-07-02T1200,2280A,116.8279,32.6333,淮南市,八公山区政府,,41,31,29,11,17,129,129,97,97,6,6,7,7,0.2,0.2
2026-07-02T1200,2894A,117.0561,32.6536,淮南市,经济技术开发区消防队,,41,21,24,12,19,129,129,95,95,6,9,8,8,0.5,0.5
2026-07-02T1200,3329A,117.011,32.5891,淮南市,山南新区,,39,24,28,10,21,123,123,82,82,4,10,10,10,0.4,0.4
2026-07-02T1200,4209A,117.003137,32.644456,淮南市,国庆中路369号,,37,34,34,10,19,116,116,77,77,10,13,6,7,0.3,0.3
2026-07-02T1200,2446A,114.9021,30.474,黄冈市,职工中心,,24,14,17,6,9,75,75,54,54,13,11,12,9,0.8,0.5
2026-07-02T1200,2929A,114.8858,30.4519,黄冈市,红卫路,,21,10,13,9,10,67,67,52,52,11,9,6,6,0.7,0.5
2026-07-02T1200,3398A,114.9134,30.4446,黄冈市,市林业局,,23,8,17,3,10,71,71,58,58,8,12,4,4,0.5,0.5
2026-07-02T1200,2672A,102.02,35.5101,黄南藏族自治州,同仁县隆务镇,,43,21,24,9,10,135,135,88,88,1,2,11,10,0.2,0.2
2026-07-02T1200,2295A,118.2905,29.6965,黄山市,延安路89号,,20,8,11,3,5,64,64,32,32,2,5,6,6,0.4,0.5
2026-07-02T1200,2297A,118.1369,30.2755,黄山市,黄山区政府5号楼,,15,6,14,3,3,45,45,20,20,2,2,3,3,0.5,0.5
2026-07-02T1200,4210A,118.335445,29.720283,黄山市,滨江东路7-2号,,20,20,17,3,2,56,56,26,26,2,4,/,/,/,/
2026-07-02T1200,2423A,115.0547,30.2332,黄石市,沈家营,,22,22,33,3,8,46,46,21,21,16,17,5,5,0.4,0.4
2026-07-02T1200,2426A,114.899,30.211,黄石市,铁山,,42,17,24,6,9,132,132,46,46,7,9,4,4,0.4,0.4
2026-07-02T1200,2427A,115.0259,30.2108,黄石市,团城山,,15,13,24,3,7,47,47,25,25,9,8,4,4,0.8,0.7
2026-07-02T1200,3149A,115.0174,30.1591,黄石市,笔架山北路,,18,18,34,3,8,44,44,21,21,5,9,4,4,0.4,0.5
2026-07-02T1200,4185A,115.078022,30.21118,黄石市,磁湖东路29号,,19,19,32,10,9,45,45,20,20,19,20,4,5,0.9,1
2026-07-02T1200,1392A,114.4181,23.0528,惠州市,河南岸金山湖子站,,19,18,20,8,9,58,58,23,23,4,7,7,9,0.4,0.5
2026-07-02T1200,1393A,114.4055,23.0824,惠州市,下埔横江三路子站,,21,17,24,7,9,65,65,27,27,2,6,6,9,0.5,0.5
2026-07-02T1200,1395A,114.4645,22.7832,惠州市,惠阳区承修路船湖子站,,20,19,20,8,8,62,62,35,35,2,4,5,4,0.6,0.6
2026-07-02T1200,1396A,114.5316,22.7423,惠州市,大亚湾管委会子站,,20,16,21,10,11,61,61,31,31,6,11,8,7,0.3,0.3
2026-07-02T1200,3314A,114.4334,22.8134,惠州市,惠阳秋长,,21,12,16,6,7,66,66,34,34,3,7,/,/,/,/
2026-07-02T1200,3452A,114.6521,22.7755,惠州市,大亚湾霞涌,NA,NA,NA,16,NA,7,53,53,31,31,NA,4,/,/,/,/
2026-07-02T1200,4300A,114.4089,23.1147,惠州市,文华一路1号,,20,15,19,9,9,61,61,26,26,3,5,/,/,/,/
2026-07-02T1200,2240A,130.9618,45.2926,鸡西市,环保局,,25,19,25,13,18,79,79,48,48,8,12,10,10,0.3,0.3
2026-07-02T1200,2243A,130.9294,45.2959,鸡西市,第一中学,,22,22,27,14,18,67,67,42,42,4,14,8,9,0.3,0.3
2026-07-02T1200,3707A,131.0069,45.2988,鸡西市,欧美日汽修厂,,34,34,34,18,15,69,69,38,38,6,15,6,6,0.2,0.3
2026-07-02T1200,2367A,114.9753,27.0803,吉安市,红声器材厂,,33,33,25,6,5,73,73,33,33,6,9,7,7,0.5,0.3
2026-07-02T1200,2369A,114.9903,27.1313,吉安市,市环境监测站,,26,26,23,9,6,69,69,34,34,5,6,11,12,/,/
2026-07-02T1200,2370A,115.009527,27.096792,吉安市,青原区法院,,24,24,24,9,6,63,63,34,34,3,8,7,8,0.3,0.2
2026-07-02T1200,1772A,126.54,43.8622,吉林市,哈达湾,,27,11,26,6,18,85,85,69,69,18,20,5,6,0.5,0.5
2026-07-02T1200,1773A,126.5843,43.8358,吉林市,东局子,,26,14,26,6,17,83,83,63,63,10,13,3,4,0.2,0.5
2026-07-02T1200,1774A,126.5051,43.8243,吉林市,电力学院,,24,10,32,10,21,74,74,58,58,18,15,6,5,1.0,0.9
2026-07-02T1200,1775A,126.6133,43.8971,吉林市,江北,NA,NA,18,28,8,24,80,80,56,56,7,14,NA,7,0.6,0.6
2026-07-02T1200,1776A,126.5549,43.8304,吉林市,江南公园,,27,9,21,6,17,86,86,62,62,9,13,4,5,0.0,0.1
2026-07-02T1200,2868A,126.4737,43.953,吉林市,九站,,30,13,31,8,19,96,96,74,74,11,17,1,5,0.2,0.3
2026-07-02T1200,1299A,116.9866,36.6118,济南市,科干所,臭氧1小时(O3_1h),75,29,29,9,18,180,180,177,177,12,13,5,5,0.6,0.7
2026-07-02T1200,1300A,116.9379,36.6652,济南市,农科所,臭氧1小时(O3_1h),64,29,31,9,19,171,171,117,117,7,12,4,3,0.3,0.3
2026-07-02T1200,1301A,117.1265,36.6736,济南市,开发区,,47,20,31,7,19,150,150,129,129,3,11,5,6,0.5,0.7
2026-07-02T1200,1303A,117.0616,36.6865,济南市,省种子仓库,臭氧1小时(O3_1h),70,29,37,8,19,176,176,132,132,4,19,5,5,0.4,0.6
2026-07-02T1200,1304A,116.9495185,36.644937,济南市,机床二厂,臭氧1小时(O3_1h),64,32,32,10,20,171,171,123,123,6,16,5,5,0.4,0.4
2026-07-02T1200,1305A,117.0496,36.6629,济南市,市监测站,臭氧1小时(O3_1h),65,24,34,10,18,172,172,139,139,8,16,3,3,0.4,0.5
2026-07-02T1200,1306A,116.7674,36.5458,济南市,长清党校,臭氧1小时(O3_1h),74,37,29,8,15,179,179,130,130,6,11,4,4,0.4,0.4
2026-07-02T1200,1961A,117.5323,36.6865,济南市,东山小学,臭氧1小时(O3_1h),64,32,37,9,19,171,171,140,140,7,16,4,4,0.2,0.3
2026-07-02T1200,3059A,117.7181,36.205,济南市,泰兴公司,臭氧1小时(O3_1h),95,46,39,22,22,196,196,84,84,7,28,15,9,0.4,0.5
2026-07-02T1200,3064A,117.6861,36.2172,济南市,莱芜战役纪念馆,臭氧1小时(O3_1h),98,46,42,19,22,198,198,99,99,11,24,14,13,0.3,0.6
2026-07-02T1200,3494A,117.1673,36.9782,济南市,济阳区政府,NA,NA,42,46,10,22,198,198,120,120,12,19,4,3,NA,0.3
2026-07-02T1200,3495A,117.1168,36.6299,济南市,锦屏中学,,45,24,29,7,16,141,141,112,112,6,7,8,8,0.2,0.3
2026-07-02T1200,4108A,117.7107,36.2385,济南市,山财大街5号,臭氧1小时(O3_1h),103,39,34,18,25,205,205,114,114,13,27,11,10,0.8,0.9
2026-07-02T1200,4109A,116.9744,36.6889,济南市,无影山路12号,臭氧1小时(O3_1h),68,17,31,10,21,174,174,133,133,7,16,2,2,0.4,0.5
2026-07-02T1200,1653A,116.6229,35.4288,济宁市,火炬城,,50,28,44,9,23,160,160,94,94,5,9,5,3,0.6,0.6
2026-07-02T1200,3500A,116.5808,35.3703,济宁市,北湖一中,臭氧1小时(O3_1h),75,42,44,25,29,180,180,106,106,5,10,6,5,0.6,0.5
2026-07-02T1200,3501A,116.8251,35.5592,济宁市,服务中心,臭氧1小时(O3_1h),87,47,38,8,32,189,189,98,98,5,14,3,2,0.6,0.6
2026-07-02T1200,3678A,116.5907,35.4054,济宁市,市第七中学,臭氧1小时(O3_1h),78,38,47,14,26,182,182,105,105,3,12,4,4,0.4,0.5
2026-07-02T1200,4111A,116.6075,35.4566,济宁市,任和路,臭氧1小时(O3_1h),92,49,41,16,26,193,193,107,107,6,14,4,3,0.6,0.7
2026-07-02T1200,4112A,116.5648,35.3921,济宁市,文体南路1号,臭氧1小时(O3_1h),59,52,40,3,18,167,167,93,93,2,7,5,3,0.8,0.8
2026-07-02T1200,4122A,112.6071,35.1015,济源市,市委党校,臭氧1小时(O3_1h),95,79,61,39,25,196,196,118,118,23,19,21,16,2.0,0.9
2026-07-02T1200,4123A,112.596,35.0702,济源市,沁园中路1号,臭氧1小时(O3_1h),108,55,48,32,23,215,215,130,130,20,23,14,9,1.6,1.2
2026-07-02T1200,2255A,130.2749,46.8028,佳木斯市,佳纺,,45,45,31,18,15,112,112,53,53,12,13,3,3,0.3,0.2
2026-07-02T1200,2257A,130.3258,46.7975,佳木斯市,环保局,NA,NA,39,32,14,16,103,103,53,53,NA,19,NA,4,0.3,0.3
2026-07-02T1200,4285A,130.363,46.806,佳木斯市,顺和街,,32,26,26,18,14,100,100,50,50,11,14,3,2,0.3,0.3
2026-07-02T1200,4286A,130.3952,46.8268,佳木斯市,长安路196号,,41,41,41,14,14,108,108,51,51,13,18,6,7,0.2,0.2
2026-07-02T1200,1252A,120.7439,30.778,嘉兴市,清河小学,,25,9,20,3,14,78,78,31,31,7,20,6,5,0.7,0.8
2026-07-02T1200,1253A,120.7261,30.7477,嘉兴市,嘉兴学院,,27,6,9,3,16,86,86,30,30,4,23,4,4,0.4,0.5
2026-07-02T1200,2872A,120.7845,30.7524,嘉兴市,南湖区残联,,28,NA,16,3,14,88,88,38,38,4,18,6,6,0.7,0.8
2026-07-02T1200,3407A,120.6915,30.7741,嘉兴市,秀洲住建,,24,8,17,3,12,74,74,31,31,9,21,6,6,0.7,0.8
2026-07-02T1200,1945A,98.291,39.7705,嘉峪关市,气象局,颗粒物(PM10),53,53,240,14,65,119,119,73,73,10,15,12,11,0.6,0.6
2026-07-02T1200,2884A,98.2672,39.7978,嘉峪关市,酒钢宾馆,细颗粒物(PM2.5),115,NA,274,76,64,116,116,82,82,12,15,22,14,1.2,0.5
2026-07-02T1200,3248A,98.2644,39.7723,嘉峪关市,雄关区,,47,47,206,12,59,121,121,73,73,8,14,10,8,0.2,0.1
2026-07-02T1200,1383A,113.1063,22.6058,江门市,北街,,20,20,22,6,10,63,63,25,25,7,14,/,/,/,/
2026-07-02T1200,1384A,113.073,22.5835,江门市,西区,,22,14,19,6,10,69,69,24,24,8,15,/,/,/,/
2026-07-02T1200,1385A,113.0218,22.531,江门市,圭峰西,,22,22,22,6,9,68,68,NA,NA,6,12,/,/,/,/
2026-07-02T1200,1386A,113.0826,22.5947,江门市,东湖,,22,14,18,3,8,68,68,24,24,8,15,8,7,0.3,0.3
2026-07-02T1200,3311A,113.1077,22.5647,江门市,江海富民,,28,28,32,6,10,69,69,25,25,9,15,/,/,0.3,0.7
2026-07-02T1200,3449A,113.0496,22.4669,江门市,新会银湖,,21,11,18,6,8,66,66,23,23,8,14,1,1,0.6,0.6
2026-07-02T1200,3335A,113.3137,35.2643,焦作市,马村街道办,臭氧1小时(O3_1h),77,44,42,34,28,181,181,114,114,11,10,10,9,0.5,0.5
2026-07-02T1200,3336A,113.2464,35.2374,焦作市,焦作技师学院,臭氧1小时(O3_1h),84,48,36,38,26,187,187,133,133,12,9,13,9,0.8,0.7
2026-07-02T1200,3477A,113.1656,35.2536,焦作市,中站许衡医院,细颗粒物(PM2.5),64,52,39,42,27,164,164,127,127,15,11,20,10,0.7,0.6
2026-07-02T1200,3981A,113.2456,35.18,焦作市,原李万街道办,臭氧1小时(O3_1h),90,40,48,31,27,192,192,110,110,6,12,11,9,0.7,0.6
2026-07-02T1200,4264A,113.234,35.219,焦作市,新安路1731号,臭氧1小时(O3_1h),102,44,38,39,27,203,203,141,141,6,4,15,11,0.7,0.6
2026-07-02T1200,4295A,113.2722,35.2121,焦作市,人民路3066号,臭氧1小时(O3_1h),102,54,42,33,29,204,204,136,136,13,14,7,6,0.8,0.8
2026-07-02T1200,1708A,116.3701,23.5345,揭阳市,新兴,NA,NA,NA,29,6,8,33,33,21,21,8,10,5,6,0.3,0.3
2026-07-02T1200,1709A,116.3261,23.5442,揭阳市,西马,,14,14,26,3,7,36,36,22,22,6,6,4,6,0.5,0.5
2026-07-02T1200,1710A,116.361,23.5627,揭阳市,东兴,,22,22,21,3,8,33,33,20,20,6,7,3,3,/,/
2026-07-02T1200,1711A,116.4151,23.5295,揭阳市,渔湖,NA,NA,NA,27,6,8,32,32,18,18,7,7,2,2,/,/
2026-07-02T1200,3320A,116.4028,23.5699,揭阳市,曲溪,,11,6,16,3,4,34,34,22,22,4,6,4,6,0.3,0.3
2026-07-02T1200,1944A,102.1691,38.5166,金昌市,天庆家园,NA,NA,51,42,10,16,140,140,77,77,14,23,42,23,NA,1.1
2026-07-02T1200,4022A,102.1648,38.5369,金昌市,金川区人防中心,,45,36,37,12,16,144,144,84,84,6,14,18,15,0.3,0.3
2026-07-02T1200,4239A,102.193042,38.531887,金昌市,长春路96号,,44,34,40,14,17,138,138,80,80,3,16,13,20,0.3,0.4
2026-07-02T1200,1262A,119.6478,29.0773,金华市,十五中,,15,15,12,8,7,38,38,28,28,15,12,1,1,0.6,0.5
2026-07-02T1200,1263A,119.6859,29.1032,金华市,监测站,,15,15,12,8,5,31,31,23,23,20,14,3,4,0.6,0.5
2026-07-02T1200,3659A,119.656,29.1132,金华市,气象局,,17,17,11,10,6,28,28,33,31,23,12,3,3,0.5,0.5
2026-07-02T1200,1767A,121.1114,41.0879,锦州市,南山,细颗粒物(PM2.5),62,NA,34,41,29,90,90,72,72,9,12,4,4,0.4,0.4
2026-07-02T1200,1768A,121.060361,40.842794,锦州市,开发区,,50,50,39,30,27,100,100,87,87,8,13,6,6,0.4,0.4
2026-07-02T1200,1769A,121.1836,41.1118,锦州市,百股街道,NA,NA,76,33,32,29,102,102,88,88,10,9,NA,4,0.3,0.3
2026-07-02T1200,1770A,121.1176,41.1224,锦州市,天安街道,细颗粒物(PM2.5),64,NA,38,42,32,99,99,81,81,11,13,5,5,0.7,0.6
2026-07-02T1200,1771A,121.1303,41.1385,锦州市,北湖公园,细颗粒物(PM2.5),62,42,39,41,31,95,95,81,81,8,9,2,2,0.3,0.3
2026-07-02T1200,2160A,112.8496,35.5051,晋城市,自来水公司,臭氧1小时(O3_1h),67,41,34,16,14,173,173,114,114,13,12,6,6,0.8,0.7
2026-07-02T1200,2162A,112.8509,35.4886,晋城市,市环保局,臭氧1小时(O3_1h),57,36,37,23,20,165,165,102,102,13,13,7,7,0.8,0.7
2026-07-02T1200,3620A,112.8258,35.4804,晋城市,泽州一中,臭氧1小时(O3_1h),57,46,39,21,20,165,165,115,115,23,16,5,5,0.9,0.7
2026-07-02T1200,4078A,112.8246,35.5152,晋城市,前书院路,NA,NA,46,40,28,17,162,162,96,96,12,10,NA,5,NA,0.7
2026-07-02T1200,4079A,112.8864,35.4773,晋城市,祥云街666号,细颗粒物(PM2.5),52,NA,34,36,22,146,146,94,94,15,12,4,4,0.7,0.7
2026-07-02T1200,2174A,112.6992,37.6984,晋中市,榆次区政府,臭氧1小时(O3_1h),78,58,55,37,36,182,182,92,92,10,17,21,16,1.0,1
2026-07-02T1200,2865A,112.7195,37.683,晋中市,榆次三中,细颗粒物(PM2.5),66,63,51,43,37,158,158,78,78,10,18,20,13,1.0,0.7
2026-07-02T1200,4080A,112.7375,37.7215,晋中市,广安街188号,臭氧1小时(O3_1h),73,54,60,30,35,178,178,84,84,10,20,20,14,0.6,0.6
2026-07-02T1200,4200A,112.7478,37.6954,晋中市,迎宾街26号,臭氧1小时(O3_1h),67,53,53,34,32,173,173,93,93,13,18,21,13,1.1,0.7
2026-07-02T1200,2439A,112.2012,31.048,荆门市,竹园小学,,27,27,22,12,16,60,60,50,48,10,11,4,4,0.7,0.7
2026-07-02T1200,2440A,112.1968,30.9892,荆门市,掇刀,,20,20,19,11,12,55,55,49,44,6,7,8,10,0.7,0.6
2026-07-02T1200,3012A,112.1849,31.0361,荆门市,西山林语,,18,18,23,12,14,54,54,45,42,5,6,8,9,0.5,0.5
2026-07-02T1200,3547A,112.1631,31.0134,荆门市,龙泉中学南校,,20,20,17,6,9,58,58,48,47,6,7,6,6,0.9,0.9
2026-07-02T1200,4124A,112.2213,31.0654,荆门市,新台西路6号,,20,20,23,12,15,62,62,49,44,6,6,6,5,1.0,1
2026-07-02T1200,1844A,112.2493,30.3198,荆州市,市图书馆,NA,NA,NA,11,NA,8,43,43,34,34,4,6,4,5,NA,0.6
2026-07-02T1200,1845A,112.2009,30.3543,荆州市,市委党校,,17,17,13,3,8,37,37,33,33,1,2,4,5,0.5,0.5
2026-07-02T1200,3194A,112.2749,30.3124,荆州市,管委会,,11,NA,16,7,10,35,35,34,33,5,7,8,8,0.5,0.5
2026-07-02T1200,4268A,112.1722,30.3366,荆州市,学苑路85号,,20,20,18,6,9,41,41,31,31,4,8,3,4,0.2,0.2
2026-07-02T1200,2343A,117.2114,29.2931,景德镇市,老干部活动中心,,17,10,8,7,6,52,52,32,32,3,8,4,5,0.6,0.7
2026-07-02T1200,2344A,117.1893,29.2789,景德镇市,兽医站,NA,NA,18,19,3,6,52,52,32,32,NA,6,4,4,0.4,0.5
2026-07-02T1200,2346A,117.246,29.2958,景德镇市,陶研所,,15,7,8,6,3,48,48,30,30,2,5,5,4,0.7,0.8
2026-07-02T1200,4289A,117.154766,29.256967,景德镇市,青少年活动中心,,20,NA,14,14,9,46,46,24,24,3,16,6,11,/,/
2026-07-02T1200,1803A,115.9873,29.6816,九江市,十里,,20,11,12,3,6,62,62,33,33,12,19,3,3,0.6,0.6
2026-07-02T1200,1804A,115.9583,29.7047,九江市,茅山头,,22,22,12,3,5,51,51,22,22,13,19,5,4,0.5,0.5
2026-07-02T1200,1805A,115.9877,29.7295,九江市,西园,,19,19,14,11,5,39,39,22,22,32,22,4,4,0.4,0.4
2026-07-02T1200,1808A,115.9112,29.6038,九江市,综合工业园,,19,6,6,3,3,60,60,35,35,8,14,3,2,0.4,0.3
2026-07-02T1200,3190A,116.0254,29.6995,九江市,外国语学校,,18,9,12,3,4,55,55,37,37,5,14,6,7,0.6,0.7
2026-07-02T1200,4253A,116.010205,29.659402,九江市,莲花大道8号,,17,6,7,3,3,53,53,37,37,5,8,4,4,0.6,0.7
2026-07-02T1200,4240A,98.495752,39.733935,酒泉市,玉门东路5号,,36,36,244,17,61,109,109,66,66,5,13,6,7,0.3,0.3
2026-07-02T1200,4241A,98.5099,39.7506,酒泉市,北大街108号,,41,41,228,14,62,114,114,65,65,7,12,14,11,0.3,0.3
2026-07-02T1200,2698A,76.0071,39.466,喀什地区,巡警大队,颗粒物(PM10),145,237,269,73,105,90,90,70,61,24,23,4,4,0.2,0.2
2026-07-02T1200,2699A,75.9756,39.4693,喀什地区,吾办,颗粒物(PM10),134,208,242,NA,79,82,82,82,64,NA,13,NA,5,0.4,0.4
2026-07-02T1200,4027A,75.9485,39.4688,喀什地区,老干局,颗粒物(PM10),283,408,269,82,82,48,48,84,53,30,16,5,4,0.5,0.3
2026-07-02T1200,1824A,114.3389,34.778,开封市,肿瘤医院,臭氧1小时(O3_1h),57,45,63,24,42,165,165,104,104,14,19,8,8,0.6,0.3
2026-07-02T1200,1826A,114.2884,34.7966,开封市,世纪星幼儿园,臭氧1小时(O3_1h),111,50,57,31,39,221,221,166,166,12,16,6,6,0.6,0.6
2026-07-02T1200,3147A,114.3434,34.8101,开封市,龙亭公园,臭氧1小时(O3_1h),68,52,58,21,33,174,174,123,123,12,21,5,5,0.5,0.5
2026-07-02T1200,3210A,114.3645,34.7955,开封市,汴京公园,"颗粒物(PM10),臭氧1小时(O3_1h)",58,60,69,34,40,166,166,109,109,11,15,8,8,0.7,0.8
2026-07-02T1200,3473A,114.2485,34.8306,开封市,技师学院,臭氧1小时(O3_1h),68,54,58,29,33,174,174,120,120,7,11,5,5,0.9,0.9
2026-07-02T1200,3592A,114.4518,34.7503,开封市,祥符区生态环境局,臭氧1小时(O3_1h),57,40,61,30,47,165,165,94,94,13,33,10,11,0.5,0.6
2026-07-02T1200,1951A,84.886,45.6029,克拉玛依市,长征新村,,37,34,20,10,12,116,116,118,109,6,5,3,4,1.0,0.7
2026-07-02T1200,1952A,84.8894,45.5827,克拉玛依市,南林小区,,36,36,22,3,2,105,105,110,92,5,5,5,5,0.1,0.1
2026-07-02T1200,1954A,84.896,44.3328,克拉玛依市,独山子区,,43,19,27,3,5,137,137,119,115,6,4,6,6,0.3,0.3
2026-07-02T1200,1955A,85.6888,46.0909,克拉玛依市,乌尔禾区商贸楼,,30,20,24,12,15,96,96,108,100,6,5,6,7,0.0,0
2026-07-02T1200,3612A,85.1045,45.6895,克拉玛依市,白碱滩区新站,,39,17,30,10,7,122,122,129,121,3,3,8,8,0.1,0.1
2026-07-02T1200,2697A,76.1457,39.7143,克孜勒苏柯尔克孜自治州,市人民政府,颗粒物(PM10),135,211,202,70,70,84,84,99,85,18,8,6,6,0.1,0
2026-07-02T1200,3665A,76.1654,39.7157,克孜勒苏柯尔克孜自治州,克州文化中心,颗粒物(PM10),135,211,215,73,79,104,104,102,93,12,7,8,8,0.2,0.2
2026-07-02T1200,1450A,102.8203,24.889,昆明市,呈贡新区,NA,NA,17,10,16,6,65,65,35,35,7,12,NA,4,0.8,0.8
2026-07-02T1200,1452A,102.7253,25.0904,昆明市,龙泉镇,,18,17,15,12,6,47,47,25,25,17,13,5,5,0.4,0.4
2026-07-02T1200,1453A,102.7267,25.0378,昆明市,东风东路,,25,25,13,3,8,52,52,40,40,20,19,2,2,0.6,0.4
2026-07-02T1200,1454A,102.6744,25.0671,昆明市,金鼎山,,23,23,16,7,8,61,61,39,39,12,17,3,3,0.4,0.4
2026-07-02T1200,1455A,102.6643,25.0401,昆明市,碧鸡广场,,18,11,12,10,8,57,57,40,40,10,17,2,2,0.6,0.6
2026-07-02T1200,3179A,102.7491,25.012,昆明市,官渡区博物馆,,23,23,15,3,7,51,51,29,29,17,21,3,3,0.4,0.5
2026-07-02T1200,3375A,102.8016,24.8336,昆明市,青年创业园,,20,NA,9,3,8,63,63,33,33,4,13,3,3,0.2,0.4
2026-07-02T1200,3550A,102.8,24.9787,昆明市,昆明学院,,18,17,14,3,4,55,55,41,41,15,13,6,6,0.4,0.4
2026-07-02T1200,3551A,102.5969,24.6738,昆明市,晋宁区生态环境分局,,19,10,12,3,7,59,59,39,39,7,10,5,5,0.5,0.6
2026-07-02T1200,3552A,102.6673,24.9861,昆明市,云天化总部,NA,NA,9,11,3,5,61,61,38,38,6,14,NA,4,0.3,0.4
2026-07-02T1200,1456A,91.132,29.6515,拉萨市,八廓街,,49,24,13,14,7,154,154,123,122,7,8,9,6,0.2,0.2
2026-07-02T1200,1457A,91.1221,29.6748,拉萨市,市环保局,,44,14,14,7,5,140,140,118,110,15,12,9,6,0.3,0.3
2026-07-02T1200,1458A,91.0874,29.6476,拉萨市,区监测站,,48,10,11,3,6,151,151,124,122,9,10,8,6,0.1,0.3
2026-07-02T1200,1459A,91.1774,29.6541,拉萨市,西藏大学,,48,12,13,3,7,151,151,120,120,9,9,9,6,0.3,0.2
2026-07-02T1200,1460A,90.9798,29.6586,拉萨市,区辐射站,,46,13,15,6,6,145,145,114,109,14,13,7,7,0.2,0.2
2026-07-02T1200,1461A,91.0831,29.6292,拉萨市,拉萨火车站,,48,8,11,3,6,153,153,129,117,6,8,6,5,0.2,0.2
2026-07-02T1200,2520A,109.2203,23.7252,来宾市,来宾技工学校,,26,21,20,11,10,83,83,44,44,4,8,9,11,0.6,0.6
2026-07-02T1200,3535A,109.1781,23.7293,来宾市,兴宾区政府,,28,18,18,8,7,89,89,43,43,5,5,6,6,0.6,0.6
2026-07-02T1200,4002A,109.2312,23.7428,来宾市,中南小学,,27,27,16,12,7,82,82,50,50,4,7,5,5,0.6,0.6
2026-07-02T1200,1479A,103.8309,36.0467,兰州市,铁路设计院,NA,NA,NA,40,NA,17,152,152,120,120,16,13,NA,7,0.6,0.6
2026-07-02T1200,3241A,103.7439,36.0841,兰州市,百合公园,,46,27,41,6,14,145,145,98,98,4,12,10,7,0.6,0.5
2026-07-02T1200,3242A,103.9613,35.9985,兰州市,和平,,48,18,30,3,15,153,153,110,110,4,7,13,13,0.3,0.3
2026-07-02T1200,4236A,103.629272,36.093822,兰州市,庄浪东路808号,,50,32,37,15,14,160,160,127,127,10,9,9,10,0.3,0.3
2026-07-02T1200,4237A,103.7251,36.104344,兰州市,安宁西路88号,臭氧1小时(O3_1h),65,21,44,8,16,172,172,123,123,6,9,8,10,0.3,0.3
2026-07-02T1200,4238A,103.846982,36.067567,兰州市,北滨河东路1号,,48,19,36,6,13,153,153,104,104,10,15,12,13,0.3,0.4
2026-07-02T1200,1067A,116.6712,39.5109,廊坊市,药材公司,臭氧1小时(O3_1h),78,56,47,42,35,182,182,111,111,5,11,3,3,0.5,0.5
2026-07-02T1200,1068A,116.7215,39.5592,廊坊市,开发区,臭氧1小时(O3_1h),103,62,43,33,28,206,206,122,122,5,8,3,3,0.6,0.5
2026-07-02T1200,1070A,116.7246,39.5273,廊坊市,北华航天学院,臭氧1小时(O3_1h),100,58,40,26,28,200,200,124,124,7,11,3,3,0.4,0.4
2026-07-02T1200,2919A,116.7022,39.5454,廊坊市,河北工业大学,臭氧1小时(O3_1h),95,54,39,38,30,196,196,130,130,5,14,1,3,0.6,0.5
2026-07-02T1200,2536A,103.7629,29.5844,乐山市,牛耳桥,,30,22,40,11,26,94,94,58,58,5,14,5,5,0.7,0.8
2026-07-02T1200,2537A,103.7501,29.6002,乐山市,市第三水厂,,28,25,36,16,27,89,89,53,53,8,18,4,4,0.8,0.9
2026-07-02T1200,2538A,103.7571,29.5664,乐山市,市监测站,NA,NA,NA,36,NA,24,92,92,56,56,5,12,2,2,0.8,0.9
2026-07-02T1200,3361A,103.7313,29.563,乐山市,理工大学,,32,21,30,11,21,100,100,55,55,4,10,3,4,0.6,0.6
2026-07-02T1200,2599A,100.2497,26.8802,丽江市,丽江古城,,16,13,20,6,9,49,49,50,50,15,12,7,8,0.7,0.7
2026-07-02T1200,2600A,100.2203,26.8906,丽江市,市中心,,16,7,15,3,11,50,50,46,46,11,10,7,7,0.6,0.6
2026-07-02T1200,1267A,119.9141,28.4513,丽水市,监测站大楼,,24,18,14,9,3,75,75,31,31,6,8,4,4,0.4,0.4
2026-07-02T1200,1268A,119.93,28.4589,丽水市,莲都小学,,28,28,15,9,2,80,80,31,31,4,7,/,/,/,/
2026-07-02T1200,1269A,119.8794,28.4232,丽水市,余庄前,,25,16,13,9,3,79,79,27,27,6,8,6,7,0.5,0.5
2026-07-02T1200,1173A,119.1759,34.5885,连云港市,市环境监测站,细颗粒物(PM2.5),62,NA,20,41,21,156,156,85,85,7,8,7,7,0.6,0.5
2026-07-02T1200,3000A,119.3577,34.6971,连云港市,德源药业,,42,41,25,29,14,122,122,70,70,15,15,7,6,0.3,0.3
2026-07-02T1200,3007A,119.178,34.8442,连云港市,新城一中,颗粒物(PM10),69,76,26,23,15,124,124,62,62,15,23,4,3,0.6,0.5
2026-07-02T1200,3008A,119.3607,34.7519,连云港市,胡沟管理处,,46,24,29,19,15,145,145,71,71,8,36,9,10,0.6,0.5
2026-07-02T1200,3009A,119.1478,34.5913,连云港市,矿山设计院,细颗粒物(PM2.5),62,51,25,41,18,139,139,75,75,7,8,4,4,0.5,0.4
2026-07-02T1200,3434A,119.2414,34.6539,连云港市,工贸学校,,43,37,26,30,22,130,130,96,96,9,9,4,4,0.6,0.5
2026-07-02T1200,3664A,119.4171,34.734,连云港市,连云街道,细颗粒物(PM2.5),58,52,32,39,21,107,107,70,68,32,20,11,9,0.6,0.5
2026-07-02T1200,2573A,102.2629,27.8981,凉山彝族自治州,西昌市政府,NA,NA,22,23,15,15,64,64,59,59,12,9,5,6,NA,0.4
2026-07-02T1200,2574A,102.2686,27.885,凉山彝族自治州,凉山州政府,,20,18,24,14,15,64,64,64,64,12,10,5,6,0.4,0.4
2026-07-02T1200,4229A,102.2342,27.8859,凉山彝族自治州,凯乐南路30号,NA,NA,NA,NA,NA,NA,NA,NA,NA,NA,NA,NA,NA,NA,NA,NA
2026-07-02T1200,2212A,123.1978,41.2036,辽阳市,宏伟区,,32,27,29,12,24,100,100,72,72,5,10,6,8,0.4,0.7
2026-07-02T1200,2213A,123.1684,41.2497,辽阳市,新华园,,32,20,34,18,26,101,101,77,77,11,16,7,7,0.5,0.7
2026-07-02T1200,2214A,123.2355,41.2663,辽阳市,滨河路,,30,19,28,11,25,94,94,69,69,7,15,8,8,0.4,0.6
2026-07-02T1200,4083A,123.153,41.2874,辽阳市,铁西路150号,,34,18,34,18,25,107,107,80,80,5,13,6,7,0.4,0.7
2026-07-02T1200,2227A,125.1359,42.8845,辽源市,环保局,,38,25,34,7,21,119,119,90,90,4,14,6,7,0.5,0.5
2026-07-02T1200,4085A,125.0998,42.9134,辽源市,安宁大街333号,,38,14,28,7,24,119,119,90,90,4,14,5,5,0.4,0.5
2026-07-02T1200,1625A,115.9789,36.4372,聊城市,区政府,臭氧1小时(O3_1h),72,53,36,40,23,177,177,132,132,5,8,9,10,0.7,0.6
2026-07-02T1200,3200A,115.9772,36.4986,聊城市,监控中心,臭氧1小时(O3_1h),103,66,32,29,23,205,205,157,157,6,8,8,8,0.6,0.4
2026-07-02T1200,3513A,116.0443,36.436,聊城市,九州社区,臭氧1小时(O3_1h),101,61,50,41,31,202,202,137,137,2,8,9,5,0.5,0.5
2026-07-02T1200,4018A,116.0564,36.4609,聊城市,星美广场,NA,NA,76,50,38,30,195,195,126,126,5,9,NA,6,0.4,0.5
2026-07-02T1200,4113A,116.0091,36.4495,聊城市,利民路,臭氧1小时(O3_1h),98,48,39,39,26,198,198,142,142,7,10,14,11,0.4,0.4
2026-07-02T1200,2632A,94.3683,29.6373,林芝市,林芝监测站,,18,6,10,3,6,57,57,34,31,5,6,4,4,0.3,0.3
2026-07-02T1200,2633A,94.3616,29.6634,林芝市,林芝人民医院,,20,15,10,3,5,61,61,30,30,9,6,3,4,0.1,0.1
2026-07-02T1200,2603A,100.0779,23.8981,临沧市,市环保局,,18,16,10,12,7,29,29,24,24,10,8,11,11,0.5,0.4
2026-07-02T1200,2604A,100.0894,23.882,临沧市,市气象局,,16,16,14,11,10,45,45,38,38,8,6,5,5,0.1,0.2
2026-07-02T1200,1733A,111.5552,36.0791,临汾市,临钢医院,颗粒物(PM10),56,58,43,18,15,164,164,86,86,14,19,9,7,1.0,0.7
2026-07-02T1200,1734A,111.4984,36.0734,临汾市,技工学校,颗粒物(PM10),56,58,51,29,22,155,155,81,81,13,17,10,9,0.9,0.7
2026-07-02T1200,1736A,111.5017,36.0857,临汾市,市委,颗粒物(PM10),64,69,55,24,16,150,150,76,76,12,17,6,7,1.0,0.8
2026-07-02T1200,3018A,111.5048,36.1015,临汾市,唐尧大酒店,颗粒物(PM10),68,75,65,22,16,154,154,78,78,13,19,8,7,1.0,0.8
2026-07-02T1200,4244A,111.4879,36.053,临汾市,启星学校,,50,38,44,25,20,160,160,80,80,13,20,7,9,1.1,0.9
2026-07-02T1200,4271A,103.2464,35.6123,临夏回族自治州,滨河东路1号,NA,NA,23,39,10,15,105,105,54,54,3,12,14,12,NA,0.5
2026-07-02T1200,4310A,103.207136,35.599807,临夏回族自治州,新华街21号,,30,16,32,7,17,95,95,60,60,5,9,10,10,0.4,0.5
2026-07-02T1200,1618A,118.3429,35.0532,临沂市,沂河小区,,50,46,44,27,31,158,158,79,79,8,18,12,11,0.4,0.4
2026-07-02T1200,1619A,118.2962,35.0568,临沂市,鲁南制药厂,NA,NA,58,41,NA,28,166,166,76,76,14,17,NA,12,0.5,0.6
2026-07-02T1200,1620A,118.2793,34.9976,临沂市,新光毛纺厂,细颗粒物(PM2.5),70,53,38,45,39,164,164,72,72,9,16,9,9,0.4,0.4
2026-07-02T1200,1621A,118.3955,35.0889,临沂市,河东保险公司,颗粒物(PM10),55,56,41,33,32,163,163,71,71,10,14,12,9,0.2,0.2
2026-07-02T1200,3370A,118.3563,35.0215,临沂市,十里堡居委,臭氧1小时(O3_1h),55,46,31,23,30,164,164,76,76,13,22,14,12,0.7,0.6
2026-07-02T1200,3496A,118.359,35.1067,临沂市,南坊新区,细颗粒物(PM2.5),82,58,46,51,41,175,175,76,76,12,18,12,8,0.3,0.7
2026-07-02T1200,3860A,118.3915,35.0297,临沂市,皇山花园小区,细颗粒物(PM2.5),88,68,42,54,36,182,182,84,84,10,24,16,10,0.7,0.8
2026-07-02T1200,1870A,109.4854,24.3898,柳州市,柳东小学,,33,29,19,23,12,45,45,32,29,8,8,14,5,0.6,0.5
2026-07-02T1200,1871A,109.4109,24.3304,柳州市,环保监测站,,23,19,22,16,11,37,37,31,28,21,11,12,8,0.9,0.7
2026-07-02T1200,1872A,109.3886,24.3408,柳州市,河西水厂,,23,23,36,11,18,27,27,18,18,13,9,9,10,0.7,0.7
2026-07-02T1200,1873A,109.4263,24.2951,柳州市,市四中,,29,29,21,15,10,54,54,34,34,17,9,9,7,0.8,0.6
2026-07-02T1200,1874A,109.396,24.3658,柳州市,市九中,,20,18,30,14,13,33,33,20,18,17,12,9,8,0.7,0.7
2026-07-02T1200,1875A,109.4912,24.3164,柳州市,古亭山,,33,33,17,23,11,51,51,24,24,10,10,4,3,0.7,0.6
2026-07-02T1200,3402A,109.5422,24.3994,柳州市,市二中,,33,31,19,23,9,43,43,24,24,5,5,10,6,0.6,0.5
2026-07-02T1200,2307A,116.5078,31.7369,六安市,监测大楼,,30,NA,12,12,15,93,93,57,57,4,8,4,4,0.5,0.5
2026-07-02T1200,2308A,116.4738,31.7642,六安市,皖西学院,,34,19,18,14,16,106,106,64,64,2,6,6,6,0.4,0.4
2026-07-02T1200,2309A,116.4997,31.7904,六安市,朝阳厂,,30,NA,11,11,15,95,95,61,61,5,9,7,7,0.3,0.3
2026-07-02T1200,2310A,116.5566,31.7885,六安市,开发区,,34,12,17,12,16,106,106,64,64,4,18,5,6,0.3,0.3
2026-07-02T1200,2577A,104.8293,26.592,六盘水市,黄土坡,,21,9,14,3,10,67,67,65,64,12,10,5,6,0.5,0.6
2026-07-02T1200,2579A,104.8481,26.5898,六盘水市,民中,,18,8,14,7,9,57,57,64,61,18,13,1,3,0.6,0.7
2026-07-02T1200,2580A,104.9541,26.5506,六盘水市,双水,,19,9,14,6,8,58,58,64,58,6,8,4,5,0.3,0.3
2026-07-02T1200,4151A,104.8899,26.5685,六盘水市,钟山大道中段564号,,21,21,16,10,8,57,57,65,56,13,7,6,6,0.7,0.6
2026-07-02T1200,2336A,117.022,25.1031,龙岩市,龙岩市监测站,,30,30,20,7,10,48,48,17,17,5,9,7,5,0.2,0.2
2026-07-02T1200,2337A,117.0257,25.0662,龙岩市,闽西职业技术学院,,18,18,20,7,10,46,46,18,18,3,6,6,5,0.3,0.4
2026-07-02T1200,2338A,117.0195,25.0306,龙岩市,龙岩学院,,35,35,20,9,8,60,60,20,20,8,5,2,2,/,/
2026-07-02T1200,2885A,104.9344,33.3827,陇南市,滨江中学,,39,24,30,6,14,122,122,96,96,5,7,8,8,0.4,0.4
2026-07-02T1200,3247A,104.9551,33.3709,陇南市,市总工会,NA,NA,NA,32,NA,11,113,113,88,88,6,6,8,9,NA,0.3
2026-07-02T1200,2488A,111.9984,27.7346,娄底市,市监测站,,41,41,33,21,24,41,41,24,24,5,14,1,2,0.4,0.8
2026-07-02T1200,2491A,111.9888,27.7035,娄底市,市政府,,32,28,23,22,21,49,49,23,23,6,6,4,4,0.3,0.5
2026-07-02T1200,4127A,111.9812,27.7591,娄底市,涟钢职大,,23,23,23,16,17,58,58,25,25,5,12,3,2,0.5,0.8
2026-07-02T1200,4128A,112.0303,27.7457,娄底市,娄底体校,,36,NA,27,25,22,47,47,22,22,4,7,4,2,0.7,0.8
2026-07-02T1200,1894A,105.4427,28.9063,泸州市,小市上码头,,38,38,22,20,11,21,21,28,19,25,14,6,5,0.7,0.5
2026-07-02T1200,1895A,105.4241,28.8573,泸州市,兰田宪桥,颗粒物(PM10),58,61,37,32,18,29,29,17,17,19,15,5,4,0.6,0.5
2026-07-02T1200,1896A,105.4378,28.8833,泸州市,市环监站,,49,49,24,18,9,24,24,27,25,24,16,7,5,0.9,0.7
2026-07-02T1200,4272A,105.3689,28.7783,泸州市,纳溪中医医院,,41,41,33,27,24,14,14,11,11,29,20,3,2,0.8,0.7
2026-07-02T1200,2183A,111.1447,37.5212,吕梁市,环保局,,48,45,35,3,8,151,151,72,72,9,15,6,5,0.3,0.3
2026-07-02T1200,2185A,111.1285,37.5338,吕梁市,自来水公司,,50,36,42,11,11,157,157,66,66,10,15,4,3,0.5,0.4
2026-07-02T1200,2867A,111.1225,37.5093,吕梁市,马茂庄小学,臭氧1小时(O3_1h),59,39,35,10,9,167,167,82,82,9,18,6,3,0.2,0.1
2026-07-02T1200,1812A,112.3934,34.6517,洛阳市,市委党校,,40,38,36,18,23,128,128,87,87,8,18,8,9,0.5,0.6
2026-07-02T1200,1815A,112.494,34.6883,洛阳市,河南林校,,47,40,37,15,18,150,150,86,86,12,22,12,12,0.4,0.3
2026-07-02T1200,1816A,112.3843,34.623,洛阳市,开发区管委会,,45,31,30,22,20,141,141,88,88,8,14,12,10,0.5,0.5
2026-07-02T1200,1817A,112.4263,34.6249,洛阳市,市委新办公区,,40,28,30,20,19,125,125,77,77,9,15,13,11,0.4,0.4
2026-07-02T1200,3340A,112.6005,34.6323,洛阳市,伊滨,颗粒物(PM10),55,56,39,19,18,138,138,86,86,10,13,5,6,0.5,0.5
2026-07-02T1200,3341A,112.495,34.6338,洛阳市,中移产业园,,43,35,31,20,20,136,136,78,78,8,17,12,9,0.7,0.7
2026-07-02T1200,3593A,112.5736,34.8993,洛阳市,吉利监测站,臭氧1小时(O3_1h),57,54,32,31,17,165,165,98,98,10,13,30,10,0.4,0.3
2026-07-02T1200,3635A,112.3678,34.6623,洛阳市,河科大西苑校区,,43,42,37,20,23,137,137,92,92,8,19,14,14,0.6,0.6
2026-07-02T1200,3636A,112.4387,34.678,洛阳市,英才小学,,43,41,37,23,22,136,136,76,76,9,21,10,10,0.6,0.6
2026-07-02T1200,4214A,112.460027,34.694929,洛阳市,春都路1号院,,48,33,32,27,23,153,153,75,75,9,20,7,7,0.4,0.4
2026-07-02T1200,2399A,114.051,33.5721,漯河市,三五一五工厂,,35,27,44,24,26,87,87,46,46,22,31,6,6,0.2,0.2
2026-07-02T1200,2400A,114.0055,33.5698,漯河市,漯河大学,NA,NA,NA,46,NA,26,88,88,32,NA,NA,37,6,7,0.8,0.7
2026-07-02T1200,2401A,114.0134,33.5826,漯河市,市水利局,,32,31,37,22,26,89,89,59,59,21,28,6,6,0.4,0.4
2026-07-02T1200,2402A,114.0261,33.5697,漯河市,市广电局,NA,NA,24,37,16,22,91,91,54,54,18,27,5,5,NA,0.5
2026-07-02T1200,3478A,113.9691,33.568,漯河市,市图书馆,,41,41,44,20,24,85,85,45,45,21,34,6,7,0.8,0.6
2026-07-02T1200,4250A,114.089259,33.588274,漯河市,韶山路11号,,34,34,40,17,23,82,82,54,54,22,25,8,8,0.4,0.4
2026-07-02T1200,1798A,118.5084,31.6838,马鞍山市,湖东路四小,,34,34,29,12,13,101,101,53,53,10,16,8,9,0.9,0.7
2026-07-02T1200,1799A,118.5019,31.6449,马鞍山市,开发区,颗粒物(PM10),60,64,31,14,14,97,97,50,50,9,16,9,8,0.9,0.8
2026-07-02T1200,3633A,118.4914,31.681,马鞍山市,雨山,,34,21,29,15,16,108,108,53,53,7,16,4,6,0.9,0.8
2026-07-02T1200,4191A,118.527362,31.722269,马鞍山市,慈湖高新区,,35,27,29,15,17,110,110,56,56,13,22,8,9,0.8,0.7
2026-07-02T1200,1686A,111.0285,21.469,茂名市,电白南海,,29,29,21,8,9,54,54,29,29,5,7,6,7,0.3,0.5
2026-07-02T1200,1687A,110.9294,21.6533,茂名市,茂石化七小,,29,29,23,10,10,59,59,33,33,8,9,6,7,0.5,0.5
2026-07-02T1200,1688A,110.9108,21.6688,茂名市,健康路,,19,19,14,10,10,60,60,33,33,5,7,6,13,0.5,0.5
2026-07-02T1200,1689A,110.8592,21.6826,茂名市,高岭,,31,31,27,10,13,57,57,29,29,6,9,9,9,/,/
2026-07-02T1200,3450A,111.0101,21.5165,茂名市,电白水东,,27,27,13,14,9,59,59,33,33,6,6,3,4,/,/
2026-07-02T1200,2540A,103.8414,30.0871,眉山市,气象局,,42,42,41,9,42,114,114,45,45,10,26,9,7,0.8,0.9
2026-07-02T1200,3148A,103.829,30.0563,眉山市,区人社局,,35,35,52,3,32,104,104,46,46,12,26,9,8,0.7,0.8
2026-07-02T1200,4148A,103.8836,30.0695,眉山市,眉职院,,33,21,63,6,38,103,103,40,40,8,18,9,8,0.8,0.9
2026-07-02T1200,1690A,116.1248,24.3307,梅州市,梅江月梅,,12,6,14,3,5,36,36,15,15,4,6,/,/,/,/
2026-07-02T1200,1691A,116.0798,24.2719,梅州市,梅县新城,NA,NA,19,18,6,9,32,32,13,13,NA,11,8,9,0.4,0.4
2026-07-02T1200,3315A,116.1234,24.2994,梅州市,梅龙,,13,12,15,3,7,40,40,20,20,4,6,6,7,0.5,0.5
2026-07-02T1200,1878A,104.7775,31.4741,绵阳市,富乐山,细颗粒物(PM2.5),78,84,61,49,48,147,147,66,66,17,15,13,12,1.0,0.9
2026-07-02T1200,1880A,104.6698,31.4668,绵阳市,高新区自来水公司,细颗粒物(PM2.5),78,73,73,49,53,137,137,60,60,10,20,14,14,0.6,0.7
2026-07-02T1200,3491A,104.6899,31.5324,绵阳市,西科大附属小学,细颗粒物(PM2.5),54,52,74,37,54,135,135,52,52,13,22,7,8,0.6,0.6
2026-07-02T1200,3492A,104.5647,31.5343,绵阳市,安州区旅游局,颗粒物(PM10),66,72,76,39,57,147,147,67,67,3,10,9,11,0.7,0.7
2026-07-02T1200,4146A,104.7092,31.4972,绵阳市,科技城新区公安局,颗粒物(PM10),79,90,70,38,53,138,138,58,58,19,22,13,13,1.0,0.9
2026-07-02T1200,4226A,104.765114,31.453094,绵阳市,绵阳市气象局,细颗粒物(PM2.5),72,75,63,46,51,111,111,50,50,26,22,10,9,1.0,0.9
2026-07-02T1200,1784A,129.61,44.561,牡丹江市,环保大楼,,19,11,19,10,12,59,59,45,45,5,12,5,5,0.3,0.3
2026-07-02T1200,1787A,129.6364,44.6075,牡丹江市,机车工厂,,20,NA,27,14,16,62,62,48,48,4,12,8,8,0.3,0.3
2026-07-02T1200,1788A,129.6386,44.5462,牡丹江市,第一中学,,20,16,24,3,10,62,62,42,42,4,10,8,8,0.4,0.4
2026-07-02T1200,4287A,129.5992,44.5964,牡丹江市,东晓云街98号,,26,25,30,18,18,64,64,53,53,5,9,5,5,0.3,0.3
2026-07-02T1200,2531A,105.0703,29.61,内江市,市监测站,NA,NA,NA,31,30,20,71,71,42,42,NA,16,10,10,NA,0.6
2026-07-02T1200,2533A,105.0657,29.5807,内江市,内江二中,细颗粒物(PM2.5),52,NA,24,36,21,67,67,50,50,12,12,10,10,0.7,0.6
2026-07-02T1200,2534A,105.0407,29.5828,内江市,内江日报社,细颗粒物(PM2.5),64,42,25,42,25,55,55,38,38,16,21,6,10,0.8,0.7
2026-07-02T1200,4147A,105.0433,29.6105,内江市,玉峰路西段888号,细颗粒物(PM2.5),56,NA,26,38,22,61,61,38,38,12,15,6,6,0.6,0.5
2026-07-02T1200,2628A,92.0653,31.4846,那曲市,那曲监测站,,44,44,44,16,22,139,139,82,82,18,17,3,4,0.3,0.4
2026-07-02T1200,4243A,92.0515,31.4787,那曲市,那曲市委宣传部,,45,29,28,15,17,141,141,78,78,12,14,2,2,0.3,0.4
2026-07-02T1200,1291A,115.8887,28.7006,南昌市,省林业公司,,20,NA,3,14,8,42,42,36,35,10,9,4,4,0.7,0.6
2026-07-02T1200,1292A,115.813,28.7443,南昌市,林科所,,25,NA,1,17,5,19,19,23,23,27,15,6,6,0.9,0.9
2026-07-02T1200,1294A,115.8518,28.687,南昌市,建工学校,,29,NA,6,20,8,37,37,32,31,12,8,5,5,0.9,0.9
2026-07-02T1200,1295A,115.8926,28.6425,南昌市,象湖,,15,NA,3,10,8,33,33,30,30,16,13,8,8,0.5,0.5
2026-07-02T1200,3046A,115.9084,28.6062,南昌市,机电学校,,12,11,10,3,8,37,37,25,25,7,11,6,6,0.6,0.6
2026-07-02T1200,3690A,115.9718,28.7032,南昌市,外国语学校,,13,9,6,6,8,40,40,38,38,4,5,11,11,0.7,0.7
2026-07-02T1200,4106A,115.7923,28.6873,南昌市,工业二路,,29,25,10,20,4,36,36,26,26,12,8,5,5,0.6,0.6
2026-07-02T1200,4192A,115.931587,28.686774,南昌市,南京东路235号,,13,12,7,7,8,41,41,44,37,10,11,4,4,0.8,0.7
2026-07-02T1200,1906A,106.0791,30.8022,南充市,南充市委,,24,22,28,13,17,74,74,40,40,7,11,5,5,0.3,0.3
2026-07-02T1200,1907A,106.1038,30.8215,南充市,南充炼油厂,,27,27,33,14,18,79,79,42,42,8,14,6,6,0.4,0.5
2026-07-02T1200,4227A,106.108336,30.788436,南充市,梨树横街98号,,22,21,35,10,21,70,70,41,41,7,17,6,6,0.3,0.4
2026-07-02T1200,4304A,106.1172,30.843,南充市,清泉寺北路188号,,31,31,33,13,19,79,79,39,39,8,10,7,8,0.5,0.5
2026-07-02T1200,4305A,106.067,30.7616,南充市,同庆路1号,,25,22,33,11,18,78,78,44,44,7,16,6,6,0.4,0.5
2026-07-02T1200,1151A,118.8033,32.1085,南京市,迈皋桥,,45,22,25,11,15,141,141,72,72,4,8,8,8,0.7,0.6
2026-07-02T1200,1152A,118.7487,32.057,南京市,草场门,,40,27,27,7,14,127,127,65,65,8,16,5,7,0.7,0.8
2026-07-02T1200,1154A,118.770105,32.004342,南京市,中华门,,40,24,24,7,13,125,125,61,61,7,11,6,7,0.3,0.4
2026-07-02T1200,1155A,118.8059,32.0329,南京市,瑞金路,,39,27,27,10,13,123,123,59,59,12,17,4,4,0.7,0.7
2026-07-02T1200,1156A,118.7946,32.0774,南京市,玄武湖,,39,39,34,6,12,122,122,61,61,8,13,8,8,0.5,0.7
2026-07-02T1200,1157A,118.6415,32.0964,南京市,浦口,,36,36,29,12,19,114,114,60,60,14,17,7,5,0.8,0.5
2026-07-02T1200,1158A,118.730129,32.000956,南京市,奥体中心,,37,27,31,10,14,116,116,51,51,9,17,8,10,1.0,1.1
2026-07-02T1200,1159A,118.9072,32.1047,南京市,仙林大学城,,44,24,34,7,15,140,140,71,71,2,3,8,8,0.9,0.9
2026-07-02T1200,3422A,118.8443,31.919,南京市,江宁彩虹桥,,39,16,26,7,15,124,124,61,61,3,14,4,4,0.7,0.7
2026-07-02T1200,3427A,118.8497,32.3599,南京市,六合雄州,,46,22,30,9,16,145,145,86,86,15,20,5,3,1.0,0.8
2026-07-02T1200,4086A,118.7641,32.0841,南京市,新模范马路66号,,45,29,32,8,11,142,142,74,74,2,12,3,4,0.6,0.6
2026-07-02T1200,4249A,118.8707617,31.34017673,南京市,汶溪路181号,,25,9,15,3,5,77,77,49,49,6,7,6,6,0.8,0.9
2026-07-02T1200,4312A,119.019,31.6512,南京市,中山西路1号,NA,NA,7,17,3,8,81,81,53,53,3,8,NA,4,0.5,0.6
2026-07-02T1200,1401A,108.3098,22.788,南宁市,二十一中,,19,13,16,3,11,58,58,30,30,5,14,3,2,0.7,0.8
2026-07-02T1200,1402A,108.3135,22.8529,南宁市,北湖,,19,9,22,9,18,59,59,24,24,9,15,2,3,0.6,0.7
2026-07-02T1200,1403A,108.3205,22.8222,南宁市,市监测站,,22,21,21,6,13,70,70,34,34,4,12,3,3,0.6,0.7
2026-07-02T1200,1404A,108.3828,22.8038,南宁市,大自然花园,,21,NA,19,11,7,66,66,32,32,5,12,4,3,0.5,0.6
2026-07-02T1200,1406A,108.2397,22.8462,南宁市,区农职院,,21,NA,24,9,16,66,66,27,27,4,15,2,5,0.8,0.9
2026-07-02T1200,1407A,108.3285,22.7356,南宁市,英华嘉园,,19,17,21,3,11,59,59,30,30,4,11,4,4,0.4,0.5
2026-07-02T1200,3401A,108.4829,22.762,南宁市,红星社区,,21,17,17,3,12,66,66,29,29,3,14,5,4,0.4,0.5
2026-07-02T1200,4132A,108.2927,23.1477,南宁市,起凤路9号,,19,12,23,7,14,58,58,26,26,4,13,7,5,0.4,0.5
2026-07-02T1200,4221A,108.2177,22.7774,南宁市,乐贤路16号,,20,12,30,3,15,64,64,20,20,5,22,4,4,0.4,0.5
2026-07-02T1200,2332A,118.1682,26.6371,南平市,南平市监测站,NA,NA,13,17,6,10,61,61,29,29,NA,7,4,4,0.3,0.4
2026-07-02T1200,2334A,118.1757,26.6276,南平市,南平七中,,20,19,17,6,8,64,64,27,27,3,6,4,3,0.2,0.3
2026-07-02T1200,1168A,120.9056,31.9669,南通市,狼山街道,,48,26,20,18,22,151,151,61,61,12,23,11,6,1.2,1.1
2026-07-02T1200,1170A,120.8635,32.0231,南通市,城中,,48,30,38,15,27,153,153,72,72,9,20,8,5,0.8,0.9
2026-07-02T1200,1171A,120.9376,31.9301,南通市,星湖花园,,48,40,30,26,24,153,153,65,65,16,23,10,6,0.7,0.6
2026-07-02T1200,1172A,120.8053,32.046,南通市,紫琅学院,,48,36,29,17,25,152,152,61,61,11,25,8,7,1.4,1
2026-07-02T1200,3291A,121.0631,32.0644,南通市,通州监测站,臭氧1小时(O3_1h),60,46,40,20,31,168,168,67,67,10,22,8,7,0.7,0.7
2026-07-02T1200,3432A,120.9348,31.9874,南通市,环境教育馆,,50,44,33,24,25,159,159,64,64,19,23,14,7,0.9,0.8
2026-07-02T1200,4091A,120.8692,31.9885,南通市,洪江路,,47,28,27,17,25,150,150,62,62,6,24,9,6,1.0,1.1
2026-07-02T1200,2404A,112.5338,33.0086,南阳市,瓦房庄,,36,36,29,20,15,53,53,69,60,13,6,6,6,0.5,0.4
2026-07-02T1200,2405A,112.5002,32.9734,南阳市,汉画馆,,44,44,35,24,16,54,54,59,53,20,17,6,6,0.6,0.5
2026-07-02T1200,2406A,112.5778,33.0144,南阳市,气象站,,39,39,29,17,14,59,59,72,62,13,9,6,6,0.4,0.4
2026-07-02T1200,2407A,112.548,32.9687,南阳市,理工学院,,38,33,30,26,17,61,61,61,54,13,14,6,7,0.5,0.5
2026-07-02T1200,4008A,112.5233,32.9921,南阳市,卧龙区政府,,39,39,28,24,16,54,54,68,57,16,10,5,6,0.7,0.6
2026-07-02T1200,1234A,121.8352,29.9111,宁波市,区环保大楼,,31,31,23,12,9,72,72,20,20,57,38,16,6,0.9,0.7
2026-07-02T1200,1235A,121.5595,29.8208,宁波市,万里学院,,24,17,18,3,10,76,76,30,30,5,20,8,8,0.7,0.8
2026-07-02T1200,1236A,121.713,29.9564,宁波市,龙赛医院,,40,40,20,22,10,88,88,34,34,55,22,12,6,0.8,0.4
2026-07-02T1200,1240A,121.5855,29.8635,宁波市,太古小学,,21,10,17,3,8,66,66,27,27,8,22,4,4,0.6,0.6
2026-07-02T1200,1241A,121.5239,29.8673,宁波市,市环境监测中心,,24,24,19,3,10,60,60,20,20,11,22,6,7,0.3,0.4
2026-07-02T1200,2871A,121.6156,29.9015,宁波市,万里国际学校,,24,11,15,6,8,75,75,34,34,8,17,6,6,0.5,0.5
2026-07-02T1200,3710A,121.5593,29.8976,宁波市,白沙活动中心,,22,13,12,7,10,70,70,27,27,10,18,7,7,0.7,0.7
2026-07-02T1200,4095A,121.8962,29.7529,宁波市,中科路88号,,31,15,17,7,7,99,99,47,47,2,12,7,6,0.4,0.5
2026-07-02T1200,2341A,119.5387,26.6611,宁德市,宁德市监测站,颗粒物(PM10),60,64,24,12,8,85,85,40,40,8,15,4,4,0.3,0.5
2026-07-02T1200,3209A,119.5231,26.6562,宁德市,宁德一中,NA,NA,18,30,10,11,94,94,44,44,NA,8,9,9,0.1,0.3
2026-07-02T1200,2618A,98.859,25.8541,怒江傈僳族自治州,州监测站,,13,13,19,3,10,19,19,13,13,4,6,5,5,0.4,0.4
2026-07-02T1200,2619A,98.8607,25.8168,怒江傈僳族自治州,泸水一中,,9,7,16,6,11,14,14,8,8,8,10,4,4,0.5,0.5
2026-07-02T1200,1888A,101.6891,26.571,攀枝花市,弄弄坪,,36,36,53,12,22,60,60,62,62,12,18,1,11,0.4,0.9
2026-07-02T1200,1889A,101.577,26.5914,攀枝花市,河门口,,46,36,39,32,18,54,54,61,54,22,14,16,14,1.9,1
2026-07-02T1200,1891A,101.7365,26.4986,攀枝花市,仁和,,20,14,34,12,22,61,61,59,59,9,10,4,7,0.7,0.7
2026-07-02T1200,2835A,101.7222,26.567,攀枝花市,四十中小,,22,22,34,8,17,65,65,63,63,8,16,7,11,0.8,0.9
2026-07-02T1200,1604A,122.0303,41.1489,盘锦市,开发区,,39,24,23,21,27,122,122,92,92,7,8,8,8,0.3,0.3
2026-07-02T1200,1605A,122.0486,41.0883,盘锦市,兴隆台,,36,36,23,19,23,91,91,66,66,9,11,4,5,0.5,0.5
2026-07-02T1200,1606A,121.8297,41.1026,盘锦市,新生街道,NA,NA,NA,22,NA,23,112,112,95,95,4,8,7,6,0.4,0.4
2026-07-02T1200,1832A,113.3257,33.7423,平顶山市,新华旅馆,,36,32,46,25,27,97,97,71,71,16,20,2,3,0.6,0.7
2026-07-02T1200,1833A,113.2917,33.737,平顶山市,规划设计院,,36,32,42,25,25,88,88,61,61,17,22,6,7,0.5,0.5
2026-07-02T1200,1834A,113.182,33.7738,平顶山市,平顶山工学院,,33,NA,30,23,21,101,101,76,76,10,15,6,7,0.4,0.4
2026-07-02T1200,3594A,112.8736,33.9068,平顶山市,石龙区,,33,30,34,19,23,103,103,87,86,10,13,6,7,0.6,0.6
2026-07-02T1200,4116A,113.284,33.7139,平顶山市,姚电大道23号,NA,NA,NA,51,NA,27,78,78,57,57,10,31,8,9,0.7,0.6
2026-07-02T1200,2656A,106.6633,35.5338,平凉市,聚贤嘉苑,,42,28,38,6,18,132,132,92,92,10,19,7,9,0.5,0.6
2026-07-02T1200,2657A,106.7021,35.5307,平凉市,博物馆,,45,34,45,14,20,144,144,96,96,10,15,6,10,0.5,0.6
2026-07-02T1200,2348A,113.8384,27.6436,萍乡市,中医院,,39,39,20,6,10,54,54,31,31,7,12,6,7,0.7,0.8
2026-07-02T1200,2350A,113.8677,27.6438,萍乡市,市环保局,,20,12,14,9,11,63,63,37,37,3,8,10,10,0.5,0.5
2026-07-02T1200,2351A,113.8663,27.6202,萍乡市,安源区政府,,22,22,22,8,13,61,61,23,23,5,11,8,9,0.5,0.6
2026-07-02T1200,4107A,113.8686,27.6668,萍乡市,联洪村委会,,17,12,23,8,12,53,53,34,34,3,8,8,7,0.4,0.5
2026-07-02T1200,2319A,119.0142,25.4324,莆田市,荔城区仓后路,,28,28,23,8,6,55,55,35,35,6,10,/,/,/,/
2026-07-02T1200,2320A,119.0016,25.4553,莆田市,莆田市监测站,,24,24,18,3,5,51,51,33,33,2,4,3,4,0.2,0.2
2026-07-02T1200,2321A,119.112,25.4561,莆田市,涵江区六中,,24,24,24,8,6,70,70,37,37,4,10,/,/,0.4,0.3
2026-07-02T1200,2322A,119.1014,25.3215,莆田市,秀屿区政府,,30,26,25,8,6,93,93,43,43,6,11,6,6,0.5,0.5
2026-07-02T1200,2392A,115.0312,35.7636,濮阳市,环保局,臭氧1小时(O3_1h),85,55,40,31,25,188,188,141,141,6,11,4,4,0.6,0.6
2026-07-02T1200,3021A,115,35.7667,濮阳市,濮水河管理处,臭氧1小时(O3_1h),80,46,44,29,26,184,184,117,117,5,13,5,4,0.4,0.5
2026-07-02T1200,4118A,115.0552,35.7816,濮阳市,中原东路68号,臭氧1小时(O3_1h),90,54,55,20,23,192,192,148,148,8,12,5,5,0.4,0.4
2026-07-02T1200,4216A,115.0923632,35.76857718,濮阳市,任丘路479号,臭氧1小时(O3_1h),97,46,52,22,26,197,197,142,142,6,12,3,3,0.6,0.6
2026-07-02T1200,2601A,100.9801,22.7634,普洱市,市环保局,,15,15,21,9,9,34,34,24,22,3,5,5,4,0.7,0.7
2026-07-02T1200,2602A,100.9763,22.8237,普洱市,普洱第二中学,NA,NA,NA,20,NA,7,40,40,23,23,NA,6,5,8,NA,0.8
2026-07-02T1200,3345A,131.0413,45.7795,七台河市,中波台,,30,25,21,21,13,76,76,44,44,10,14,6,5,0.4,0.4
2026-07-02T1200,3637A,131.0136,45.7688,七台河市,人民广场,,31,31,30,9,12,86,86,61,61,7,11,8,9,0.5,0.5
2026-07-02T1200,3684A,130.8639,45.8144,七台河市,新建矿广场,,41,41,30,19,16,82,82,48,48,10,16,1,8,0.2,0.3
2026-07-02T1200,1779A,123.9307,47.3641,齐齐哈尔市,安居小区,,44,44,24,14,12,128,128,99,99,11,8,5,4,0.6,0.6
2026-07-02T1200,1780A,123.9497,47.3389,齐齐哈尔市,中心广场,,38,30,32,12,12,121,121,93,93,10,11,5,5,0.5,0.5
2026-07-02T1200,1781A,123.9483,47.3229,齐齐哈尔市,农牧车辆厂,NA,NA,36,36,NA,21,127,127,98,98,7,8,6,5,0.2,0.2
2026-07-02T1200,1783A,123.9442,47.2994,齐齐哈尔市,市环境监测站,,39,20,24,19,21,124,124,96,96,5,6,3,3,0.4,0.3
2026-07-02T1200,3662A,123.6341,47.2079,齐齐哈尔市,富区青少年活动中心,,37,30,26,20,15,116,116,90,88,8,8,4,4,0.3,0.3
2026-07-02T1200,2591A,107.9765,26.5724,黔东南苗族侗族自治州,市环境监测站,,25,25,16,16,8,41,41,16,16,12,9,2,2,0.6,0.6
2026-07-02T1200,2881A,107.8909,26.531,黔东南苗族侗族自治州,凯里学院,,16,NA,7,11,7,42,42,17,17,6,8,3,3,0.4,0.5
2026-07-02T1200,2593A,107.5223,26.2371,黔南布依族苗族自治州,小围寨,,16,6,8,3,5,50,50,30,30,3,6,3,4,0.5,0.6
2026-07-02T1200,3538A,107.5175,26.2977,黔南布依族苗族自治州,沙坝,,13,9,11,6,4,40,40,14,14,2,6,4,3,0.5,0.6
2026-07-02T1200,2589A,104.9022,25.0943,黔西南布依族苗族自治州,场坝街,,18,10,12,3,4,57,57,45,45,2,3,2,2,0.2,0.3
2026-07-02T1200,2590A,104.8812,25.0994,黔西南布依族苗族自治州,坪东大道,,17,13,13,3,4,54,54,38,38,3,3,5,5,0.3,0.3
2026-07-02T1200,2502A,108.6238,21.9667,钦州市,市环保站,,16,14,15,3,5,50,50,28,28,6,15,7,7,0.4,0.6
2026-07-02T1200,2503A,108.655,21.9481,钦州市,沙埠小学,,16,13,19,10,13,50,50,26,26,2,13,4,5,0.6,0.7
2026-07-02T1200,2504A,108.5989,21.7435,钦州市,港区一小,,26,26,31,9,15,53,53,28,28,6,18,14,7,0.3,0.5
2026-07-02T1200,3404A,108.5959,21.9634,钦州市,北职校,,18,14,19,3,9,56,56,31,31,3,13,3,3,0.4,0.5
2026-07-02T1200,1046A,119.5247,39.9346,秦皇岛市,建设大厦,细颗粒物(PM2.5),56,52,42,38,21,133,133,106,106,8,7,6,6,0.5,0.4
2026-07-02T1200,3132A,119.5979,39.938,秦皇岛市,文明里,颗粒物(PM10),63,68,45,29,28,135,135,116,116,7,6,7,7,0.5,0.4
2026-07-02T1200,4066A,119.7458,39.9952,秦皇岛市,南园路157号,细颗粒物(PM2.5),56,45,34,38,23,122,122,106,106,4,5,9,8,0.4,0.3
2026-07-02T1200,4067A,119.5131,39.8858,秦皇岛市,翠岛大街1号,细颗粒物(PM2.5),62,51,30,41,22,125,125,96,96,10,9,5,4,0.7,0.5
2026-07-02T1200,4198A,119.509013,39.825305,秦皇岛市,北戴河轮滑馆,,42,42,41,26,22,126,126,118,118,8,7,10,9,0.4,0.3
2026-07-02T1200,1310A,120.404,36.0625,青岛市,市南区东部子站,,21,NA,10,11,7,66,66,60,60,12,15,6,6,0.3,0.3
2026-07-02T1200,1311A,120.362344,36.10282,青岛市,四方区子站,,33,24,12,23,10,91,91,79,79,4,6,8,8,0.7,0.6
2026-07-02T1200,1312A,120.294373,36.054183,青岛市,市南区西部子站,,24,NA,7,15,6,75,75,65,65,15,18,5,5,0.4,0.4
2026-07-02T1200,1313A,120.4581,36.0858,青岛市,崂山区子站,,25,7,8,6,7,80,80,72,72,7,7,7,7,0.3,0.3
2026-07-02T1200,1315A,120.3945,36.3083,青岛市,城阳区子站,,50,41,21,35,10,137,137,93,93,12,8,8,8,0.5,0.3
2026-07-02T1200,3642A,120.3454,36.0735,青岛市,市北区南部,,25,13,10,12,6,80,80,73,73,8,12,1,2,0.7,0.6
2026-07-02T1200,3643A,120.3897,36.18,青岛市,李沧区北部,,35,24,9,24,10,80,80,64,64,11,12,6,6,0.6,0.4
2026-07-02T1200,4110A,120.5222,36.4089,青岛市,盟旺路653号,,50,35,18,14,10,158,158,102,102,8,6,7,6,0.9,0.7
2026-07-02T1200,4290A,120.196923,35.954556,青岛市,珠江路669号,,30,NA,9,20,8,93,93,74,74,4,5,5,4,0.3,0.3
2026-07-02T1200,4291A,120.0424,35.8656,青岛市,黄岛区人民政府广场,,25,12,9,12,8,78,78,61,61,7,8,5,5,0.5,0.5
2026-07-02T1200,1703A,113.0218,23.7086,清远市,凤城街办,,16,9,18,8,10,50,50,27,27,4,11,/,/,/,/
2026-07-02T1200,3025A,113.0479,23.6343,清远市,技师学院,,19,16,22,9,11,58,58,28,28,9,19,7,7,0.4,0.4
2026-07-02T1200,3318A,112.9898,23.7403,清远市,清新太和,,19,15,18,7,10,59,59,34,33,3,8,7,6,0.3,0.4
2026-07-02T1200,3455A,113.076,23.72,清远市,清城东城,,19,19,19,6,9,48,48,28,28,5,10,/,/,/,/
2026-07-02T1200,2661A,107.6325,35.7357,庆阳市,庆阳五中,,41,32,42,16,24,129,129,128,121,5,9,5,6,0.3,0.4
2026-07-02T1200,2662A,107.6361,35.7067,庆阳市,市环保局,,43,43,43,20,25,123,123,120,114,8,10,6,6,0.4,0.4
2026-07-02T1200,1916A,103.7897,25.5036,曲靖市,环境监测站,,22,22,17,11,9,60,60,40,40,10,11,4,3,0.4,0.5
2026-07-02T1200,1917A,103.8013,25.5357,曲靖市,烟厂办公区,NA,NA,14,14,3,7,53,53,39,39,NA,8,3,3,0.4,0.6
2026-07-02T1200,3376A,103.7926,25.4651,曲靖市,南苑二区,,16,14,16,8,9,50,50,35,35,13,11,4,4,0.5,0.6
2026-07-02T1200,3377A,103.7442,25.5259,曲靖市,曲靖师范学院,,18,17,14,7,8,56,56,42,42,9,8,5,5,0.4,0.4
2026-07-02T1200,1264A,118.8694,28.94,衢州市,环保大楼,,12,10,5,8,4,31,31,20,18,18,14,/,/,/,/
2026-07-02T1200,1266A,118.8622,28.9809,衢州市,衢州学院,NA,NA,9,10,6,5,29,29,18,14,NA,19,2,3,NA,0.5
2026-07-02T1200,4097A,118.9646,28.9832,衢州市,衢州三中,,13,13,11,9,8,39,39,19,19,15,17,3,2,0.8,0.7
2026-07-02T1200,1611A,118.5818,24.9116,泉州市,涂山街,,23,23,28,7,10,61,61,32,32,4,12,3,4,0.5,0.5
2026-07-02T1200,1612A,118.597,24.8976,泉州市,津头埔,,25,25,30,6,10,58,58,30,30,8,15,2,4,0.2,0.3
2026-07-02T1200,1613A,118.6669,24.9422,泉州市,万安,,24,24,22,8,7,58,58,30,30,1,9,3,4,0.3,0.3
2026-07-02T1200,4105A,118.6355,24.9148,泉州市,霞新路6号,,20,16,19,3,9,62,62,36,36,5,13,/,/,0.3,0.3
2026-07-02T1200,2626A,88.8873,29.2723,日喀则市,日喀则监测站,,46,17,15,3,6,145,145,129,129,5,6,9,9,0.3,0.3
2026-07-02T1200,3726A,88.8775,29.2425,日喀则市,林业技术推广中心,,44,16,16,3,3,139,139,120,119,3,3,7,7,0.2,0.2
2026-07-02T1200,1659A,119.4711,35.421,日照市,监测站,细颗粒物(PM2.5),66,61,23,43,17,142,142,57,57,24,24,11,9,1.1,0.6
2026-07-02T1200,1660A,119.523,35.4216,日照市,市政府广场,细颗粒物(PM2.5),80,53,23,50,15,148,148,71,71,15,15,17,10,1.5,0.7
2026-07-02T1200,1661A,119.5511,35.4113,日照市,港务局,细颗粒物(PM2.5),78,NA,14,49,11,134,134,76,76,14,10,6,6,0.9,0.7
2026-07-02T1200,3507A,119.5326,35.4627,日照市,职业技术学院,细颗粒物(PM2.5),86,NA,20,53,15,149,149,68,68,15,9,15,9,1.3,0.6
2026-07-02T1200,3604A,119.3267,35.1043,日照市,岚山环保分局,NA,NA,NA,24,30,14,136,136,68,68,7,12,NA,10,0.8,0.6
2026-07-02T1200,1835A,111.1922,34.7752,三门峡市,市政府,,43,41,30,26,14,137,137,88,88,7,12,8,7,0.9,0.8
2026-07-02T1200,1836A,111.1588,34.794,三门峡市,开发区,,45,41,32,20,16,141,141,92,92,14,12,8,9,0.6,0.5
2026-07-02T1200,3039A,111.1911,34.7829,三门峡市,三门峡市第一小学,,45,44,32,20,15,144,144,92,92,7,9,10,9,0.7,0.6
2026-07-02T1200,3598A,111.1031,34.719,三门峡市,富达温泉假日酒店,,43,43,33,24,14,110,110,73,73,19,14,10,8,1.1,0.9
2026-07-02T1200,2324A,117.621,26.2626,三明市,三钢,,44,44,20,20,11,45,45,27,27,18,11,34,12,2.2,0.9
2026-07-02T1200,2325A,117.6352,26.2714,三明市,三明二中,,40,40,22,16,10,57,57,29,29,8,10,6,7,0.8,0.8
2026-07-02T1200,2326A,117.6028,26.2377,三明市,三元区政府,,20,20,18,14,8,57,57,30,30,5,7,8,8,0.6,0.5
2026-07-02T1200,1877A,109.4962,18.2682,三亚市,河西子站,,20,20,14,7,6,62,62,43,43,13,6,3,3,0.2,0.2
2026-07-02T1200,3540A,109.7348,18.3443,三亚市,君悦子站,,18,11,12,3,6,55,55,30,30,5,6,2,2,0.2,0.2
2026-07-02T1200,4135A,109.1714,18.3739,三亚市,城东小学站,,22,16,17,9,9,68,68,32,32,12,7,/,/,/,/
2026-07-02T1200,2624A,91.7592,29.234,山南市,山南监测站,,38,11,11,3,3,121,121,112,105,4,7,7,7,0.1,0.1
2026-07-02T1200,2625A,91.7701,29.2436,山南市,山南人民医院,,39,12,15,3,4,123,123,113,107,3,3,6,6,0.2,0.2
2026-07-02T1200,1674A,116.6795,23.3666,汕头市,金平子站,,18,18,17,8,8,50,50,36,36,4,3,3,3,0.5,0.5
2026-07-02T1200,1675A,116.7248,23.3632,汕头市,龙湖子站,,21,21,20,9,8,44,44,32,32,2,2,6,6,/,/
2026-07-02T1200,1676A,116.7257,23.2774,汕头市,濠江子站,,35,35,25,9,7,40,40,23,23,8,7,8,8,/,/
2026-07-02T1200,1677A,116.7518,23.4712,汕头市,澄海子站,,20,20,23,9,8,47,47,34,34,3,3,3,3,0.5,0.5
2026-07-02T1200,1678A,116.6088,23.2539,汕头市,潮阳子站,NA,NA,NA,21,7,7,45,45,26,26,2,3,6,6,0.7,0.7
2026-07-02T1200,3444A,116.4539,23.2684,汕头市,潮南峡山,,26,26,19,10,7,43,43,26,26,3,3,7,6,0.6,0.5
2026-07-02T1200,3624A,116.4069,23.2533,汕头市,潮南子站,,30,30,22,9,7,37,37,22,22,3,4,6,6,/,/
2026-07-02T1200,1693A,115.3653,22.7751,汕尾市,市环保局,,29,29,22,6,7,55,55,34,34,3,4,5,5,0.6,0.6
2026-07-02T1200,1695A,115.362,22.7926,汕尾市,新城中学,,30,30,20,7,7,58,58,37,37,5,4,6,10,0.5,0.5
2026-07-02T1200,2645A,109.9155,33.8714,商洛市,监测站,,49,49,32,30,19,70,70,37,37,19,11,8,6,1.1,0.9
2026-07-02T1200,3045A,109.9647,33.8486,商洛市,商州区中学,颗粒物(PM10),53,54,32,35,18,58,58,32,32,27,13,8,6,0.9,0.8
2026-07-02T1200,2408A,115.6701,34.4283,商丘市,环境监测站,,48,40,49,21,28,151,151,93,93,6,10,5,5,0.4,0.5
2026-07-02T1200,2409A,115.6458,34.4047,商丘市,粮食局,,46,22,44,21,25,146,146,87,87,5,9,4,3,0.4,0.4
2026-07-02T1200,3171A,115.6069,34.4465,商丘市,梁园区档案局,,43,NA,48,23,26,136,136,83,83,4,11,3,3,0.6,0.6
2026-07-02T1200,4119A,115.6701,34.3767,商丘市,北海东路185号,,45,23,39,16,26,143,143,84,84,8,14,5,4,0.4,0.5
2026-07-02T1200,4120A,115.6172,34.3704,商丘市,中山大街3号,,44,19,51,17,23,140,140,79,79,7,14,3,3,0.5,0.5
2026-07-02T1200,1141A,121.401,31.2382,上海市,普陀,,38,20,27,15,24,120,120,56,56,16,25,5,5,0.3,0.3
2026-07-02T1200,1142A,121.4774,31.2043,上海市,十五厂,,36,20,29,16,24,114,114,43,43,14,26,6,6,0.6,0.7
2026-07-02T1200,1143A,121.4673,31.3011,上海市,虹口,,37,20,31,16,22,117,117,54,54,14,20,4,4,0.5,0.6
2026-07-02T1200,1147A,121.4253,31.226,上海市,静安监测站,,36,16,26,16,24,113,113,54,54,16,23,8,8,0.6,0.7
2026-07-02T1200,1148A,121.7029,31.1905,上海市,浦东川沙,,35,15,28,13,24,110,110,60,60,6,26,9,9,0.6,1
2026-07-02T1200,1149A,121.5339,31.229,上海市,浦东新区监测站,,34,15,28,13,22,107,107,48,48,10,21,7,7,0.6,0.8
2026-07-02T1200,1150A,121.5776,31.2038,上海市,浦东张江,,38,13,29,11,23,120,120,60,60,7,23,6,7,0.5,0.5
2026-07-02T1200,3265A,121.4242,31.3303,上海市,宝山庙行,,40,20,41,13,22,126,126,56,56,10,21,10,10,0.4,0.5
2026-07-02T1200,3266A,121.8789,31.4662,上海市,崇明上实东滩,,34,17,21,17,21,108,108,52,52,19,24,10,10,0.3,0.4
2026-07-02T1200,3268A,121.316,31.2839,上海市,嘉定南翔,,36,13,27,11,20,114,114,44,44,11,28,5,5,0.5,0.5
2026-07-02T1200,3269A,121.3357,30.7455,上海市,金山新城,,43,41,18,30,15,111,111,52,52,9,14,5,5,0.8,0.7
2026-07-02T1200,3270A,121.4996,31.0741,上海市,闵行浦江,,29,16,23,14,21,90,90,43,43,10,23,6,6,0.5,0.5
2026-07-02T1200,3271A,121.2886,31.1663,上海市,青浦徐泾,,36,22,26,18,20,114,114,42,42,10,21,6,5,0.5,0.6
2026-07-02T1200,3272A,121.2193,31.0382,上海市,松江图书馆,,35,30,32,22,26,109,109,48,48,4,15,7,7,0.6,0.6
2026-07-02T1200,3273A,121.3904,31.206,上海市,长宁仙霞,,32,18,26,12,23,101,101,41,41,15,23,8,8,0.3,0.4
2026-07-02T1200,3274A,121.7964,31.0507,上海市,浦东惠南,,35,NA,21,17,20,112,112,58,58,18,23,8,8,0.9,0.9
2026-07-02T1200,3544A,121.4891,30.925,上海市,奉贤南桥新城,,36,35,22,22,18,113,113,51,51,21,26,8,7,0.7,0.6
2026-07-02T1200,4183A,121.417401,31.16637,上海市,冠生园路458号,,31,20,27,16,23,98,98,44,44,16,20,5,5,0.7,0.7
2026-07-02T1200,4205A,121.541914,31.268301,上海市,宁武路151号,,40,18,32,12,23,125,125,53,53,19,32,7,7,0.6,0.7
2026-07-02T1200,2382A,117.9758,28.4439,上饶市,市监测站,,20,14,21,3,6,61,61,40,40,3,6,7,7,/,/
2026-07-02T1200,2383A,117.9521,28.4637,上饶市,凤凰光学,,20,12,16,3,7,62,62,42,42,2,6,6,6,0.4,0.5
2026-07-02T1200,3685A,117.897,28.4316,上饶市,双创科技城,,18,14,17,8,7,56,56,40,40,7,10,6,5,0.4,0.4
2026-07-02T1200,4211A,118.190438,28.444845,上饶市,裕丰大道,,23,NA,13,16,4,64,64,37,37,6,7,13,11,0.6,0.5
2026-07-02T1200,1669A,113.5821,24.7733,韶关市,市八中,,30,30,30,14,15,69,69,30,30,5,12,16,14,0.5,0.6
2026-07-02T1200,1671A,113.5916,24.7973,韶关市,园林处,,28,23,25,19,20,75,75,31,31,8,14,9,15,/,/
2026-07-02T1200,1673A,113.5971,24.6864,韶关市,曲江监测站,,22,12,32,9,18,70,70,26,26,7,15,15,14,0.8,0.8
2026-07-02T1200,2809A,113.6668,24.7756,韶关市,大学路288号,,23,23,33,12,15,70,70,31,31,7,10,14,17,/,/
2026-07-02T1200,3622A,113.5556,24.8082,韶关市,碧湖山庄,,29,29,28,14,13,64,64,31,31,7,11,2,6,0.6,0.6
2026-07-02T1200,2464A,111.5277,27.2442,邵阳市,市化工厂,,22,NA,17,15,22,58,58,30,30,3,8,5,4,0.3,0.4
2026-07-02T1200,2466A,111.4327,27.2276,邵阳市,市环保局,,26,25,19,18,18,54,54,32,32,4,6,3,2,0.5,0.6
2026-07-02T1200,4218A,111.446,27.2472,邵阳市,北塔二期4-26地块,,30,30,21,3,14,56,56,28,28,4,8,4,4,0.6,0.8
2026-07-02T1200,4219A,111.4739,27.2282,邵阳市,邵水西路287号,,28,25,18,19,18,63,63,39,39,2,4,1,1,0.3,0.4
2026-07-02T1200,1247A,120.6053,29.9927,绍兴市,城东开发委,,20,7,8,3,3,62,62,34,34,5,13,7,7,0.3,0.3
2026-07-02T1200,2921A,120.5482,30.0003,绍兴市,树下王站,,18,7,6,3,5,57,57,33,33,5,12,3,3,0.4,0.4
2026-07-02T1200,3408A,120.5685,29.936,绍兴市,绍兴中专,,20,7,8,3,2,61,61,29,29,2,11,5,4,0.4,0.5
2026-07-02T1200,3409A,120.4905,30.086,绍兴市,柯桥区政府,,20,10,11,10,8,63,63,34,34,5,13,5,5,0.5,0.5
2026-07-02T1200,3410A,120.8751,30.0249,绍兴市,重华小学,,16,8,8,8,5,50,50,28,28,9,17,9,9,0.6,0.6
2026-07-02T1200,3411A,120.837,30.0137,绍兴市,上虞中学,,17,9,10,7,6,54,54,28,28,5,13,7,8,0.4,0.5
2026-07-02T1200,3560A,120.4715,30.0414,绍兴市,柯桥妇保,,20,12,11,7,7,63,63,31,31,5,13,5,5,0.4,0.4
2026-07-02T1200,3658A,120.6156,30.0762,绍兴市,袍江中学,,21,NA,9,9,8,65,65,37,37,4,13,4,5,0.5,0.5
2026-07-02T1200,1356A,114.0948,22.5506,深圳市,通心岭子站,,19,15,13,6,5,59,59,33,33,3,5,3,3,0.7,0.6
2026-07-02T1200,1357A,114.1153,22.5713,深圳市,洪湖,,18,16,16,3,5,57,57,30,30,2,4,5,6,0.3,0.3
2026-07-02T1200,1358A,113.9823,22.5398,深圳市,华侨城,,20,15,15,6,5,64,64,35,35,3,4,/,/,/,/
2026-07-02T1200,1359A,113.9181,22.517,深圳市,南海子站,,21,15,18,6,9,67,67,36,36,2,4,4,5,0.8,0.8
2026-07-02T1200,1360A,114.2345,22.565,深圳市,盐田,,16,11,16,6,6,50,50,18,18,6,14,6,7,0.2,0.2
2026-07-02T1200,1363A,114.4911,22.5381,深圳市,南澳,,18,14,16,3,5,56,56,36,36,2,4,/,/,/,/
2026-07-02T1200,1364A,114.41,22.6346,深圳市,葵涌,,19,19,16,7,7,49,49,32,32,11,9,6,7,0.6,0.6
2026-07-02T1200,1365A,114.2967,22.5978,深圳市,梅沙,,19,19,18,3,5,54,54,34,34,5,4,/,/,/,/
