timepoint,stationcode,longitude,latitude,area,positionname,primarypollutant,aqi,pm10,pm10_24h,pm2_5,pm2_5_24h,o3,o3_24h,o3_8h,o3_8h_24h,no2,no2_24h,so2,so2_24h,co,co_24h
2026-06-03T2300,2568A,102.2503,31.8896,阿坝藏族羌族自治州,马师校,,36,36,30,17,12,28,28,84,57,6,5,7,7,0.3,0.3
2026-06-03T2300,3994A,102.2174,31.9016,阿坝藏族羌族自治州,马尔康中学西区,颗粒物(PM10),53,53,27,16,11,32,32,85,62,7,5,5,5,0.2,0.2
2026-06-03T2300,2695A,80.2899,41.1684,阿克苏地区,电视台,颗粒物(PM10),116,161,97,62,29,81,81,119,111,16,12,3,4,0.7,0.7
2026-06-03T2300,2696A,80.2592,41.1541,阿克苏地区,艺术中心,颗粒物(PM10),119,169,113,72,37,64,64,121,110,36,21,3,4,0.6,0.5
2026-06-03T2300,2205A,105.699,38.8409,阿拉善盟,蒙二幼,,37,37,57,8,17,114,114,118,117,4,3,7,8,0.2,0.3
2026-06-03T2300,2206A,105.7198,38.8508,阿拉善盟,环保局新楼,,37,30,54,11,14,116,116,114,114,2,3,10,10,0.3,0.3
2026-06-03T2300,2708A,88.1266,47.8515,阿勒泰地区,市站,,38,38,29,13,8,93,93,104,104,8,7,6,7,0.4,0.3
2026-06-03T2300,4166A,88.1198,47.7931,阿勒泰地区,阿勒泰路33号,,32,32,28,13,5,91,91,102,102,12,4,6,6,0.2,0.2
2026-06-03T2300,2630A,80.1171,32.4999,阿里地区,阿里监测站,,43,12,14,3,3,135,135,150,149,9,4,8,8,0.4,0.4
2026-06-03T2300,3192A,80.0906,32.5029,阿里地区,阿里藏医院,,44,10,12,3,3,139,139,152,151,4,3,11,9,0.4,0.4
2026-06-03T2300,2644A,109.0088,32.6974,安康市,汉滨区检察院,颗粒物(PM10),56,58,44,35,26,43,43,105,81,12,10,7,7,0.6,0.6
2026-06-03T2300,4054A,109.0324,32.6913,安康市,市邮政管理局,颗粒物(PM10),57,59,46,34,32,37,37,109,83,14,10,4,4,0.5,0.5
2026-06-03T2300,2291A,117.0806,30.5181,安庆市,环科院,颗粒物(PM10),60,64,46,28,37,32,32,73,51,27,38,7,7,0.7,0.7
2026-06-03T2300,2292A,117.0331,30.5118,安庆市,马山宾馆,细颗粒物(PM2.5),52,NA,37,36,33,23,23,84,62,38,28,8,8,0.8,0.8
2026-06-03T2300,2294A,116.9897,30.6146,安庆市,安庆大学,细颗粒物(PM2.5),54,NA,38,37,36,53,53,93,82,19,18,4,3,0.6,0.6
2026-06-03T2300,3173A,117.0598,30.5351,安庆市,市人大,,33,29,35,23,33,46,46,96,74,16,17,6,5,0.7,0.7
2026-06-03T2300,3123A,105.9408,26.2431,安顺市,凤凰山,,40,36,25,28,20,76,76,90,86,8,7,5,6,0.7,0.7
2026-06-03T2300,3124A,105.9443,26.2567,安顺市,金钟山,,32,32,22,20,18,75,75,89,84,7,5,6,6,0.6,0.5
2026-06-03T2300,3125A,105.8983,26.248,安顺市,娄家坡,,38,26,21,26,18,80,80,92,89,7,6,13,10,0.8,0.7
2026-06-03T2300,1819A,114.3552,36.1017,安阳市,红庙街,,38,38,136,22,45,115,115,217,172,5,15,4,9,0.5,0.7
2026-06-03T2300,1820A,114.361,36.0681,安阳市,银杏小区,,39,39,141,22,47,124,124,221,180,8,20,2,8,0.4,0.6
2026-06-03T2300,3141A,114.3921,36.0879,安阳市,信访局,,40,29,142,20,47,125,125,232,190,4,19,2,5,0.4,0.6
2026-06-03T2300,3669A,114.4706,36.0634,安阳市,左辅环卫站,,40,40,145,21,46,108,108,204,169,8,19,1,5,0.8,0.9
2026-06-03T2300,4117A,114.2918,36.0769,安阳市,钢三路198号,颗粒物(PM10),68,74,108,24,43,115,115,200,161,8,13,4,7,0.7,0.7
2026-06-03T2300,1748A,123.0441,41.1201,鞍山市,深沟寺,颗粒物(PM10),87,101,76,52,39,28,28,70,51,26,34,6,12,0.5,1.3
2026-06-03T2300,1749A,123.011,41.0931,鞍山市,太阳城,细颗粒物(PM2.5),101,80,76,61,44,43,43,72,58,20,28,7,10,0.7,1.1
2026-06-03T2300,1750A,123.0483,41.1445,鞍山市,太平,颗粒物(PM10),89,104,81,50,39,39,39,75,61,31,35,7,12,0.9,1.4
2026-06-03T2300,1751A,122.964,41.0968,鞍山市,铁西三道街,颗粒物(PM10),73,82,81,39,39,69,69,70,70,23,34,6,10,0.8,1.1
2026-06-03T2300,1753A,123.0219,41.0822,鞍山市,明达新区,细颗粒物(PM2.5),96,90,68,58,41,49,49,72,64,21,26,6,9,0.5,0.9
2026-06-03T2300,4201A,122.944647,41.082639,鞍山市,兴盛南路290号,细颗粒物(PM2.5),90,83,80,55,45,56,56,71,71,29,32,8,10,1.0,1
2026-06-03T2300,2195A,107.4206,40.7609,巴彦淖尔市,附二中,颗粒物(PM10),53,54,43,24,12,96,96,106,105,3,5,9,9,0.4,0.3
2026-06-03T2300,2196A,107.37,40.7372,巴彦淖尔市,市环保大楼,颗粒物(PM10),58,60,35,16,7,99,99,112,110,5,5,8,8,0.5,0.4
2026-06-03T2300,1956A,86.1476,41.7529,巴音郭楞蒙古自治州,孔雀公园,颗粒物(PM10),68,75,51,33,12,113,113,116,116,4,6,4,4,0.2,0.2
2026-06-03T2300,1957A,86.1971,41.7166,巴音郭楞蒙古自治州,棉纺厂,颗粒物(PM10),168,285,62,22,30,108,108,122,121,11,12,/,/,/,/
2026-06-03T2300,1958A,86.236,41.7172,巴音郭楞蒙古自治州,经济开发区,NA,NA,95,55,25,13,103,103,114,113,NA,4,2,2,0.3,0.3
2026-06-03T2300,3181A,106.776805,31.852614,巴中市,市五中,细颗粒物(PM2.5),76,56,35,48,28,32,32,122,95,21,13,7,7,0.8,0.7
2026-06-03T2300,3183A,106.7419,31.8654,巴中市,圣泉水务公司,细颗粒物(PM2.5),80,54,39,50,29,26,26,121,92,40,20,7,7,0.8,0.7
2026-06-03T2300,3616A,106.7617,31.8343,巴中市,市中心医院,细颗粒物(PM2.5),68,54,37,44,27,43,43,128,100,30,14,7,7,0.8,0.7
2026-06-03T2300,2235A,122.7909,45.608,白城市,洮北区环保局,,24,24,24,9,8,68,68,102,86,14,9,3,4,0.1,0.1
2026-06-03T2300,2236A,122.8741,45.5725,白城市,市环保局,,21,14,16,6,7,52,52,98,82,41,19,4,5,0.3,0.3
2026-06-03T2300,2231A,126.4219,41.9172,白山市,喜丰,,23,23,62,9,20,63,63,150,98,13,21,6,10,0.5,0.8
2026-06-03T2300,2232A,126.4082,41.9416,白山市,环保局,,29,22,37,20,26,65,65,147,94,11,14,9,11,0.6,0.7
2026-06-03T2300,2647A,104.1727,36.5448,白银市,第三小学,,36,36,67,23,32,83,83,102,98,12,7,5,9,0.5,0.5
2026-06-03T2300,2648A,104.1467,36.5482,白银市,动力公司,,29,26,58,18,20,92,92,105,103,7,6,8,12,0.4,0.4
2026-06-03T2300,2512A,106.6102,23.901,百色市,市监测站,,35,35,40,23,26,88,88,123,104,12,14,14,11,0.8,0.8
2026-06-03T2300,2513A,106.6524,23.8842,百色市,市中心血站,,35,35,44,19,31,92,92,120,106,8,11,15,13,0.7,0.7
2026-06-03T2300,4133A,106.6273,23.8798,百色市,龙景西路,,36,36,50,25,29,88,88,127,108,13,15,18,14,0.7,0.7
2026-06-03T2300,2270A,117.396,32.9389,蚌埠市,工人疗养院,细颗粒物(PM2.5),68,53,121,44,88,91,91,150,132,12,23,5,8,0.6,0.9
2026-06-03T2300,2271A,117.3606,32.9428,蚌埠市,百货大楼,细颗粒物(PM2.5),64,48,105,42,81,79,79,147,123,14,22,7,9,0.7,0.9
2026-06-03T2300,2273A,117.4183,32.8909,蚌埠市,蚌埠学院,细颗粒物(PM2.5),103,NA,124,63,93,82,82,144,119,10,21,5,6,0.7,0.8
2026-06-03T2300,2274A,117.3534,32.9672,蚌埠市,淮上区政府,细颗粒物(PM2.5),101,63,100,61,78,87,87,159,136,13,21,5,7,0.7,0.8
2026-06-03T2300,2275A,117.3143,32.8977,蚌埠市,高新区,细颗粒物(PM2.5),114,NA,130,75,109,61,61,141,112,24,30,8,10,0.7,0.9
2026-06-03T2300,3715A,117.3091,32.9314,蚌埠市,蚌埠田家炳中学,细颗粒物(PM2.5),107,72,125,67,97,62,62,146,116,16,21,6,12,0.8,0.9
2026-06-03T2300,1585A,109.8761,40.6533,包头市,市环境监测站,,23,18,20,11,7,72,72,100,94,18,8,6,6,0.3,0.3
2026-06-03T2300,1587A,109.9992,40.5843,包头市,包头八中,,22,22,22,6,9,54,54,96,87,31,11,9,7,0.2,0.2
2026-06-03T2300,1589A,109.8641,40.6288,包头市,惠龙物流,,24,10,16,8,6,76,76,98,94,14,7,8,7,0.2,0.2
2026-06-03T2300,1590A,110.0376,40.5546,包头市,东河鸿龙湾,,24,8,17,7,7,76,76,98,94,13,11,12,12,0.4,0.4
2026-06-03T2300,3283A,109.9154,40.5684,包头市,滨河大厦,,22,14,12,8,9,68,68,93,88,17,11,5,6,0.3,0.2
2026-06-03T2300,3419A,109.9449,40.6259,包头市,包头市委党校,,22,NA,13,13,7,69,69,97,91,16,8,6,7,0.3,0.3
2026-06-03T2300,3683A,109.8332,40.6577,包头市,昆区政府,,24,13,12,7,10,75,75,95,92,12,6,4,4,0.3,0.3
2026-06-03T2300,1931A,107.0802,34.3129,宝鸡市,竹园沟,NA,NA,NA,36,21,21,56,56,77,NA,13,10,5,6,0.4,0.2
2026-06-03T2300,1933A,107.1429,34.3549,宝鸡市,监测站,颗粒物(PM10),52,52,54,22,24,59,59,111,91,11,10,5,5,0.4,0.5
2026-06-03T2300,1934A,107.1172,34.3759,宝鸡市,技工学校,,41,41,51,23,24,52,52,117,94,7,7,5,7,0.5,0.6
2026-06-03T2300,1936A,107.2025,34.3518,宝鸡市,文理学院,颗粒物(PM10),60,64,57,27,25,38,38,117,91,14,12,6,6,0.5,0.5
2026-06-03T2300,1937A,107.2396,34.3626,宝鸡市,三迪小学,颗粒物(PM10),58,60,64,23,25,45,45,124,99,15,14,7,7,0.5,0.4
2026-06-03T2300,4155A,107.1721,34.3558,宝鸡市,滨河北路,颗粒物(PM10),60,64,54,27,26,31,31,106,81,15,11,8,9,0.6,0.6
2026-06-03T2300,4308A,107.3898,34.3601,宝鸡市,陈仓区北开路21号,颗粒物(PM10),70,78,70,33,29,44,44,110,79,26,20,31,37,0.4,0.4
2026-06-03T2300,1051A,115.4803,38.8568,保定市,游泳馆,,25,22,36,10,23,77,77,146,108,7,7,2,4,0.1,0.2
2026-06-03T2300,1052A,115.509,38.8895,保定市,华电二区,,26,20,41,18,22,64,64,144,99,10,22,3,3,0.4,0.6
2026-06-03T2300,1053A,115.4588,38.9037,保定市,接待中心,,30,30,44,7,24,67,67,148,104,8,7,3,2,0.3,0.4
2026-06-03T2300,1054A,115.4484,38.8344,保定市,地表水厂,,26,26,42,13,21,80,80,152,112,6,7,2,3,0.3,0.4
2026-06-03T2300,3581A,115.3136,38.9511,保定市,满城区生态环境分局,NA,NA,24,63,9,24,NA,NA,146,112,8,3,2,2,0.1,0.2
2026-06-03T2300,3582A,115.4709,38.7628,保定市,清苑区第二中学,,29,29,67,9,24,82,82,147,110,6,10,2,3,0.2,0.3
2026-06-03T2300,3583A,115.6231,39.0223,保定市,徐水物探局,,19,19,49,12,24,59,59,139,95,12,12,2,3,0.3,0.4
2026-06-03T2300,4004A,115.4199,38.8665,保定市,双鹰农机,,20,17,43,13,25,64,64,157,121,9,7,1,2,0.1,0.2
2026-06-03T2300,4034A,115.515,38.8589,保定市,植保所站,,32,32,50,8,17,80,80,155,114,8,9,5,5,0.0,0.2
2026-06-03T2300,2594A,99.1589,25.1137,保山市,市环境监测站,,22,22,11,10,6,49,49,61,60,9,8,5,5,0.3,0.3
2026-06-03T2300,2595A,99.1616,25.1381,保山市,市环保局,,17,16,12,11,12,53,53,63,62,3,6,4,4,0.5,0.5
2026-06-03T2300,1867A,109.1435,21.4085,北海市,海滩公园,,37,37,33,10,10,61,61,78,74,5,5,1,1,0.2,0.3
2026-06-03T2300,1868A,109.0983,21.466,北海市,新市环保局,,20,10,17,10,14,64,64,84,76,6,5,3,2,0.3,0.4
2026-06-03T2300,1869A,109.1775,21.5232,北海市,北海工业园,,16,11,19,9,13,50,50,77,71,6,5,2,1,0.4,0.4
2026-06-03T2300,3400A,109.1844,21.4396,北海市,龙潭自来水厂,,18,15,16,7,7,56,56,77,72,5,5,3,3,0.5,0.6
2026-06-03T2300,1001A,116.3611,39.8786,北京市,万寿西宫,,32,16,37,7,17,100,100,155,94,9,11,3,4,0.2,0.4
2026-06-03T2300,1003A,116.4174,39.9289,北京市,东四,,31,17,68,7,20,97,97,154,92,9,11,4,5,0.2,0.4
2026-06-03T2300,1004A,116.4073,39.8858,北京市,天坛,,25,18,36,6,15,79,79,139,87,12,12,1,2,0.4,0.5
2026-06-03T2300,1005A,116.4622,39.9364,北京市,农展馆,,29,16,46,7,20,92,92,141,86,10,14,3,4,0.2,0.4
2026-06-03T2300,1006A,116.3399,39.9293,北京市,官园,,30,15,43,6,18,93,93,143,84,10,16,5,6,0.2,0.4
2026-06-03T2300,1007A,116.2879,39.9613,北京市,海淀万柳,,21,13,36,6,17,66,66,124,71,11,18,3,4,0.2,0.3
2026-06-03T2300,1008A,116.6635,40.1349,北京市,顺义新城,,24,21,46,3,22,75,75,138,85,11,10,4,6,0.4,0.5
2026-06-03T2300,1009A,116.6275,40.327,北京市,怀柔镇,,36,36,35,18,17,52,52,119,78,22,6,3,3,0.4,0.3
2026-06-03T2300,1010A,116.2295,40.217,北京市,昌平镇,,19,19,35,8,18,56,56,136,80,17,16,4,4,0.6,0.7
2026-06-03T2300,1011A,116.3968,39.982,北京市,奥体中心,,27,17,46,7,22,86,86,126,78,11,14,3,4,0.1,0.3
2026-06-03T2300,3418A,116.8336,40.4095,北京市,密云新城,,30,30,26,13,14,58,58,126,84,16,7,2,3,0.4,0.3
2026-06-03T2300,3671A,116.0879,39.9725,北京市,门头沟三家店,,25,22,34,9,17,78,78,138,79,14,19,1,1,0.4,0.4
2026-06-03T2300,3672A,116.1507,39.8246,北京市,丰台云岗,,24,24,41,11,17,65,65,144,75,11,9,3,3,0.3,0.4
2026-06-03T2300,3674A,115.9578,39.7602,北京市,房山燕山,,32,32,38,14,18,45,45,143,53,8,7,2,2,0.1,0.2
2026-06-03T2300,3675A,116.4669,39.7734,北京市,大兴旧宫,,23,20,48,10,22,73,73,141,67,10,10,1,3,0.4,0.5
2026-06-03T2300,3694A,115.9859,40.4562,北京市,延庆石河营,,17,12,23,6,18,52,52,113,75,17,11,2,2,0.3,0.4
2026-06-03T2300,3695A,116.6151,40.3052,北京市,怀柔新城,,30,30,33,13,19,52,52,109,78,25,9,2,3,0.5,0.4
2026-06-03T2300,3696A,116.2542,39.8764,北京市,丰台小屯,,23,18,39,8,18,73,73,135,80,10,10,2,3,0.4,0.5
2026-06-03T2300,3697A,116.8399,40.3843,北京市,密云镇,,33,33,32,13,14,55,55,121,84,16,8,2,3,0.6,0.5
2026-06-03T2300,4057A,115.9423,40.4431,北京市,延庆百泉,,18,18,32,9,18,50,50,116,79,13,8,1,1,0.3,0.4
2026-06-03T2300,4058A,116.6598,39.9164,北京市,通州新华,,25,22,51,8,23,77,77,129,77,7,10,2,3,0.4,0.5
2026-06-03T2300,4182A,116.1942,39.9158,北京市,石景山八角,,26,17,38,7,16,83,83,117,86,7,13,4,3,0.1,0.2
2026-06-03T2300,4194A,117.078628,40.151726,北京市,平谷新城,,32,32,43,14,20,50,50,143,70,17,9,4,4,0.6,0.5
2026-06-03T2300,1761A,123.8274146,41.31234549,本溪市,大峪,NA,NA,47,58,27,31,NA,NA,94,NA,18,28,6,9,0.6,1.2
2026-06-03T2300,1763A,123.7169,41.3094,本溪市,彩屯,细颗粒物(PM2.5),58,NA,49,39,37,48,48,93,70,23,24,6,8,1.0,1.1
2026-06-03T2300,1764A,123.7672166,41.28649327,本溪市,东明,细颗粒物(PM2.5),64,NA,49,42,38,68,68,101,82,20,32,6,11,0.7,1.5
2026-06-03T2300,1765A,123.799345,41.266614,本溪市,新立屯,,35,NA,44,24,32,44,44,105,75,13,28,7,11,0.7,1.3
2026-06-03T2300,1766A,123.829144,41.336777,本溪市,威宁,,43,NA,48,30,34,19,19,93,57,41,26,8,9,0.7,1.1
2026-06-03T2300,2587A,105.287,27.3133,毕节市,八中,,29,29,32,12,18,66,66,106,94,10,7,6,7,0.5,0.5
2026-06-03T2300,2588A,105.3079,27.2987,毕节市,师专,,33,26,30,23,18,85,85,100,96,6,5,4,5,0.5,0.5
2026-06-03T2300,4263A,105.3688,27.3598,毕节市,工业大道,,28,28,28,18,16,68,68,113,98,13,7,7,7,/,/
2026-06-03T2300,1629A,117.9961,37.3604,滨州市,第二水厂,,35,9,79,3,34,112,112,234,173,4,19,5,8,0.4,0.7
2026-06-03T2300,1630A,117.9789,37.3931,滨州市,北中新校,,37,24,67,3,32,118,118,238,174,8,23,6,9,0.3,0.7
2026-06-03T2300,3514A,117.9379,37.3959,滨州市,中海酒店,,41,7,62,6,35,129,129,237,173,10,24,6,11,0.3,0.6
2026-06-03T2300,3515A,117.9381509,37.35547456,滨州市,开发区一中,颗粒物(PM10),56,58,61,3,35,118,118,237,168,7,24,5,11,0.3,0.7
2026-06-03T2300,3516A,118.0914,37.6938,滨州市,金海六路,,35,NA,59,6,26,109,109,186,137,6,18,4,7,0.2,0.4
2026-06-03T2300,4028A,117.9955,37.3752,滨州市,滨州市西街道办事处,,37,6,66,3,33,118,118,229,171,2,18,4,7,0.6,0.9
2026-06-03T2300,2311A,115.8071,33.8399,亳州市,污水处理厂,NA,NA,61,65,43,42,NA,NA,162,162,11,13,4,5,0.3,0.3
2026-06-03T2300,2312A,115.7789,33.8519,亳州市,三国揽胜宫,颗粒物(PM10),73,81,81,43,41,142,142,167,164,6,8,3,5,0.4,0.3
2026-06-03T2300,3332A,115.7631,33.803,亳州市,亳州学院,颗粒物(PM10),65,71,68,41,46,121,121,149,149,8,9,3,5,0.4,0.3
2026-06-03T2300,2693A,82.0482,44.8553,博尔塔拉蒙古自治州,市党校,NA,NA,NA,29,NA,6,NA,NA,114,114,7,5,2,3,NA,0.3
2026-06-03T2300,2694A,82.0805,44.8966,博尔塔拉蒙古自治州,市环保局,颗粒物(PM10),68,74,31,23,11,120,120,114,113,4,7,6,6,0.3,0.3
2026-06-03T2300,1071A,116.8733,38.2922,沧州市,沧县城建局,,31,NA,74,18,43,97,97,189,118,4,14,4,9,0.3,0.7
2026-06-03T2300,1072A,116.8462,38.3189,沧州市,电视转播站,,33,33,79,14,39,84,84,155,83,13,21,6,6,0.2,0.4
2026-06-03T2300,1073A,116.8588,38.3161,沧州市,市环保局,,36,36,96,8,48,98,98,189,121,2,16,2,5,0.1,0.4
2026-06-03T2300,3324A,116.8011,38.294,沧州市,河北水利电力学院,,32,NA,68,11,40,102,102,165,114,4,14,4,8,0.1,0.5
2026-06-03T2300,2622A,97.1813,31.1289,昌都市,昌都监测站,,22,19,6,3,3,70,70,107,84,6,6,5,5,0.5,0.5
2026-06-03T2300,3719A,97.1707,31.1428,昌都市,昌都会议中心,,23,NA,6,14,4,71,71,110,90,4,4,7,6,0.4,0.4
2026-06-03T2300,2692A,87.2722,44.0298,昌吉回族自治州,新区政务中心,,36,NA,29,25,13,57,57,108,100,31,9,7,6,0.4,0.2
2026-06-03T2300,3613A,87.3069,44.0093,昌吉回族自治州,亚心广场,NA,NA,58,44,24,13,NA,NA,118,118,59,15,7,6,0.5,0.1
2026-06-03T2300,4164A,87.2057,43.9289,昌吉回族自治州,财政所,,41,41,38,24,10,67,67,114,106,8,5,4,4,0.3,0.2
2026-06-03T2300,1120A,125.2874,43.9024,长春市,客车厂,,20,NA,18,14,11,43,43,48,47,27,36,8,7,0.4,0.3
2026-06-03T2300,1121A,125.2943,43.8508,长春市,邮电学院,,35,NA,14,24,10,22,22,54,34,25,24,6,7,0.4,0.5
2026-06-03T2300,1122A,125.3648,43.8745,长春市,劳动公园,,20,NA,17,14,11,37,37,52,48,34,33,6,7,0.3,0.3
2026-06-03T2300,1123A,125.3233,43.8781,长春市,园林处,,32,NA,15,22,11,34,34,53,50,32,26,3,4,0.4,0.5
2026-06-03T2300,1124A,125.4604,43.7904,长春市,净月潭,,14,10,11,3,2,22,22,54,24,27,21,4,5,0.3,0.3
2026-06-03T2300,1126A,125.38,43.8422,长春市,经开区环卫处,,22,19,17,15,10,33,33,46,39,32,38,5,6,0.3,0.4
2026-06-03T2300,1127A,125.234,43.7761,长春市,高新区管委会,,29,20,17,20,10,25,25,52,34,38,29,6,7,0.5,0.5
2026-06-03T2300,1128A,125.1695,43.83,长春市,岱山公园,,21,16,18,14,9,32,32,59,40,42,34,4,4,0.3,0.4
2026-06-03T2300,4281A,125.334645,43.916281,长春市,北亚泰大街1068号,,22,NA,16,14,10,29,29,55,50,43,32,5,6,0.4,0.4
2026-06-03T2300,1335A,113.082,28.2421,长沙市,经开区环保局,,34,34,57,16,42,38,38,123,60,23,14,3,5,0.6,0.7
2026-06-03T2300,1336A,112.8873,28.2202,长沙市,高开区环保局,,30,30,47,17,32,47,47,113,60,11,9,12,13,0.5,0.6
2026-06-03T2300,1337A,113.0785,28.2012,长沙市,马坡岭,,32,31,57,22,43,34,34,122,60,22,15,6,7,0.8,0.8
2026-06-03T2300,1338A,112.9448,28.1894,长沙市,湖南师范大学,,35,35,48,17,33,31,31,119,51,17,9,8,6,0.7,0.7
2026-06-03T2300,1339A,113.0177,28.1322,长沙市,雨花区环保局,,30,28,53,21,39,46,46,113,56,15,12,4,5,1.0,1.1
2026-06-03T2300,1340A,112.9795,28.2593,长沙市,伍家岭,,36,36,53,16,37,34,34,116,54,21,15,3,4,0.4,0.7
2026-06-03T2300,1341A,113.002,28.1944,长沙市,火车新站,NA,NA,26,52,16,39,52,52,109,60,14,15,NA,10,0.5,0.6
2026-06-03T2300,1342A,112.9846,28.1177,长沙市,天心区环保局,,50,40,52,35,42,39,39,122,61,37,20,4,5,0.5,0.5
2026-06-03T2300,1343A,112.8906,28.1307,长沙市,湖南中医药大学,,33,33,47,18,34,33,33,117,47,18,13,5,6,0.4,0.5
2026-06-03T2300,1727A,113.1146,36.1547,长治市,清华站,颗粒物(PM10),69,76,55,27,21,76,76,156,126,16,16,9,10,1.1,0.6
2026-06-03T2300,1730A,113.0887,36.2126,长治市,审计局,,48,48,55,21,21,82,82,152,126,18,14,16,10,1.0,0.6
2026-06-03T2300,1731A,113.0845,36.1856,长治市,长治八中,颗粒物(PM10),118,165,73,NA,25,79,79,150,NA,24,20,16,12,1.3,0.6
2026-06-03T2300,2845A,113.1561,36.1912,长治市,德盛苑,颗粒物(PM10),53,53,51,18,22,101,101,162,138,15,12,11,12,0.4,0.5
2026-06-03T2300,3568A,113.0603,36.0464,长治市,向阳小学,颗粒物(PM10),82,94,87,19,22,81,81,165,143,26,10,14,15,0.8,0.7
2026-06-03T2300,3569A,112.8788,36.315,长治市,屯留一中,,32,32,50,16,24,77,77,143,123,45,22,9,11,0.7,0.9
2026-06-03T2300,4189A,113.113092,36.199482,长治市,英华南巷50号,颗粒物(PM10),77,87,67,32,25,83,83,156,128,17,13,12,10,2.2,0.9
2026-06-03T2300,4190A,113.23666,36.33435,长治市,学府街1号,,42,42,70,16,22,88,88,162,127,18,20,2,4,0.5,0.7
2026-06-03T2300,1854A,111.696,28.9725,常德市,市二中,,14,14,26,3,17,29,29,52,44,10,6,7,7,1.1,1.2
2026-06-03T2300,3138A,111.7152,29.0288,常德市,武陵区永安,,14,14,25,3,14,36,36,57,48,2,3,6,6,0.7,0.8
2026-06-03T2300,3139A,111.6891,28.9881,常德市,鼎城区玉霞,,14,14,27,3,19,29,29,51,42,8,8,8,8,1.0,1
2026-06-03T2300,3140A,111.6651,29.0526,常德市,武陵区长庚,,16,16,22,8,17,30,30,51,44,6,4,8,7,0.6,0.8
2026-06-03T2300,1196A,119.9524,31.7586,常州市,市监测站,细颗粒物(PM2.5),74,60,59,47,38,49,49,121,77,22,34,3,4,0.5,0.5
2026-06-03T2300,1200A,119.9351,31.703,常州市,武进监测站,细颗粒物(PM2.5),84,NA,59,52,41,53,53,119,81,13,24,13,12,0.5,0.7
2026-06-03T2300,3002A,119.9701,31.813,常州市,行政中心,细颗粒物(PM2.5),80,NA,49,50,37,59,59,122,86,14,27,6,8,0.5,0.6
2026-06-03T2300,3003A,120.0434,31.7726,常州市,经开区,细颗粒物(PM2.5),80,54,70,50,40,56,56,125,84,20,34,5,7,1.1,1.1
2026-06-03T2300,3010A,119.8919,31.7892,常州市,钟楼,细颗粒物(PM2.5),88,60,67,54,39,70,70,130,96,18,30,10,10,0.4,0.6
2026-06-03T2300,3429A,119.8595,31.706,常州市,武进经发区,颗粒物(PM10),67,73,71,33,34,38,38,115,66,18,16,7,10,1.0,1
2026-06-03T2300,3430A,119.5812,31.7256,常州市,金坛城区,NA,NA,NA,56,NA,36,NA,NA,119,84,NA,19,10,8,0.9,0.9
2026-06-03T2300,4089A,119.9551,31.863,常州市,崇义南街5-H号,细颗粒物(PM2.5),74,NA,51,47,33,72,72,132,99,17,25,8,10,0.8,0.9
2026-06-03T2300,2220A,120.4318,41.588,朝阳市,西梁,NA,NA,30,32,11,17,NA,NA,89,82,22,18,6,9,0.5,0.5
2026-06-03T2300,2221A,120.452,41.565,朝阳市,河畔小区,,32,NA,28,22,18,45,45,88,70,14,15,8,10,0.4,0.4
2026-06-03T2300,2222A,120.4176,41.5648,朝阳市,八里堡,,28,25,33,19,25,40,40,95,78,22,18,4,6,0.8,0.8
2026-06-03T2300,3026A,116.6179,23.6608,潮州市,市政府,,40,38,40,28,23,46,46,106,72,19,14,6,7,1.1,1
2026-06-03T2300,4036A,116.646,23.676,潮州市,金山,,40,32,35,28,24,55,55,107,78,13,8,4,3,0.7,0.7
2026-06-03T2300,2473A,113.0116,25.8228,郴州市,市职中,,43,43,29,14,20,9,9,90,49,22,10,6,6,0.6,0.5
2026-06-03T2300,2475A,113.0381,25.8074,郴州市,市审计局,,38,34,26,26,22,21,21,96,54,20,11,3,3,/,/
2026-06-03T2300,2476A,113.0348,25.7757,郴州市,市环保局,NA,NA,NA,22,NA,23,40,40,102,60,NA,10,33,7,0.7,0.7
2026-06-03T2300,4252A,113.0138,25.8011,郴州市,好美居路49号,,34,34,25,12,14,16,16,94,53,28,11,5,3,/,/
2026-06-03T2300,1431A,103.9727,30.7242,成都市,金泉两河,颗粒物(PM10),54,55,34,14,23,37,37,169,132,44,14,2,2,0.7,0.3
2026-06-03T2300,1432A,104.1423,30.6765,成都市,十里店,颗粒物(PM10),58,60,38,23,23,65,65,167,147,52,15,5,5,0.6,0.4
2026-06-03T2300,1433A,104.0594,30.5765,成都市,三瓦窑,,49,49,37,20,23,38,38,155,124,75,19,5,5,1.0,0.7
2026-06-03T2300,1434A,104.1122,30.6306,成都市,沙河铺,,48,48,39,21,23,47,47,140,114,52,17,5,5,0.9,0.5
2026-06-03T2300,2880A,104.0219,30.6561,成都市,大石西路,颗粒物(PM10),53,54,45,22,29,62,62,149,123,41,18,4,4,0.6,0.4
2026-06-03T2300,3136A,104.2724,30.559,成都市,龙泉驿区区政府,,40,27,24,18,23,127,127,148,138,10,9,7,7,0.6,0.6
2026-06-03T2300,3357A,104.0028,30.6891,成都市,金博路,,38,38,33,16,23,49,49,169,139,61,18,6,6,0.6,0.3
2026-06-03T2300,3359A,104.056,30.5228,成都市,华阳,,39,39,31,21,22,53,53,154,132,42,11,1,2,0.8,0.5
2026-06-03T2300,3488A,104.387954,30.746684,成都市,青白江技师分院,,40,40,35,20,26,114,114,150,145,20,12,4,4,0.5,0.4
2026-06-03T2300,3489A,104.0788,30.4054,成都市,科学城,,36,25,25,18,19,114,114,151,142,13,9,5,5,0.7,0.7
2026-06-03T2300,4011A,103.8505,30.6946,成都市,光华大道三段,,46,46,42,20,25,55,55,154,124,45,13,4,4,0.6,0.3
2026-06-03T2300,4144A,104.3257,30.6406,成都市,八角井街185号,颗粒物(PM10),53,53,40,16,23,124,124,143,140,13,10,4,4,0.4,0.5
2026-06-03T2300,4224A,104.2433276,30.53529463,成都市,鲸龙路1057号,,42,28,31,15,21,133,133,155,137,14,13,7,6,0.5,0.6
2026-06-03T2300,1062A,117.9531,40.908,承德市,铁路,,26,26,26,6,10,24,24,83,59,12,10,2,2,0.2,0.2
2026-06-03T2300,1063A,117.9397,40.9763,承德市,中国银行,,12,12,21,3,6,17,17,76,57,11,6,1,2,0.2,0.2
2026-06-03T2300,4073A,117.9462,40.95,承德市,杏林街1号,,16,14,24,11,15,20,20,79,60,18,8,2,2,0.1,0.1
2026-06-03T2300,4274A,117.7994,40.9605,承德市,滨河大街98号,,12,12,18,3,10,14,14,82,46,10,7,2,2,0.1,0.1
2026-06-03T2300,2314A,117.4698,30.6617,池州市,池州学院,,19,19,29,13,24,41,41,98,65,11,14,4,4,0.7,0.9
2026-06-03T2300,3237A,117.4918,30.6617,池州市,展览馆,,20,20,35,12,22,43,43,82,58,8,11,2,2,0.6,0.7
2026-06-03T2300,3333A,117.5626,30.695,池州市,第八中学,,28,25,34,19,24,23,23,81,54,15,12,3,3,0.7,0.7
2026-06-03T2300,3334A,117.5037,30.6242,池州市,第十二中学,,17,17,32,11,23,26,26,65,44,13,15,3,3,1.0,1.1
2026-06-03T2300,1744A,118.9229,42.2816,赤峰市,松山一中,,29,29,10,18,6,32,32,83,65,34,15,10,9,0.6,0.4
2026-06-03T2300,1745A,118.9588,42.2733,赤峰市,哈达街,,22,22,12,12,7,23,23,71,58,37,14,10,10,0.6,0.4
2026-06-03T2300,1746A,118.8792,42.2551,赤峰市,天义路,,16,NA,8,11,7,25,25,66,49,28,14,5,5,0.3,0.3
2026-06-03T2300,3058A,119.2656,42.0356,赤峰市,银河街,,31,31,16,18,10,19,19,77,48,22,11,9,8,0.8,0.6
2026-06-03T2300,3286A,118.9359,42.3146,赤峰市,桥北物流园区,,28,24,14,19,9,8,8,62,43,48,17,3,4,0.5,0.3
2026-06-03T2300,2521A,107.3473,22.4137,崇左市,市环保局江州分局,,38,38,30,26,18,78,78,115,107,8,10,6,7,0.7,0.6
2026-06-03T2300,4256A,107.375,22.3736,崇左市,石景林东路7号,,45,NA,26,31,18,73,73,112,100,11,11,2,4,0.6,0.6
2026-06-03T2300,3207A,118.31131,32.3033,滁州市,市政府原办公楼,细颗粒物(PM2.5),60,NA,63,40,69,71,71,141,112,14,26,5,7,0.8,0.8
2026-06-03T2300,3331A,118.3268,32.2633,滁州市,图书馆,,43,41,81,30,52,58,58,135,99,13,23,10,10,0.8,0.8
2026-06-03T2300,4101A,118.3196,32.3335,滁州市,银山路666号,,35,27,72,24,54,68,68,137,105,15,30,6,8,0.7,0.6
2026-06-03T2300,4102A,118.3426,32.2979,滁州市,黄山路555号,,48,NA,91,33,59,68,68,146,108,7,30,7,11,0.8,0.9
2026-06-03T2300,2606A,101.5379,25.0492,楚雄彝族自治州,市经济开发区,,22,20,11,15,8,52,52,54,53,5,7,1,2,0.7,0.6
2026-06-03T2300,4153A,101.5536,25.0343,楚雄彝族自治州,团结路562号,,20,13,10,7,7,61,61,62,62,4,3,2,4,0.5,0.5
2026-06-03T2300,2549A,107.5087,31.2186,达州市,市环境监测站,,47,47,41,23,22,23,23,113,84,43,23,6,7,0.6,0.4
2026-06-03T2300,2550A,107.4988,31.2132,达州市,凤凰小区,颗粒物(PM10),56,58,44,27,23,6,6,104,76,57,23,5,5,0.7,0.4
2026-06-03T2300,2551A,107.5081,31.1987,达州市,达县机关宾馆,颗粒物(PM10),58,61,48,26,28,0,0,108,70,62,31,4,5,0.4,0.4
2026-06-03T2300,2552A,107.4644,31.2124,达州市,市政中心,颗粒物(PM10),63,67,49,26,22,2,2,107,77,71,28,4,4,0.7,0.5
2026-06-03T2300,2614A,100.2168,25.5818,大理白族自治州,大理市环境监测站,,22,11,8,7,5,68,68,66,64,7,6,3,3,0.4,0.4
2026-06-03T2300,2615A,100.1542,25.7055,大理白族自治州,大理古城,,17,13,10,6,6,54,54,75,69,10,6,10,10,0.7,0.6
2026-06-03T2300,1109A,121.6119,38.974,大连市,甘井子,,25,20,21,17,15,49,49,63,56,19,15,8,8,0.5,0.5
2026-06-03T2300,1110A,121.565,38.9509,大连市,周水子,,19,19,23,11,18,55,55,60,56,14,17,5,6,0.3,0.3
2026-06-03T2300,1111A,121.5637,38.8849,大连市,星海三站,,27,27,29,12,12,74,74,70,66,5,9,3,3,0.7,0.6
2026-06-03T2300,1112A,121.6301,38.9117,大连市,青泥洼桥,,24,24,23,14,15,60,60,70,62,9,12,6,5,0.4,0.4
2026-06-03T2300,1113A,121.6248,38.8643,大连市,傅家庄,,22,15,16,15,13,66,66,65,65,4,8,6,7,0.3,0.3
2026-06-03T2300,1114A,121.5117,38.8636,大连市,七贤岭,,26,26,33,13,15,68,68,63,63,6,12,5,6,0.2,0.4
2026-06-03T2300,1116A,121.7507,39.1339,大连市,金州,,33,33,31,16,17,65,65,74,68,12,9,10,10,0.5,0.5
2026-06-03T2300,1117A,121.7811,39.0495,大连市,开发区,,29,23,25,20,18,53,53,58,57,16,17,8,8,0.4,0.3
2026-06-03T2300,1118A,121.9762,39.0631,大连市,双D港,,19,8,14,8,15,58,58,54,51,6,10,5,5,0.6,0.6
2026-06-03T2300,4082A,121.2548,38.8188,大连市,旅顺,NA,NA,19,24,12,17,NA,NA,70,NA,4,8,8,8,0.3,0.3
2026-06-03T2300,1789A,124.8085,46.0381,大庆市,大同区,,20,20,23,6,9,57,57,88,81,25,18,4,4,0.3,0.4
2026-06-03T2300,1790A,125.1166,46.5255,大庆市,龙凤区,,28,28,29,10,14,50,50,82,73,14,10,4,3,0.2,0.2
2026-06-03T2300,1791A,124.8894,46.4007,大庆市,红岗区,,44,44,38,8,8,58,58,86,74,9,10,8,8,0.3,0.3
2026-06-03T2300,1792A,125.1391,46.578,大庆市,萨尔图区,,23,23,23,7,9,58,58,82,74,11,10,4,4,0.3,0.3
2026-06-03T2300,1793A,124.9026,46.6217,大庆市,让胡路区,,23,23,44,9,8,63,63,93,81,14,9,3,3,0.4,0.4
2026-06-03T2300,3481A,125.127,46.6277,大庆市,萨区政府监测点,,24,24,21,9,10,61,61,96,82,7,6,9,9,0.3,0.3
2026-06-03T2300,1723A,113.2926,40.0759,大同市,云冈宾馆,,21,21,18,11,8,61,61,106,90,20,9,8,8,0.4,0.6
2026-06-03T2300,1724A,113.3437,40.0921,大同市,大同大学,,43,43,31,10,8,50,50,100,86,33,15,12,8,0.4,0.6
2026-06-03T2300,1725A,113.2637,40.129,大同市,安家小村,,25,25,21,6,7,75,75,104,91,8,9,4,10,0.2,0.4
2026-06-03T2300,3282A,113.3399,40.0586,大同市,大同市卫生学校,,23,21,25,8,10,73,73,109,100,17,13,8,8,0.2,0.6
2026-06-03T2300,3565A,113.1371,40.1122,大同市,云冈站,,16,14,25,7,9,49,49,98,81,22,9,6,8,0.4,0.5
2026-06-03T2300,3566A,113.1186,40.2556,大同市,图书馆,,19,17,22,7,7,59,59,94,84,13,8,7,8,0.7,0.5
2026-06-03T2300,3567A,113.5931,40.0459,大同市,区一中,,23,17,25,3,7,72,72,111,92,8,11,8,7,0.3,0.3
2026-06-03T2300,4199A,113.2798248,40.09972476,大同市,魏都大道141号,,38,38,29,15,16,67,67,104,90,18,12,8,7,1.2,0.5
2026-06-03T2300,2269A,124.1068,50.4091,大兴安岭地区,科技局,NA,NA,21,18,3,7,NA,NA,55,NA,6,4,6,7,0.0,0.3
2026-06-03T2300,3663A,124.117,50.4279,大兴安岭地区,红旗社区,,20,6,5,3,5,63,63,76,70,2,4,5,7,0.3,0.3
2026-06-03T2300,1600A,124.33,40.0625,丹东市,江湾东路,,20,14,26,8,18,63,63,77,62,6,12,4,4,0.3,0.3
2026-06-03T2300,1601A,124.4242,40.1513,丹东市,临江后街,,18,18,33,8,21,57,57,79,58,6,10,4,4,0.5,0.4
2026-06-03T2300,1602A,124.3935,40.1461,丹东市,元宝山,,17,17,26,7,19,51,51,68,52,7,12,4,5,0.4,0.5
2026-06-03T2300,1603A,124.3634,40.1093,丹东市,民主桥,,18,18,32,8,21,56,56,73,57,4,9,6,6,0.5,0.5
2026-06-03T2300,3541A,109.5726195,19.51688767,儋州市,第一中学子站,,36,36,27,13,14,61,61,78,72,7,6,3,3,0.4,0.7
2026-06-03T2300,3542A,109.5567,19.5187,儋州市,东坡学校子站,,24,24,23,15,14,58,58,82,73,8,5,2,3,0.7,0.7
2026-06-03T2300,2616A,98.5611,24.4273,德宏傣族景颇族自治州,德宏州监测站,,19,17,12,13,10,19,19,54,43,13,8,3,2,0.6,0.5
2026-06-03T2300,3677A,98.5887,24.4366,德宏傣族景颇族自治州,芒市人民政府综合楼,,44,44,33,23,11,19,19,54,43,11,9,5,5,0.5,0.6
2026-06-03T2300,1901A,104.424,31.1209,德阳市,东山公园,,42,33,29,14,26,132,132,160,157,11,12,3,3,0.4,0.5
2026-06-03T2300,1902A,104.3827,31.1318,德阳市,西小区,,47,47,49,19,25,82,82,146,136,32,22,7,7,0.7,0.7
2026-06-03T2300,1904A,104.3553,31.1091,德阳市,耐火材料厂,颗粒物(PM10),51,51,43,29,31,98,98,180,163,21,17,3,2,0.4,0.4
2026-06-03T2300,4145A,104.4144,31.1495,德阳市,市林业局,,42,42,37,20,26,88,88,175,151,42,22,8,7,0.7,0.7
2026-06-03T2300,1622A,116.3034,37.4675,德州市,儿童乐园,,34,NA,94,11,40,106,106,233,174,8,15,7,13,0.6,0.9
2026-06-03T2300,1624A,116.2992,37.4449,德州市,监理站,,35,NA,93,10,39,110,110,231,177,5,29,10,12,0.3,0.6
2026-06-03T2300,3066A,116.2722,37.438,德州市,九衢泉纯净水厂,,34,9,86,8,37,108,108,217,167,7,18,5,11,0.7,1
2026-06-03T2300,3371A,116.3693,37.44,德州市,开发区人民医院,,32,19,94,9,37,100,100,221,168,4,11,6,11,0.4,0.7
2026-06-03T2300,3511A,116.5687,37.3331,德州市,陵城艺术中心,,30,12,90,12,38,93,93,224,169,9,16,3,11,0.4,0.7
2026-06-03T2300,4292A,116.352738,37.420875,德州市,新河东路,,34,14,82,8,35,108,108,216,169,10,19,8,13,0.5,0.9
2026-06-03T2300,2621A,99.7054,27.8319,迪庆藏族自治州,迪庆州站,,26,18,14,9,6,81,81,88,87,10,7,8,8,0,0.4
2026-06-03T2300,3180A,99.7122,27.8129,迪庆藏族自治州,质量技术监督局,,29,17,15,9,6,92,92,89,89,11,8,9,9,0.3,0.3
2026-06-03T2300,4257A,104.6092,35.5962,定西市,将台街,颗粒物(PM10),58,61,65,32,28,81,81,128,116,23,17,3,5,0.2,0.2
2026-06-03T2300,4309A,104.6159,35.5701,定西市,正龙路62号,颗粒物(PM10),63,67,70,30,22,82,82,122,110,10,9,4,5,0.2,0.2
2026-06-03T2300,4071A,114.9883,38.5232,定州市,交通局,,25,24,66,15,26,77,77,166,118,9,12,7,8,0.2,0.3
2026-06-03T2300,4072A,115.0045,38.5136,定州市,第五中学,,24,23,67,9,25,74,74,158,112,7,10,2,3,0.2,0.3
2026-06-03T2300,1390A,113.7943,23.0132,东莞市,东城石井,,23,23,24,14,14,62,62,134,101,14,12,2,2,0.8,0.7
2026-06-03T2300,1391A,113.7384,22.9659,东莞市,南城西平,,24,23,22,7,10,74,74,126,98,10,9,1,2,0.6,0.6
2026-06-03T2300,3319A,113.7283,23.041,东莞市,万江金泰,,21,21,25,13,14,57,57,133,95,14,13,5,5,0.5,0.5
2026-06-03T2300,4129A,113.8666,23.1062,东莞市,裕兴路,,28,28,29,14,13,51,51,134,106,25,13,8,7,0.8,0.7
2026-06-03T2300,4130A,114.0076,22.9739,东莞市,教育路1号,,44,44,34,19,16,51,51,133,100,24,19,5,7,0.7,0.7
2026-06-03T2300,4131A,113.7981,22.8124,东莞市,长怡路1号,,28,28,26,14,12,67,67,114,89,15,11,4,4,0.6,0.6
2026-06-03T2300,1666A,118.6612,37.4313,东营市,市环保局,,32,6,37,3,15,100,100,160,136,7,12,2,6,0.2,0.3
2026-06-03T2300,3036A,118.6903,37.4337,东营市,开发区管委会,,32,24,37,3,16,100,100,155,133,7,16,7,9,0.2,0.5
2026-06-03T2300,3365A,118.5721,37.5654,东营市,垦利区民丰路,,30,9,38,3,18,93,93,168,138,4,13,10,15,0.4,0.5
2026-06-03T2300,3498A,118.5063,37.8606,东营市,河口城区,,35,27,39,3,18,110,110,162,131,3,11,3,6,0.4,0.7
2026-06-03T2300,3646A,118.4979,37.4623,东营市,胜利站,,38,38,56,3,31,95,95,155,132,3,14,6,9,0.5,0.8
2026-06-03T2300,3734A,118.5753,37.4405,东营市,理想之城,,29,6,33,3,16,91,91,162,134,3,11,6,11,0.2,0.5
2026-06-03T2300,1591A,110.0024,39.8127,鄂尔多斯市,综合楼,,29,19,51,9,14,90,90,99,99,14,24,6,10,0.4,0.5
2026-06-03T2300,1592A,109.9485,39.8259,鄂尔多斯市,巴音孟克林场办事处,,31,31,49,8,11,87,87,107,105,14,20,5,8,0.5,0.6
2026-06-03T2300,1593A,109.7734,39.5987,鄂尔多斯市,康泽苑,,28,17,39,9,12,88,88,104,102,10,10,5,7,0.2,0.3
2026-06-03T2300,1594A,109.8121,39.5987,鄂尔多斯市,华泰汽车城,,24,17,37,8,10,75,75,94,91,14,17,8,10,0.4,0.4
2026-06-03T2300,1595A,109.9734,39.7884,鄂尔多斯市,奥林花园,,48,48,51,14,13,96,96,104,104,11,21,5,8,0.2,0.3
2026-06-03T2300,2436A,114.894,30.3989,鄂州市,市政府,,41,41,39,24,22,60,60,95,80,14,11,12,6,0.9,0.8
2026-06-03T2300,2437A,114.8986,30.3714,鄂州市,赵家坝,,47,47,40,22,20,64,64,99,85,5,8,7,7,0.6,0.7
2026-06-03T2300,3654A,114.8093,30.4091,鄂州市,精准医疗中心,,40,36,38,28,24,64,64,104,86,10,12,3,4,0.7,0.8
2026-06-03T2300,2454A,109.4978,30.2979,恩施土家族苗族自治州,湖北民院,NA,NA,30,24,27,17,16,16,60,50,NA,4,9,9,0.6,0.5
2026-06-03T2300,3549A,109.5061,30.3771,恩施土家族苗族自治州,龙凤新区,,33,26,24,23,16,2,2,48,38,16,10,7,7,0.6,0.5
2026-06-03T2300,2499A,108.3411,21.6159,防城港市,沙万,,18,18,27,12,14,52,52,49,49,6,6,4,4,0.6,0.5
2026-06-03T2300,2500A,108.3515,21.7733,防城港市,防城档案局,,22,22,19,14,10,46,46,59,55,6,4,5,6,0.5,0.4
2026-06-03T2300,2501A,108.3506,21.6414,防城港市,大海花园,,25,25,21,14,10,60,60,59,59,4,3,5,5,0.5,0.5
2026-06-03T2300,1371A,113.1293,23.0065,佛山市,湾梁,,22,19,30,15,17,56,56,135,99,10,10,/,/,/,/
2026-06-03T2300,1372A,113.1082,23.0477,佛山市,华材职中,,28,19,26,19,17,53,53,131,97,6,5,6,6,0.3,0.3
2026-06-03T2300,1373A,113.1439,23.045,佛山市,南海气象局,,20,15,28,14,15,55,55,128,96,14,12,/,/,/,/
2026-06-03T2300,1374A,113.2879,22.8094,佛山市,顺德苏岗,,26,26,17,14,17,60,60,123,90,12,10,/,/,0.7,0.7
2026-06-03T2300,1376A,112.8384,22.8678,佛山市,高明孔堂,,20,20,24,12,15,58,58,97,81,6,5,/,/,/,/
2026-06-03T2300,1377A,112.8835,23.1584,佛山市,三水监测站,,25,NA,30,17,23,42,42,115,86,11,13,3,6,0.7,0.8
2026-06-03T2300,1378A,112.8668,23.185,佛山市,三水云东海,颗粒物(PM10),58,60,59,24,21,47,47,123,96,11,9,/,/,/,/
2026-06-03T2300,3625A,113.2568,22.7629,佛山市,容桂街道办,,25,NA,21,17,20,53,53,108,78,13,14,/,/,/,/
2026-06-03T2300,1282A,119.2681,26.0506,福州市,师大,,41,41,61,23,36,70,70,168,97,15,17,4,4,0.5,0.5
2026-06-03T2300,1283A,119.2983,26.1028,福州市,五四北路,,35,35,60,23,40,71,71,172,102,14,20,5,5,0.2,0.2
2026-06-03T2300,1284A,119.2648,26.0769,福州市,杨桥西路,,38,38,57,21,39,71,71,170,96,14,16,4,4,/,/
2026-06-03T2300,3048A,119.5799,26.0937,福州市,九龙,,32,32,49,18,36,73,73,149,103,9,14,6,6,0.3,0.3
2026-06-03T2300,3526A,119.5188,25.9666,福州市,吴航,,32,32,47,18,29,66,66,142,98,12,13,7,6,0.6,0.6
2026-06-03T2300,4104A,119.3106,26.0648,福州市,路通桥巷6号,,41,41,60,27,40,65,65,165,97,12,14,/,/,/,/
2026-06-03T2300,1755A,123.7974,41.8494,抚顺市,望花区,细颗粒物(PM2.5),56,NA,35,38,42,43,43,68,46,23,40,14,16,0.6,0.8
2026-06-03T2300,1756A,123.9161,41.8827,抚顺市,顺城区,,45,NA,31,31,36,48,48,74,49,20,39,9,11,0.6,0.8
2026-06-03T2300,1757A,124.0437,41.8615,抚顺市,东洲区,,33,NA,31,23,36,57,57,79,62,15,27,10,10,0.5,0.7
2026-06-03T2300,1758A,123.9246,41.8638,抚顺市,新抚区,,39,NA,35,27,37,51,51,78,50,19,37,6,8,0.5,0.6
2026-06-03T2300,1759A,124.0972,41.8961,抚顺市,大伙房水库,,28,NA,33,19,36,43,43,76,57,25,29,8,9,0.5,0.6
2026-06-03T2300,1760A,123.708,41.8386,抚顺市,沈抚新城,细颗粒物(PM2.5),60,NA,45,40,39,32,32,69,37,24,50,8,10,0.6,0.7
2026-06-03T2300,2377A,116.3544,27.9833,抚州市,市站,,30,30,42,11,25,44,44,80,65,9,9,3,7,0.9,0.8
2026-06-03T2300,2378A,116.3562,27.9631,抚州市,血防站,,26,26,38,13,26,42,42,78,60,10,8,1,2,0.5,0.6
2026-06-03T2300,2379A,116.3561,28.0007,抚州市,采茶剧团,,36,36,42,15,25,44,44,88,70,11,9,13,12,0.7,0.6
2026-06-03T2300,2380A,116.3854,27.9648,抚州市,医学分院,NA,NA,NA,47,14,26,40,40,77,57,8,7,6,6,0.7,1.2
2026-06-03T2300,2207A,121.6095,41.9978,阜新市,工业园区,,18,11,35,3,30,56,56,78,72,17,27,6,10,0.3,0.5
2026-06-03T2300,2208A,121.6567,42.0188,阜新市,长青街,,15,15,35,8,33,48,48,80,60,12,20,6,9,0.4,0.5
2026-06-03T2300,2209A,121.6672,42.07,阜新市,农业园区,,17,8,43,3,29,52,52,71,64,11,22,4,6,0.4,0.6
2026-06-03T2300,2211A,121.6343,42.0455,阜新市,玉龙新城,,22,22,36,3,33,37,37,71,61,17,26,5,7,0.6,0.7
2026-06-03T2300,2301A,115.8276,32.8929,阜阳市,市监测站,细颗粒物(PM2.5),109,94,78,69,53,84,84,150,124,10,6,5,5,0.5,0.4
2026-06-03T2300,2303A,115.8551,32.8606,阜阳市,开发区,细颗粒物(PM2.5),110,96,90,70,52,98,98,163,139,14,12,4,4,0.7,0.6
2026-06-03T2300,2875A,115.783962,32.889217,阜阳市,阜阳职业技术学院,细颗粒物(PM2.5),104,81,80,64,48,106,106,168,140,9,8,6,6,0.7,0.6
2026-06-03T2300,3468A,115.79,32.8614,阜阳市,市规划展馆,细颗粒物(PM2.5),123,105,79,85,54,98,98,171,140,18,12,7,7,1.0,0.8
2026-06-03T2300,3469A,115.835101,32.918568,阜阳市,枣园社区,细颗粒物(PM2.5),114,93,77,75,55,98,98,162,137,17,9,4,5,0.8,0.7
2026-06-03T2300,2669A,102.9097,34.9841,甘南藏族自治州,州政府,,27,22,34,3,15,84,84,105,90,13,9,3,3,0.4,0.2
2026-06-03T2300,3380A,102.8915,34.9618,甘南藏族自治州,甘肃民族师范学院,颗粒物(PM10),85,98,46,24,15,26,26,107,80,62,21,2,2,0.3,0.3
2026-06-03T2300,2570A,101.96,30.048,甘孜藏族自治州,水桥子,,16,11,9,11,4,18,18,59,43,26,13,6,7,0.3,0.3
2026-06-03T2300,3065A,101.9534,29.9976,甘孜藏族自治州,州环保局,,16,16,9,11,6,27,27,63,49,24,15,4,5,0.5,0.5
2026-06-03T2300,2363A,114.9368,25.8663,赣州市,地委,,37,37,31,22,18,58,58,114,85,14,5,2,2,0.9,1
2026-06-03T2300,2364A,114.946,25.8483,赣州市,气象台,,36,28,27,25,26,65,65,101,78,8,7,4,3,0.6,0.6
2026-06-03T2300,2365A,114.932,25.8332,赣州市,市图书馆,,36,31,28,25,20,78,78,114,91,7,5,6,4,0.7,0.8
2026-06-03T2300,2366A,114.8905,25.8472,赣州市,华坚鞋城,,30,30,32,20,20,75,75,114,90,10,9,1,1,0.4,0.6
2026-06-03T2300,3109A,115.0094,25.8614,赣州市,赣县区卫计委,,34,34,27,18,19,51,51,112,77,8,4,2,2,0.3,0.3
2026-06-03T2300,2684A,106.2753,36.0057,固原市,监测站,颗粒物(PM10),93,109,88,39,25,65,65,130,111,24,17,13,8,0.3,0.3
2026-06-03T2300,2685A,106.2384,36.0189,固原市,新区,颗粒物(PM10),84,97,81,31,21,46,46,125,99,39,14,6,7,0.4,0.3
2026-06-03T2300,2544A,106.6307,30.4577,广安市,市委,细颗粒物(PM2.5),64,53,38,42,31,80,80,133,120,23,14,9,9,0.6,0.5
2026-06-03T2300,2545A,106.6266,30.4662,广安市,友谊中学,细颗粒物(PM2.5),60,49,36,40,30,58,58,137,121,37,15,9,9,0.9,0.7
2026-06-03T2300,2547A,106.6386,30.4551,广安市,广电花园,细颗粒物(PM2.5),56,45,34,38,34,85,85,133,123,23,15,8,8,0.6,0.6
2026-06-03T2300,2902A,106.6347,30.4868,广安市,北辰小学,,50,48,42,35,33,72,72,140,127,19,14,8,10,0.6,0.6
2026-06-03T2300,2524A,105.8211,32.4444,广元市,老城,颗粒物(PM10),54,55,42,36,32,83,83,125,114,18,15,6,8,0.7,0.8
2026-06-03T2300,2526A,105.8629,32.429,广元市,监测站,颗粒物(PM10),63,68,54,36,32,81,81,118,107,18,15,10,10,0.5,0.6
2026-06-03T2300,3617A,105.8047,32.4167,广元市,经开区,,47,47,47,28,33,93,93,116,110,17,15,5,9,0.6,0.7
2026-06-03T2300,1345A,113.2346,23.1423,广州市,广雅中学,,29,29,29,17,17,48,48,129,95,16,11,3,2,0.7,0.6
2026-06-03T2300,1346A,113.2611,23.105,广州市,市五中,,29,21,26,20,19,59,59,147,121,14,10,3,3,/,/
2026-06-03T2300,1348A,113.3477,23.0916,广州市,广东商学院,NA,NA,NA,28,NA,18,NA,NA,143,110,21,17,4,5,0.6,0.5
2026-06-03T2300,1349A,113.4332,23.105,广州市,市八十六中,,19,19,23,13,16,34,34,135,74,31,23,6,6,/,/
2026-06-03T2300,1350A,113.3506,22.9488,广州市,番禺中学,,22,22,31,14,17,55,55,133,89,14,12,5,5,0.6,0.5
2026-06-03T2300,1351A,113.2147,23.3918,广州市,花都师范,,32,32,33,17,20,52,52,152,113,24,15,7,7,0.8,0.8
2026-06-03T2300,1352A,113.2599,23.1329,广州市,市监测站,,29,29,30,15,16,57,57,134,99,12,9,3,2,/,/
2026-06-03T2300,1353A,113.5618,23.3119,广州市,九龙镇镇龙,,22,22,32,13,19,43,43,153,106,25,21,7,7,0.8,0.8
2026-06-03T2300,1354A,113.2764,23.1544,广州市,麓湖,,28,28,27,17,16,60,60,138,105,14,9,7,7,0.7,0.6
2026-06-03T2300,2846A,113.3209,23.1323,广州市,体育西,,32,32,32,15,16,50,50,136,95,22,16,4,4,0.7,0.6
2026-06-03T2300,3298A,113.5718,23.5493,广州市,从化街口,,26,26,32,16,21,67,67,160,139,17,14,7,6,0.7,0.7
2026-06-03T2300,3299A,113.3463,23.369,广州市,白云竹料,,23,23,34,13,19,54,54,147,110,20,18,3,2,0.6,0.6
2026-06-03T2300,3300A,113.2981,23.2365,广州市,白云嘉禾,,28,28,32,17,18,48,48,140,100,26,16,8,8,/,/
2026-06-03T2300,3301A,113.4256,23.1716,广州市,黄埔科学城,,25,25,31,14,19,42,42,135,86,19,13,8,8,0.5,0.5
2026-06-03T2300,3302A,113.3942,23.0485,广州市,番禺大学城,,35,35,28,13,15,63,63,148,98,20,17,5,5,0.5,0.5
2026-06-03T2300,3303A,113.4923,22.8169,广州市,南沙黄阁,NA,NA,23,29,14,16,NA,NA,115,86,13,14,6,6,/,/
2026-06-03T2300,3304A,113.534,22.7893,广州市,南沙街,,23,23,26,11,14,66,66,101,79,10,11,6,6,0.4,0.4
2026-06-03T2300,3443A,113.2905,23.5541,广州市,花都梯面,,36,36,37,20,21,54,54,134,116,25,17,10,9,/,/
2026-06-03T2300,3445A,113.786,23.7479,广州市,从化良口,,36,30,27,25,22,100,100,140,134,15,11,4,4,/,/
2026-06-03T2300,3446A,113.805,23.2614,广州市,增城荔城,,19,19,30,10,18,54,54,153,114,19,13,6,6,0.6,0.6
2026-06-03T2300,2506A,109.604387,23.066791,贵港市,江南子站,,41,41,24,11,13,50,50,96,86,18,10,3,3,0.6,0.5
2026-06-03T2300,2508A,109.5669,23.1065,贵港市,荷城子站,,24,24,18,10,14,44,44,87,71,13,9,4,4,0.5,0.5
2026-06-03T2300,3405A,109.5886,23.1172,贵港市,新世纪学校,,24,24,21,15,12,54,54,96,80,11,9,/,/,0.5,0.4
2026-06-03T2300,4260A,109.5933,23.095,贵港市,中山路155-3号,,35,35,27,14,12,54,54,105,85,12,9,/,/,0.4,0.4
2026-06-03T2300,1439A,106.6863,26.6035,贵阳市,马鞍山,,26,24,22,18,16,60,60,96,85,10,9,6,7,/,/
2026-06-03T2300,1441A,106.6241,26.6266,贵阳市,鉴湖路,,31,31,33,20,16,82,82,112,103,12,9,8,6,0,0.4
2026-06-03T2300,1442A,106.7468,26.6344,贵阳市,燕子冲,,31,31,35,17,16,80,80,108,95,11,10,8,8,0.6,0.6
2026-06-03T2300,1443A,106.6556,26.4362,贵阳市,碧云窝,,34,34,40,17,19,86,86,132,116,9,10,5,6,/,/
2026-06-03T2300,1445A,106.6963,26.6063,贵阳市,红边门,,29,29,28,20,18,81,81,114,101,10,10,6,7,/,/
2026-06-03T2300,1446A,106.7162383,26.56964667,贵阳市,新华路,,34,34,34,17,16,80,80,118,107,11,11,8,34,0,0.3
2026-06-03T2300,1447A,106.6742,26.542,贵阳市,太慈桥,,35,29,27,24,18,76,76,112,103,13,12,4,4,/,/
2026-06-03T2300,4230A,106.688212,26.56952,贵阳市,花果园大街66号,NA,NA,24,16,24,21,NA,NA,112,110,13,10,4,4,/,/
2026-06-03T2300,4231A,106.687268,26.516892,贵阳市,漓江路57号,,33,29,26,23,19,77,77,116,101,12,12,4,2,0.7,0.7
2026-06-03T2300,1864A,110.3091,25.2705,桂林市,龙隐路小学,,40,NA,34,28,22,66,66,87,82,8,8,4,4,0.5,0.5
2026-06-03T2300,1865A,110.2849361,25.22909545,桂林市,八中,,20,16,36,14,14,59,59,91,83,14,12,4,4,0.5,0.5
2026-06-03T2300,3531A,110.296,25.1254,桂林市,旅游学院,,42,42,33,25,21,51,51,88,76,10,8,7,8,0.3,0.3
2026-06-03T2300,4222A,110.1835,25.2444,桂林市,环湖路276号,,42,36,31,29,26,76,76,96,92,18,13,4,5,0.3,0.4
2026-06-03T2300,4301A,110.2803,25.2773,桂林市,信义路13号,,33,26,36,23,24,73,73,89,86,11,9,4,5,0.5,0.5
2026-06-03T2300,2674A,100.2262,34.4854,果洛藏族自治州,玛沁县大武镇,颗粒物(PM10),54,55,36,25,17,69,69,109,99,7,2,15,16,0.3,0.3
2026-06-03T2300,1130A,126.5557,45.8109,哈尔滨市,松北商大,,24,NA,10,13,10,75,75,82,77,10,17,5,5,0.2,0.2
2026-06-03T2300,1132A,126.6162,45.719,哈尔滨市,南岗学府路,,21,21,25,3,8,60,60,78,70,21,30,6,7,0.4,0.4
2026-06-03T2300,1133A,126.6894,45.7733,哈尔滨市,太平宏伟公园,NA,NA,35,26,10,10,66,66,83,76,21,31,6,6,NA,0.3
2026-06-03T2300,1134A,126.6361,45.7672,哈尔滨市,道外承德广场,,36,36,31,3,7,68,68,77,72,17,24,5,5,0.2,0.3
2026-06-03T2300,1136A,126.644,45.7261,哈尔滨市,动力和平路,,21,15,23,3,7,65,65,77,72,17,30,5,6,0.4,0.5
2026-06-03T2300,1137A,126.5933,45.7479,哈尔滨市,道里建国路,,22,14,20,3,6,70,70,83,76,22,29,4,5,1.5,1.3
2026-06-03T2300,1138A,126.6127,45.6119,哈尔滨市,平房东轻厂,,22,8,11,3,5,69,69,81,74,11,18,8,8,0.5,0.5
2026-06-03T2300,1139A,126.5875,45.9827,哈尔滨市,呼兰师专,,21,21,22,8,12,65,65,78,69,20,26,6,6,0.3,0.3
2026-06-03T2300,1140A,126.6299,45.6799,哈尔滨市,省农科院,,20,18,50,8,16,38,38,61,50,39,31,6,7,0.4,0.4
2026-06-03T2300,4282A,126.6769,45.7379,哈尔滨市,华山路1号,,22,12,16,3,7,69,69,89,80,20,25,7,7,0.2,0.3
2026-06-03T2300,4283A,126.9717,45.5356,哈尔滨市,解放大街52号,,23,11,18,3,2,73,73,81,76,13,20,3,2,0.5,0.5
2026-06-03T2300,2688A,93.5124,42.8176,哈密市,地区监测站,,34,31,31,13,13,107,107,122,114,9,9,3,4,0.0,0.1
2026-06-03T2300,2689A,93.5014,42.8312,哈密市,哈密师范学校,,40,NA,40,28,17,100,100,118,106,17,14,4,4,0.1,0.1
2026-06-03T2300,2671A,100.9016,36.9464,海北藏族自治州,海晏县西海镇,,29,22,23,8,12,92,92,132,128,10,2,5,8,0.4,0.3
2026-06-03T2300,3867A,102.074,36.5056,海东市,平安区公安局北苑,,43,43,32,25,25,76,76,136,118,39,13,20,11,0.5,0.5
2026-06-03T2300,4163A,102.0984,36.5119,海东市,滨河路,,45,45,32,31,17,36,36,113,87,66,23,18,9,0.7,0.7
2026-06-03T2300,1410A,110.3189,20.0596,海口市,海南大学,,22,22,26,11,16,57,57,105,71,4,5,5,5,0.4,0.4
2026-06-03T2300,1411A,110.2827,20.0051,海口市,秀英海南医院,,23,23,23,15,18,36,36,110,64,22,9,5,6,0.3,0.3
2026-06-03T2300,1412A,110.3391,19.9979,海口市,海南师范大学,,23,23,26,12,15,52,52,102,70,5,6,3,4,0.4,0.5
2026-06-03T2300,1413A,110.3303,20.0359,海口市,龙华路环保局宿舍,,26,26,24,14,16,62,62,72,NA,4,5,/,/,0.3,0.3
2026-06-03T2300,3539A,110.5111,19.9737,海口市,桂林洋子站,,26,26,22,15,14,45,45,86,64,6,7,/,/,/,/
2026-06-03T2300,4134A,110.1952,20.0451,海口市,长滨二路9号,,25,25,25,15,16,50,50,99,62,5,4,/,/,/,/
2026-06-03T2300,2673A,100.6158,36.2985,海南藏族自治州,共和县恰卜恰镇,颗粒物(PM10),52,52,38,24,18,88,88,123,119,14,6,11,10,0.5,0.4
2026-06-03T2300,2676A,97.373,37.376,海西蒙古族藏族自治州,德令哈市,颗粒物(PM10),75,84,64,41,27,88,88,122,NA,2,3,12,18,0.3,0.4
2026-06-03T2300,1049A,114.492,36.5712,邯郸市,矿院,颗粒物(PM10),52,52,81,32,48,118,118,258,196,5,12,1,5,0.4,0.6
2026-06-03T2300,1050A,114.4839,36.6136,邯郸市,丛台公园,,36,36,87,22,42,106,106,241,188,8,11,3,7,0.4,0.6
2026-06-03T2300,3458A,114.7893,36.5592,邯郸市,香泉濮院小区,,49,49,141,21,45,111,111,236,184,11,17,3,3,0.3,0.5
2026-06-03T2300,3580A,114.1998,36.4439,邯郸市,峰峰矿区临水派出所,细颗粒物(PM2.5),72,NA,76,46,39,128,128,226,179,6,11,5,9,0.4,0.7
2026-06-03T2300,4068A,114.5209,36.7697,邯郸市,建安街268号,,35,33,96,24,41,97,97,216,172,14,17,3,3,0.3,0.5
2026-06-03T2300,4069A,114.5488,36.6177,邯郸市,丛台东路558号,颗粒物(PM10),56,58,104,25,45,103,103,230,179,7,18,3,5,0.4,0.6
2026-06-03T2300,2635A,107.0155,33.0707,汉中市,市监测站,NA,NA,NA,56,NA,36,NA,NA,125,114,NA,11,NA,5,NA,0.5
2026-06-03T2300,2636A,107.0083,33.114,汉中市,鑫源开发区,细颗粒物(PM2.5),84,NA,57,52,38,49,49,128,101,18,14,5,8,0.6,0.7
2026-06-03T2300,2637A,107.0072,33.0323,汉中市,南郑大河坎水厂,,49,49,55,33,34,65,65,122,107,15,10,3,4,0.6,0.7
2026-06-03T2300,1223A,120.2073,30.2111,杭州市,滨江,,42,39,52,29,38,46,46,72,54,19,22,7,8,0.7,0.8
2026-06-03T2300,1224A,120.0625,30.2737,杭州市,西溪,细颗粒物(PM2.5),52,38,44,36,34,17,17,63,37,24,17,4,4,0.7,0.6
2026-06-03T2300,1226A,120.3417,30.315,杭州市,下沙,细颗粒物(PM2.5),70,NA,46,45,39,40,40,93,61,23,31,4,4,0.8,0.8
2026-06-03T2300,1227A,120.1252,30.2465,杭州市,卧龙桥,,48,36,42,33,35,24,24,72,41,14,14,8,8,0.5,0.4
2026-06-03T2300,1228A,120.1902,30.2691,杭州市,浙江农大,,39,32,45,27,39,38,38,60,46,19,29,6,6,0.6,0.6
2026-06-03T2300,1230A,120.1195,30.3121,杭州市,和睦小学,,48,NA,37,33,35,46,46,70,56,9,15,7,7,0.7,0.7
2026-06-03T2300,1231A,120.3076,30.4146,杭州市,临平镇,细颗粒物(PM2.5),52,50,56,36,37,41,41,94,59,22,24,6,7,0.6,0.5
2026-06-03T2300,1232A,120.2753,30.1839,杭州市,城厢镇,,46,38,53,32,41,42,42,79,52,16,21,5,5,0.9,0.8
2026-06-03T2300,1233A,120.0883,30.1808,杭州市,云栖,,39,36,44,27,35,12,12,59,29,24,26,8,8,1.0,1
2026-06-03T2300,3557A,119.9463,30.0496,杭州市,镇二中,,50,NA,37,35,33,41,41,72,58,23,26,4,5,0.9,0.9
2026-06-03T2300,3558A,119.7184,30.2367,杭州市,市府大楼,,35,NA,26,24,28,50,50,71,66,8,10,7,7,0.8,0.7
2026-06-03T2300,3656A,120.1554,30.2863,杭州市,消防大队,,48,NA,38,33,36,44,44,81,55,13,16,6,6,0.7,0.7
2026-06-03T2300,1270A,117.1957,31.7845,合肥市,明珠广场,,46,34,75,32,61,70,70,120,100,11,22,7,8,0.6,0.7
2026-06-03T2300,1271A,117.307,31.8765,合肥市,三里街,,33,29,62,23,51,76,76,110,95,12,17,8,8,0.6,0.7
2026-06-03T2300,1272A,117.2587,31.8703,合肥市,琥珀山庄,,35,27,66,24,47,85,85,126,109,10,18,5,6,0.7,1
2026-06-03T2300,1275A,117.2593,31.9376,合肥市,庐阳区,NA,NA,39,67,27,45,NA,NA,128,110,14,21,9,9,0.8,0.9
2026-06-03T2300,1276A,117.345251,31.861615,合肥市,瑶海区,,28,24,64,19,47,72,72,118,100,13,16,8,9,0.7,0.8
2026-06-03T2300,1277A,117.3033,31.7967,合肥市,包河区,,29,27,62,20,48,76,76,118,104,7,19,9,9,0.7,0.8
2026-06-03T2300,1278A,117.278,31.7392,合肥市,滨湖新区,,23,22,65,16,48,73,73,119,102,8,16,10,10,0.7,0.8
2026-06-03T2300,1279A,117.1324,31.8395,合肥市,高新区,细颗粒物(PM2.5),52,44,71,36,54,81,81,132,108,8,19,6,7,0.5,0.7
2026-06-03T2300,3464A,117.3802,31.9148,合肥市,高教基地,,30,22,64,21,50,76,76,116,100,8,13,4,6,0.9,1.1
2026-06-03T2300,4098A,117.2518,31.8404,合肥市,中国科学技术大学,,36,29,60,25,48,81,81,129,111,11,15,8,8,0.7,0.8
2026-06-03T2300,3614A,79.9241,37.0878,和田地区,地区环保局,颗粒物(PM10),132,202,288,41,62,100,100,110,106,10,7,5,8,0.2,0.3
2026-06-03T2300,3615A,79.9132,37.1137,和田地区,市环保局,颗粒物(PM10),192,334,346,47,86,100,100,123,117,NA,10,2,5,0.3,0.3
2026-06-03T2300,2517A,108.0496,24.6957,河池市,市环保站,,31,31,39,19,22,5,5,60,25,24,14,5,4,0.7,0.7
2026-06-03T2300,4302A,108.0901,24.6945,河池市,上任中路54号,NA,NA,NA,40,NA,22,NA,NA,95,NA,NA,15,NA,8,NA,0.7
2026-06-03T2300,1697A,114.6962,23.7538,河源市,东埔,,27,21,27,15,24,84,84,135,125,9,9,5,4,0.7,0.7
2026-06-03T2300,1698A,114.6895,23.7232,河源市,老城,,36,36,35,15,22,87,87,137,126,11,11,6,5,0.6,0.6
2026-06-03T2300,3374A,115.5562,35.089,菏泽市,定陶老年大学,颗粒物(PM10),191,332,130,18,44,147,147,210,186,12,17,4,5,0.4,0.5
2026-06-03T2300,4114A,115.4239,35.2593,菏泽市,黄河路600号,颗粒物(PM10),110,144,161,28,68,143,143,199,181,11,19,5,6,0.4,0.5
2026-06-03T2300,4115A,115.5025,35.2727,菏泽市,菏泽市人社局,颗粒物(PM10),70,77,128,12,49,137,137,190,173,8,17,6,7,0.2,0.4
2026-06-03T2300,4184A,115.479691,35.244011,菏泽市,永昌路1号,NA,NA,100,121,15,46,NA,NA,207,200,5,15,NA,7,0.4,0.6
2026-06-03T2300,4193A,115.471542,35.280012,菏泽市,长城路999号,颗粒物(PM10),68,75,149,12,49,145,145,204,187,7,14,6,8,0.2,0.3
2026-06-03T2300,2514A,111.5264,24.4178,贺州市,环保小区,,42,37,35,29,26,42,42,100,80,20,11,8,9,0.5,0.4
2026-06-03T2300,2515A,111.561,24.4074,贺州市,政协大楼,,43,41,28,30,27,59,59,114,83,20,15,12,14,0.6,0.6
2026-06-03T2300,3534A,111.4744,24.455,贺州市,西湾,,49,47,40,34,30,44,44,88,69,14,14,9,11,0.5,0.5
2026-06-03T2300,2385A,114.17,35.9019,鹤壁市,市监测站,细颗粒物(PM2.5),64,61,105,42,43,111,111,199,167,9,15,6,9,0.7,0.9
2026-06-03T2300,2386A,114.2953,35.7512,鹤壁市,市交警支队,颗粒物(PM10),76,86,131,39,55,110,110,193,162,12,26,7,7,0.5,0.6
2026-06-03T2300,2387A,114.2877,35.7302,鹤壁市,迎宾馆,细颗粒物(PM2.5),72,54,149,46,50,126,126,216,189,12,23,9,10,0.4,0.6
2026-06-03T2300,3474A,114.2616,35.6824,鹤壁市,大新区,颗粒物(PM10),75,85,168,25,59,132,132,213,186,14,32,5,7,0.5,0.6
2026-06-03T2300,3596A,114.1573,35.9607,鹤壁市,南山宾馆,细颗粒物(PM2.5),70,61,96,45,49,114,114,195,167,9,11,7,14,0.9,1
2026-06-03T2300,2244A,130.2537,47.3416,鹤岗市,哈啤分公司,NA,NA,24,23,11,9,NA,NA,63,55,14,9,NA,10,0,0.1
2026-06-03T2300,2245A,130.2683,47.3087,鹤岗市,斯达机电,,36,36,22,12,9,54,54,78,61,16,8,4,4,0.3,0.2
2026-06-03T2300,2246A,130.3114,47.3388,鹤岗市,东山纸板厂,,30,30,33,18,21,30,30,76,53,33,15,12,9,0.7,0.4
2026-06-03T2300,2263A,127.4832,50.2524,黑河市,交通局,,20,16,27,7,12,61,61,74,73,9,13,6,10,0.2,0.2
2026-06-03T2300,2264A,127.5146,50.2339,黑河市,环保局,,20,6,7,6,9,63,63,73,73,9,9,4,8,0.3,0.2
2026-06-03T2300,1074A,115.6839,37.754,衡水市,电机北厂,,36,36,111,23,46,89,89,211,154,9,17,5,7,0.5,0.6
2026-06-03T2300,1075A,115.6303,37.7318,衡水市,市监测站,,29,28,104,7,42,90,90,214,157,9,17,8,10,0.7,0.8
2026-06-03T2300,3188A,115.6684,37.7216,衡水市,市城管局,,27,20,111,7,42,84,84,216,155,9,15,7,10,0.4,0.5
2026-06-03T2300,3459A,115.599,37.5491,衡水市,地表水厂,,27,10,115,8,48,85,85,226,163,4,12,6,10,0.4,0.5
2026-06-03T2300,2457A,112.6209,26.9268,衡阳市,衡阳化工总厂,,23,22,35,16,24,72,72,99,81,6,9,3,4,0.9,0.9
2026-06-03T2300,2458A,112.621,26.8957,衡阳市,珠晖区环保局,,28,19,35,19,20,69,69,109,85,10,10,7,7,0.9,0.9
2026-06-03T2300,2459A,112.628,26.8654,衡阳市,市委党校,,29,25,29,20,20,78,78,107,90,3,5,10,11,0.8,0.8
2026-06-03T2300,2460A,112.6007,26.8977,衡阳市,市监测站,,26,19,29,16,21,82,82,101,87,8,10,7,8,0.9,0.9
2026-06-03T2300,2461A,112.5658,26.9013,衡阳市,真空机电公司,,43,24,27,17,21,136,136,105,102,7,7,5,7,1.0,1
2026-06-03T2300,3399A,112.6703,26.8817,衡阳市,师范学院,,22,21,31,14,21,69,69,104,86,6,7,10,9,0.8,0.8
2026-06-03T2300,3038A,103.3757,23.3679,红河哈尼族彝族自治州,州图书馆,,30,30,19,20,15,77,77,75,72,4,4,2,2,0.2,0.2
2026-06-03T2300,4154A,103.401,23.3561,红河哈尼族彝族自治州,蒙自市朝阳路,,25,NA,14,17,15,71,71,74,71,4,3,5,5,0.3,0.3
2026-06-03T2300,1090A,111.6506,40.7517,呼和浩特市,呼市一监,,26,9,13,3,4,82,82,96,93,5,5,8,9,0.2,0.2
2026-06-03T2300,1094A,111.7516,40.8369,呼和浩特市,如意水处理厂,,21,15,13,6,6,65,65,91,86,16,6,7,7,0.4,0.4
2026-06-03T2300,1095A,111.727798,40.806187,呼和浩特市,二十九中,,19,14,13,3,7,60,60,87,82,21,7,8,9,0.3,0.3
2026-06-03T2300,1097A,111.717,40.7617,呼和浩特市,化肥厂生活区,,21,21,15,3,9,64,64,89,85,15,7,8,8,0.3,0.3
2026-06-03T2300,3699A,111.6519,40.8389,呼和浩特市,海东办,,19,9,10,8,2,60,60,88,82,18,7,4,4,0.4,0.3
2026-06-03T2300,4275A,111.591512,40.827312,呼和浩特市,成吉思汗西街8号,,17,7,13,3,4,54,54,81,73,22,9,2,3,0.2,0.2
2026-06-03T2300,4276A,111.6597,40.8077,呼和浩特市,公园东路75号,,26,14,13,3,8,82,82,89,88,10,10,7,8,0.3,0.3
2026-06-03T2300,4277A,111.5427,40.7846,呼和浩特市,金海路35号,,21,17,14,10,6,65,65,81,78,15,7,4,4,0.2,0.2
2026-06-03T2300,3061A,119.7511,49.1576,呼伦贝尔市,国华电力东,,23,23,25,3,10,31,31,68,50,7,5,4,4,0.3,0.3
2026-06-03T2300,4279A,119.7569,49.2222,呼伦贝尔市,伊敏大街东7号,,30,30,22,9,10,37,37,66,50,9,7,5,5,0.4,0.4
2026-06-03T2300,1250A,120.075,30.867,湖州市,城西水厂,,49,40,64,34,47,55,55,79,65,13,24,5,6,0.7,0.7
2026-06-03T2300,2873A,120.083,30.8929,湖州市,仁皇山新区,,46,37,62,32,54,56,56,91,64,13,24,5,6,0.7,0.7
2026-06-03T2300,2907A,120.1846,30.8592,湖州市,吴兴区站,细颗粒物(PM2.5),56,43,53,38,42,31,31,90,50,27,23,6,7,0.7,0.6
2026-06-03T2300,3562A,120.4146,30.8538,湖州市,南浔区站,细颗粒物(PM2.5),92,NA,47,56,48,30,30,100,57,33,26,6,8,0.8,0.8
2026-06-03T2300,1607A,120.904878,40.721091,葫芦岛市,龙港区,,33,NA,26,23,19,59,59,82,76,20,17,10,11,0.5,0.5
2026-06-03T2300,1608A,120.8382,40.7521,葫芦岛市,化工街,,30,NA,25,21,20,54,54,85,78,32,21,14,13,0.4,0.5
2026-06-03T2300,1609A,120.8339,40.7078,葫芦岛市,新区,,26,18,24,18,20,63,63,85,80,22,17,7,7,0.5,0.5
2026-06-03T2300,1610A,120.8697,40.7679,葫芦岛市,东城区,,25,20,27,17,23,72,72,81,78,13,18,8,7,0.4,0.5
2026-06-03T2300,2483A,109.9297,27.5383,怀化市,河西地税局,,34,34,25,15,22,7,7,47,34,13,10,6,7,/,/
2026-06-03T2300,2484A,109.9783,27.5342,怀化市,市四医院,,24,24,30,14,24,15,15,50,44,18,13,6,8,0.5,0.5
2026-06-03T2300,2485A,109.9971,27.5579,怀化市,监测楼,,26,26,33,16,24,19,19,51,44,18,12,7,8,0.6,0.5
2026-06-03T2300,1210A,119.0566,33.5991,淮安市,钵池山,细颗粒物(PM2.5),92,66,63,56,46,136,136,128,128,16,22,7,11,0.9,0.7
2026-06-03T2300,1211A,119.0083,33.578,淮安市,北京南路,细颗粒物(PM2.5),124,NA,66,86,50,120,120,127,124,13,15,7,9,1.2,1
2026-06-03T2300,1212A,118.9938,33.6083,淮安市,市监测站,细颗粒物(PM2.5),109,70,62,69,48,129,129,126,124,12,17,6,8,1.1,0.9
2026-06-03T2300,1213A,119.135,33.5038,淮安市,楚州区监测站,细颗粒物(PM2.5),117,78,69,78,57,113,113,123,114,24,17,6,7,0.8,0.6
2026-06-03T2300,3426A,118.8757,33.2897,淮安市,新华书店,颗粒物(PM10),51,51,68,31,39,114,114,125,125,18,22,8,10,0.8,1
2026-06-03T2300,4092A,119.119691,33.550006,淮安市,枚皋中路89号,细颗粒物(PM2.5),123,104,71,85,55,128,128,130,126,20,18,8,8,1.3,1.2
2026-06-03T2300,4206A,119.028838,33.631911,淮安市,承德北路606号,细颗粒物(PM2.5),109,73,67,69,47,122,122,119,118,12,16,7,8,1.1,0.8
2026-06-03T2300,2282A,116.8005,33.9749,淮北市,监测站,颗粒物(PM10),103,126,97,43,48,123,123,194,169,19,17,6,7,0.7,0.7
2026-06-03T2300,2283A,116.8094,33.9008,淮北市,烈山区政府,NA,NA,NA,131,NA,47,96,96,188,164,33,15,10,9,0.6,0.5
2026-06-03T2300,4017A,116.7926,33.9534,淮北市,市博物馆,颗粒物(PM10),106,134,95,48,48,126,126,202,175,15,13,3,5,0.5,0.5
2026-06-03T2300,4100A,116.8322,33.9884,淮北市,杜集区第一实验学校,颗粒物(PM10),110,146,120,50,46,120,120,187,165,17,14,4,4,0.6,0.5
2026-06-03T2300,2277A,116.8304,32.7726,淮南市,潘集区政府,细颗粒物(PM2.5),111,88,88,72,54,78,78,152,122,18,20,9,9,0.9,0.7
2026-06-03T2300,2279A,116.8569,32.5949,淮南市,谢家集区政府,细颗粒物(PM2.5),90,78,73,55,55,77,77,140,112,23,23,7,8,0.5,0.5
2026-06-03T2300,2280A,116.8279,32.6333,淮南市,八公山区政府,细颗粒物(PM2.5),106,78,82,66,57,79,79,142,117,16,14,7,7,0.5,0.4
2026-06-03T2300,2894A,117.0561,32.6536,淮南市,经济技术开发区消防队,细颗粒物(PM2.5),62,55,71,41,56,80,80,156,126,18,22,8,8,0.6,0.6
2026-06-03T2300,3329A,117.011,32.5891,淮南市,山南新区,细颗粒物(PM2.5),72,54,81,46,56,77,77,148,119,12,17,9,10,0.5,0.5
2026-06-03T2300,4209A,117.003137,32.644456,淮南市,国庆中路369号,细颗粒物(PM2.5),58,55,73,39,53,80,80,148,121,10,12,7,8,0.3,0.3
2026-06-03T2300,2446A,114.9021,30.474,黄冈市,职工中心,,35,33,33,24,26,65,65,103,86,1,5,5,6,0.6,0.8
2026-06-03T2300,2929A,114.8858,30.4519,黄冈市,红卫路,,35,31,32,24,28,65,65,104,90,4,3,7,9,0.5,0.5
2026-06-03T2300,3398A,114.9134,30.4446,黄冈市,市林业局,,40,30,33,28,28,65,65,96,82,7,10,5,4,0.4,0.5
2026-06-03T2300,2672A,102.02,35.5101,黄南藏族自治州,同仁县隆务镇,,48,48,26,24,13,97,97,138,124,1,2,8,8,0.1,0.2
2026-06-03T2300,2295A,118.2905,29.6965,黄山市,延安路89号,,17,17,32,11,27,46,46,79,66,8,9,5,5,0.5,0.5
2026-06-03T2300,2297A,118.1369,30.2755,黄山市,黄山区政府5号楼,,22,22,24,15,21,24,24,62,44,6,5,2,2,0.5,0.4
2026-06-03T2300,4210A,118.335445,29.720283,黄山市,滨江东路7-2号,,17,17,35,3,25,45,45,78,65,5,7,/,/,/,/
2026-06-03T2300,2423A,115.0547,30.2332,黄石市,沈家营,,48,48,47,22,21,48,48,91,74,6,7,4,5,0.5,0.4
2026-06-03T2300,2426A,114.899,30.211,黄石市,铁山,,42,42,34,28,23,49,49,92,70,8,10,5,5,0.5,0.7
2026-06-03T2300,2427A,115.0259,30.2108,黄石市,团城山,,46,46,37,28,21,58,58,99,83,8,6,4,4,0.9,0.7
2026-06-03T2300,3149A,115.0174,30.1591,黄石市,笔架山北路,颗粒物(PM10),63,68,56,23,21,59,59,95,73,10,8,10,4,0.6,0.4
2026-06-03T2300,4185A,115.078022,30.21118,黄石市,磁湖东路29号,,49,49,45,22,21,53,53,91,80,10,8,7,5,0.5,0.4
2026-06-03T2300,1392A,114.4181,23.0528,惠州市,河南岸金山湖子站,,29,22,29,20,19,61,61,115,94,13,13,6,6,0.8,0.8
2026-06-03T2300,1393A,114.4055,23.0824,惠州市,下埔横江三路子站,NA,NA,29,35,15,18,NA,NA,124,110,11,10,3,3,0.6,0.6
2026-06-03T2300,1395A,114.4645,22.7832,惠州市,惠阳区承修路船湖子站,,23,22,27,15,15,71,71,109,91,8,9,3,3,0.5,0.6
2026-06-03T2300,1396A,114.5316,22.7423,惠州市,大亚湾管委会子站,,22,22,24,12,13,70,70,101,86,8,11,5,4,0.5,0.6
2026-06-03T2300,3314A,114.4334,22.8134,惠州市,惠阳秋长,,24,12,26,11,16,74,74,127,103,5,13,/,/,/,/
2026-06-03T2300,3452A,114.6521,22.7755,惠州市,大亚湾霞涌,,21,NA,22,9,12,67,67,93,86,6,7,/,/,/,/
2026-06-03T2300,4300A,114.4089,23.1147,惠州市,文华一路1号,,22,22,29,12,18,70,70,128,104,9,10,/,/,/,/
2026-06-03T2300,2240A,130.9618,45.2926,鸡西市,环保局,,27,27,16,7,9,57,57,89,70,14,10,8,8,0.3,0.2
2026-06-03T2300,2243A,130.9294,45.2959,鸡西市,第一中学,,29,29,14,17,10,42,42,84,67,27,10,7,7,0.3,0.3
2026-06-03T2300,3707A,131.0069,45.2988,鸡西市,欧美日汽修厂,,33,33,16,7,11,57,57,88,66,10,8,7,7,0.3,0.3
2026-06-03T2300,2367A,114.9753,27.0803,吉安市,红声器材厂,,24,23,36,3,16,75,75,102,84,8,11,3,2,0.4,0.4
2026-06-03T2300,2369A,114.9903,27.1313,吉安市,市环境监测站,,23,23,36,6,16,68,68,98,76,4,7,16,9,/,/
2026-06-03T2300,2370A,115.009527,27.096792,吉安市,青原区法院,,26,25,36,3,17,81,81,102,86,5,7,8,7,0.3,0.4
2026-06-03T2300,1772A,126.54,43.8622,吉林市,哈达湾,,23,12,21,6,13,73,73,74,59,6,21,5,6,0.2,0.3
2026-06-03T2300,1773A,126.5843,43.8358,吉林市,东局子,,24,12,21,7,17,74,74,64,50,5,22,3,4,0.4,0.6
2026-06-03T2300,1774A,126.5051,43.8243,吉林市,电力学院,,25,12,28,6,14,78,78,72,56,6,23,4,5,0.5,0.6
2026-06-03T2300,1775A,126.6133,43.8971,吉林市,江北,,20,20,26,13,16,30,30,49,41,14,20,5,5,0.4,0.4
2026-06-03T2300,1776A,126.5549,43.8304,吉林市,江南公园,,24,13,24,6,13,74,74,66,50,5,21,5,6,0.2,0.3
2026-06-03T2300,2868A,126.4737,43.953,吉林市,九站,,18,16,23,12,12,48,48,60,54,14,23,5,4,0.4,0.4
2026-06-03T2300,1299A,116.9866,36.6118,济南市,科干所,,35,NA,61,15,31,110,110,209,184,9,13,2,8,0.5,0.6
2026-06-03T2300,1300A,116.9379,36.6652,济南市,农科所,,32,22,73,22,31,97,97,196,172,10,11,2,4,0.2,0.4
2026-06-03T2300,1301A,117.1265,36.6736,济南市,开发区,,29,NA,80,20,33,91,91,182,153,7,11,5,6,0.4,0.5
2026-06-03T2300,1303A,117.0616,36.6865,济南市,省种子仓库,,35,24,91,24,30,92,92,189,161,7,9,4,6,0.2,0.3
2026-06-03T2300,1304A,116.9495185,36.644937,济南市,机床二厂,,30,NA,88,21,33,93,93,189,164,8,11,4,7,0.3,0.5
2026-06-03T2300,1305A,117.0496,36.6629,济南市,市监测站,,34,22,81,14,30,106,106,199,172,9,10,3,4,0.3,0.4
2026-06-03T2300,1306A,116.7674,36.5458,济南市,长清党校,NA,NA,10,89,NA,33,115,115,214,186,10,12,3,6,0.2,0.3
2026-06-03T2300,1961A,117.5323,36.6865,济南市,东山小学,,35,12,81,9,34,111,111,194,172,10,13,2,7,0.1,0.4
2026-06-03T2300,3059A,117.7181,36.205,济南市,泰兴公司,,44,17,74,3,33,139,139,192,184,5,23,10,16,0.2,0.5
2026-06-03T2300,3064A,117.6861,36.2172,济南市,莱芜战役纪念馆,,41,22,73,3,34,129,129,200,190,4,20,3,12,0.2,0.5
2026-06-03T2300,3494A,117.1673,36.9782,济南市,济阳区政府,,30,17,92,10,33,93,93,193,150,7,19,7,10,0.2,0.4
2026-06-03T2300,3495A,117.1168,36.6299,济南市,锦屏中学,,30,NA,91,16,32,94,94,170,147,4,7,6,8,0.3,0.4
2026-06-03T2300,4108A,117.7107,36.2385,济南市,山财大街5号,,45,9,68,3,34,141,141,204,195,6,21,6,11,0.3,0.7
2026-06-03T2300,4109A,116.9744,36.6889,济南市,无影山路12号,,30,NA,75,19,33,95,95,188,162,10,13,2,4,0.5,0.5
2026-06-03T2300,1653A,116.6229,35.4288,济宁市,火炬城,颗粒物(PM10),112,151,82,24,35,142,142,186,178,14,20,3,7,0.6,0.7
2026-06-03T2300,3500A,116.5808,35.3703,济宁市,北湖一中,颗粒物(PM10),177,304,91,31,38,147,147,199,189,3,7,5,9,0.6,0.7
2026-06-03T2300,3501A,116.8251,35.5592,济宁市,服务中心,颗粒物(PM10),95,113,79,27,34,147,147,192,178,8,13,2,4,0.4,0.5
2026-06-03T2300,3678A,116.5907,35.4054,济宁市,市第七中学,颗粒物(PM10),172,294,93,27,35,151,151,203,194,2,7,5,7,0.4,0.5
2026-06-03T2300,4111A,116.6075,35.4566,济宁市,任和路,颗粒物(PM10),142,227,89,24,40,147,147,208,198,6,11,3,6,0.6,0.6
2026-06-03T2300,4112A,116.5648,35.3921,济宁市,文体南路1号,颗粒物(PM10),327,441,92,27,24,142,142,184,178,6,9,5,8,0.7,0.8
2026-06-03T2300,4122A,112.6071,35.1015,济源市,市委党校,颗粒物(PM10),60,63,87,20,38,123,123,179,128,11,22,13,16,0.4,0.8
2026-06-03T2300,4123A,112.596,35.0702,济源市,沁园中路1号,颗粒物(PM10),69,76,82,28,36,107,107,169,130,19,28,15,16,1.3,1.3
2026-06-03T2300,2255A,130.2749,46.8028,佳木斯市,佳纺,,24,17,13,6,9,74,74,97,79,8,8,1,2,0.2,0.2
2026-06-03T2300,2257A,130.3258,46.7975,佳木斯市,环保局,,29,12,12,3,7,90,90,95,86,7,8,3,3,0.2,0.3
2026-06-03T2300,4285A,130.363,46.806,佳木斯市,顺和街,,26,17,16,3,8,83,83,94,80,9,10,1,2,0.1,0.1
2026-06-03T2300,4286A,130.3952,46.8268,佳木斯市,长安路196号,,33,33,14,6,6,62,62,93,73,31,16,4,4,0.1,0.1
2026-06-03T2300,1252A,120.7439,30.778,嘉兴市,清河小学,细颗粒物(PM2.5),90,66,58,55,35,38,38,132,72,27,25,8,10,0.7,0.6
2026-06-03T2300,1253A,120.7261,30.7477,嘉兴市,嘉兴学院,细颗粒物(PM2.5),86,90,70,53,38,30,30,132,70,30,22,4,6,0.7,0.7
2026-06-03T2300,2872A,120.7845,30.7524,嘉兴市,南湖区残联,细颗粒物(PM2.5),56,50,53,38,37,42,42,151,75,21,22,5,8,0.7,0.7
2026-06-03T2300,3407A,120.6915,30.7741,嘉兴市,秀洲住建,细颗粒物(PM2.5),80,NA,48,50,39,26,26,126,66,38,25,7,9,0.7,0.7
2026-06-03T2300,1945A,98.291,39.7705,嘉峪关市,气象局,,48,48,176,18,77,100,100,125,122,10,5,3,7,0.2,0.7
2026-06-03T2300,2884A,98.2672,39.7978,嘉峪关市,酒钢宾馆,颗粒物(PM10),51,51,198,16,69,109,109,130,126,6,7,7,18,0.3,0.7
2026-06-03T2300,3248A,98.2644,39.7723,嘉峪关市,雄关区,,50,50,145,22,57,103,103,130,123,12,11,4,8,0,0.1
2026-06-03T2300,1383A,113.1063,22.6058,江门市,北街,,19,19,24,12,14,58,58,86,70,3,5,/,/,/,/
2026-06-03T2300,1384A,113.073,22.5835,江门市,西区,,20,19,24,13,15,61,61,90,71,8,9,/,/,/,/
2026-06-03T2300,1385A,113.0218,22.531,江门市,圭峰西,,22,17,23,15,15,54,54,84,69,11,8,/,/,/,/
2026-06-03T2300,1386A,113.0826,22.5947,江门市,东湖,,20,19,24,9,11,62,62,91,74,8,9,6,6,0.3,0.3
2026-06-03T2300,3311A,113.1077,22.5647,江门市,江海富民,,32,32,36,14,15,59,59,94,75,9,10,/,/,0.6,0.6
2026-06-03T2300,3449A,113.0496,22.4669,江门市,新会银湖,,25,21,26,17,15,55,55,82,67,12,15,1,2,0.6,0.6
2026-06-03T2300,3335A,113.3137,35.2643,焦作市,马村街道办,颗粒物(PM10),78,88,75,34,33,125,125,185,160,17,15,10,12,0.5,0.7
2026-06-03T2300,3336A,113.2464,35.2374,焦作市,焦作技师学院,颗粒物(PM10),57,59,64,30,32,135,135,187,153,12,16,10,13,0.6,0.7
2026-06-03T2300,3477A,113.1656,35.2536,焦作市,中站许衡医院,颗粒物(PM10),51,51,59,27,29,127,127,181,155,18,16,10,17,0.6,0.7
2026-06-03T2300,3981A,113.2456,35.18,焦作市,原李万街道办,颗粒物(PM10),67,73,75,26,31,105,105,177,140,21,16,15,16,0.8,0.6
2026-06-03T2300,4264A,113.234,35.219,焦作市,新安路1731号,颗粒物(PM10),71,79,74,28,31,124,124,187,151,17,17,11,14,0.7,0.7
2026-06-03T2300,4295A,113.2722,35.2121,焦作市,人民路3066号,颗粒物(PM10),58,60,74,32,38,115,115,174,142,18,19,6,8,0.5,0.6
2026-06-03T2300,1708A,116.3701,23.5345,揭阳市,新兴,,29,28,35,20,20,55,55,90,72,8,8,6,6,0.8,0.8
2026-06-03T2300,1709A,116.3261,23.5442,揭阳市,西马,,27,27,35,18,19,65,65,103,84,8,9,4,4,0.6,0.6
2026-06-03T2300,1710A,116.361,23.5627,揭阳市,东兴,,25,25,29,17,19,59,59,90,75,7,8,2,2,/,/
2026-06-03T2300,1711A,116.4151,23.5295,揭阳市,渔湖,,32,30,33,22,21,54,54,80,67,8,8,7,3,/,/
2026-06-03T2300,3320A,116.4028,23.5699,揭阳市,曲溪,,29,26,33,20,19,57,57,92,72,2,5,4,4,0.7,0.7
2026-06-03T2300,1944A,102.1691,38.5166,金昌市,天庆家园,颗粒物(PM10),70,78,146,37,46,101,101,111,111,4,5,4,10,0.2,0.2
2026-06-03T2300,4022A,102.1648,38.5369,金昌市,金川区人防中心,颗粒物(PM10),68,75,134,36,44,96,96,123,120,6,5,4,5,0.3,0.3
2026-06-03T2300,4239A,102.193042,38.531887,金昌市,长春路96号,颗粒物(PM10),82,94,133,34,45,104,104,117,116,4,4,3,5,0.4,0.4
2026-06-03T2300,1262A,119.6478,29.0773,金华市,十五中,细颗粒物(PM2.5),90,88,64,55,41,52,52,102,87,21,23,1,2,0.7,0.7
2026-06-03T2300,1263A,119.6859,29.1032,金华市,监测站,颗粒物(PM10),75,85,62,47,36,56,56,91,81,22,26,4,4,0.9,0.8
2026-06-03T2300,3659A,119.656,29.1132,金华市,气象局,细颗粒物(PM2.5),82,72,59,51,39,51,51,89,76,21,27,3,3,0.7,0.7
2026-06-03T2300,1767A,121.1114,41.0879,锦州市,南山,,35,NA,31,24,33,50,50,88,77,13,15,5,6,0.4,0.6
2026-06-03T2300,1768A,121.060361,40.842794,锦州市,开发区,,30,28,31,21,26,58,58,88,79,19,21,8,7,0.6,0.6
2026-06-03T2300,1769A,121.1836,41.1118,锦州市,百股街道,,32,NA,34,22,36,72,72,98,87,10,14,5,7,0.6,0.7
2026-06-03T2300,1770A,121.1176,41.1224,锦州市,天安街道,,30,NA,32,21,31,50,50,96,83,15,17,5,7,0.2,0.3
2026-06-03T2300,1771A,121.1303,41.1385,锦州市,北湖公园,,30,NA,36,21,34,53,53,90,76,10,13,5,7,0.3,0.4
2026-06-03T2300,2160A,112.8496,35.5051,晋城市,自来水公司,,47,47,70,17,19,138,138,195,183,8,14,4,6,0.5,0.7
2026-06-03T2300,2162A,112.8509,35.4886,晋城市,市环保局,颗粒物(PM10),70,77,67,12,24,137,137,190,180,10,19,4,6,0.3,0.5
2026-06-03T2300,3620A,112.8258,35.4804,晋城市,泽州一中,颗粒物(PM10),61,65,80,9,23,137,137,184,175,14,16,4,6,0.5,0.7
2026-06-03T2300,4078A,112.8246,35.5152,晋城市,前书院路,颗粒物(PM10),55,56,66,9,18,139,139,170,162,8,15,6,7,0.4,1
2026-06-03T2300,4079A,112.8864,35.4773,晋城市,祥云街666号,颗粒物(PM10),54,55,64,30,32,141,141,191,185,9,21,7,9,0.5,0.8
2026-06-03T2300,2174A,112.6992,37.6984,晋中市,榆次区政府,颗粒物(PM10),58,61,79,15,33,84,84,186,113,16,17,6,16,0.6,1
2026-06-03T2300,2865A,112.7195,37.683,晋中市,榆次三中,颗粒物(PM10),65,70,80,27,31,65,65,194,113,26,20,6,13,0.3,0.6
2026-06-03T2300,4080A,112.7375,37.7215,晋中市,广安街188号,NA,NA,57,88,19,32,64,64,184,107,NA,21,5,16,0.6,0.7
2026-06-03T2300,4200A,112.7478,37.6954,晋中市,迎宾街26号,颗粒物(PM10),55,56,72,18,29,78,78,184,111,21,19,5,11,0.1,0.3
2026-06-03T2300,2439A,112.2012,31.048,荆门市,竹园小学,,32,32,49,16,35,45,45,99,82,10,10,4,4,0.7,0.7
2026-06-03T2300,2440A,112.1968,30.9892,荆门市,掇刀,,49,NA,46,34,39,48,48,107,88,12,11,7,10,0.8,0.7
2026-06-03T2300,3012A,112.1849,31.0361,荆门市,西山林语,,38,26,47,26,33,35,35,86,78,9,8,6,7,1.0,1
2026-06-03T2300,3547A,112.1631,31.0134,荆门市,龙泉中学南校,,33,33,44,18,32,48,48,112,92,7,8,5,4,0.6,0.7
2026-06-03T2300,4124A,112.2213,31.0654,荆门市,新台西路6号,细颗粒物(PM2.5),60,44,55,40,39,41,41,113,95,14,10,2,2,0.8,0.7
2026-06-03T2300,1844A,112.2493,30.3198,荆州市,市图书馆,,25,22,41,17,31,30,30,65,38,12,13,4,6,0.4,0.4
2026-06-03T2300,1845A,112.2009,30.3543,荆州市,市委党校,NA,NA,29,46,25,31,NA,NA,63,40,21,13,8,9,0.4,0.5
2026-06-03T2300,3194A,112.2749,30.3124,荆州市,管委会,,30,28,42,21,33,25,25,58,34,14,13,7,8,0.5,0.5
2026-06-03T2300,4268A,112.1722,30.3366,荆州市,学苑路85号,,28,28,40,17,33,11,11,62,32,16,11,1,3,0.5,0.5
2026-06-03T2300,2343A,117.2114,29.2931,景德镇市,老干部活动中心,,23,NA,36,11,37,71,71,68,67,7,8,4,4,0.8,0.9
2026-06-03T2300,2344A,117.1893,29.2789,景德镇市,兽医站,,20,17,41,8,32,64,64,71,68,20,11,4,4,0.8,0.7
2026-06-03T2300,2346A,117.246,29.2958,景德镇市,陶研所,,25,7,38,3,33,79,79,68,68,5,9,4,4,0.7,0.8
2026-06-03T2300,4289A,117.154766,29.256967,景德镇市,青少年活动中心,,22,20,43,10,36,68,68,62,57,8,14,14,10,/,/
2026-06-03T2300,1803A,115.9873,29.6816,九江市,十里,,39,29,39,27,37,48,48,99,66,25,22,2,3,0.8,0.9
2026-06-03T2300,1804A,115.9583,29.7047,九江市,茅山头,,23,16,34,16,32,66,66,93,66,10,22,4,4,0.5,0.7
2026-06-03T2300,1805A,115.9877,29.7295,九江市,西园,,22,22,30,15,29,69,69,82,71,8,33,3,4,0.9,1
2026-06-03T2300,1808A,115.9112,29.6038,九江市,综合工业园,,26,NA,26,15,28,82,82,112,87,16,25,4,6,0.7,0.8
2026-06-03T2300,3190A,116.0254,29.6995,九江市,外国语学校,,39,32,36,27,28,50,50,88,62,22,23,7,8,0.6,0.8
2026-06-03T2300,4253A,116.010205,29.659402,九江市,莲花大道8号,,26,24,30,18,30,36,36,88,60,10,11,4,4,0.6,0.8
2026-06-03T2300,4240A,98.495752,39.733935,酒泉市,玉门东路5号,,48,48,139,24,50,80,80,137,128,11,6,5,6,0.3,0.2
2026-06-03T2300,4241A,98.5099,39.7506,酒泉市,北大街108号,颗粒物(PM10),55,56,136,22,62,93,93,131,121,10,6,9,9,0.2,0.2
2026-06-03T2300,2698A,76.0071,39.466,喀什地区,巡警大队,,35,34,73,3,18,109,109,122,119,16,21,4,5,0.3,0.3
2026-06-03T2300,2699A,75.9756,39.4693,喀什地区,吾办,,37,37,61,14,23,88,88,123,114,13,10,4,7,0.3,0.5
2026-06-03T2300,4027A,75.9485,39.4688,喀什地区,老干局,,34,31,53,10,11,106,106,124,121,9,7,3,3,0.3,0.2
2026-06-03T2300,1824A,114.3389,34.778,开封市,肿瘤医院,颗粒物(PM10),154,258,123,85,57,140,140,210,181,20,21,7,8,0.9,0.9
2026-06-03T2300,1826A,114.2884,34.7966,开封市,世纪星幼儿园,颗粒物(PM10),134,208,128,62,53,148,148,218,189,20,22,7,7,0.9,1
2026-06-03T2300,3147A,114.3434,34.8101,开封市,龙亭公园,颗粒物(PM10),206,354,131,55,46,143,143,220,195,15,17,7,8,1.0,1
2026-06-03T2300,3210A,114.3645,34.7955,开封市,汴京公园,颗粒物(PM10),385,488,127,58,50,149,149,222,194,20,21,8,9,0.7,0.7
2026-06-03T2300,3473A,114.2485,34.8306,开封市,技师学院,颗粒物(PM10),153,256,135,59,47,156,156,227,203,16,17,8,9,0.8,0.9
2026-06-03T2300,3592A,114.4518,34.7503,开封市,祥符区生态环境局,颗粒物(PM10),152,253,130,59,52,110,110,167,145,41,32,13,12,1.2,0.7
2026-06-03T2300,1951A,84.886,45.6029,克拉玛依市,长征新村,,37,19,26,8,10,116,116,117,117,4,9,3,4,0.2,0.2
2026-06-03T2300,1952A,84.8894,45.5827,克拉玛依市,南林小区,,41,41,41,7,5,117,117,107,107,2,9,4,4,0.1,0.1
2026-06-03T2300,1954A,84.896,44.3328,克拉玛依市,独山子区,,32,21,31,8,8,100,100,107,103,4,7,6,6,0.3,0.2
2026-06-03T2300,1955A,85.6888,46.0909,克拉玛依市,乌尔禾区商贸楼,,41,41,35,25,14,85,85,102,100,15,8,7,6,0.2,0.1
2026-06-03T2300,3612A,85.1045,45.6895,克拉玛依市,白碱滩区新站,,40,12,20,11,9,125,125,129,129,1,4,6,8,0.1,0.1
2026-06-03T2300,2697A,76.1457,39.7143,克孜勒苏柯尔克孜自治州,市人民政府,,39,20,55,9,18,122,122,124,124,3,5,5,12,0.1,0.1
2026-06-03T2300,3665A,76.1654,39.7157,克孜勒苏柯尔克孜自治州,克州文化中心,,41,18,57,12,21,131,131,132,132,2,5,5,9,0.1,0.1
2026-06-03T2300,1450A,102.8203,24.889,昆明市,呈贡新区,,43,43,19,18,12,38,38,88,72,26,8,7,4,0.7,0.6
2026-06-03T2300,1452A,102.7253,25.0904,昆明市,龙泉镇,,34,34,19,16,10,40,40,78,68,20,11,5,6,0.3,0.3
2026-06-03T2300,1453A,102.7267,25.0378,昆明市,东风东路,,26,26,17,11,11,52,52,86,72,14,11,1,2,0.4,0.4
2026-06-03T2300,1454A,102.6744,25.0671,昆明市,金鼎山,,24,24,21,16,13,49,49,77,71,14,10,4,5,0.5,0.5
2026-06-03T2300,1455A,102.6643,25.0401,昆明市,碧鸡广场,,27,27,21,12,13,41,41,72,60,19,12,2,3,0.4,0.5
2026-06-03T2300,3179A,102.7491,25.012,昆明市,官渡区博物馆,,29,29,19,14,11,52,52,87,72,13,10,3,5,0.5,0.4
2026-06-03T2300,3375A,102.8016,24.8336,昆明市,青年创业园,,28,28,17,17,10,44,44,84,70,16,6,7,6,0.5,0.4
2026-06-03T2300,3550A,102.8,24.9787,昆明市,昆明学院,,26,26,19,12,8,51,51,86,72,12,7,6,6,0.7,0.6
2026-06-03T2300,3551A,102.5969,24.6738,昆明市,晋宁区生态环境分局,,26,25,14,18,11,61,61,77,71,7,4,6,5,0.6,0.5
2026-06-03T2300,3552A,102.6673,24.9861,昆明市,云天化总部,,23,23,14,13,8,46,46,85,70,14,8,6,6,0.4,0.5
2026-06-03T2300,1456A,91.132,29.6515,拉萨市,八廓街,,45,NA,22,16,10,142,142,148,148,12,8,9,7,0.2,0.4
2026-06-03T2300,1457A,91.1221,29.6748,拉萨市,市环保局,,42,20,17,11,10,133,133,140,139,8,8,7,7,0.2,0.3
2026-06-03T2300,1458A,91.0874,29.6476,拉萨市,区监测站,,45,NA,13,18,9,144,144,148,148,8,9,5,5,0.2,0.2
2026-06-03T2300,1459A,91.1774,29.6541,拉萨市,西藏大学,,43,22,16,13,10,136,136,145,144,7,9,5,6,0.3,0.2
2026-06-03T2300,1460A,90.9798,29.6586,拉萨市,区辐射站,,41,15,18,13,10,130,130,139,138,13,10,5,5,0.3,0.3
2026-06-03T2300,1461A,91.0831,29.6292,拉萨市,拉萨火车站,,47,NA,19,9,8,148,148,149,149,4,6,3,4,0.3,0.3
2026-06-03T2300,2520A,109.2203,23.7252,来宾市,来宾技工学校,,34,34,28,14,11,68,68,106,98,12,7,40,16,0.7,0.6
2026-06-03T2300,3535A,109.1781,23.7293,来宾市,兴宾区政府,,34,34,25,13,10,80,80,111,100,6,12,8,8,0.6,0.6
2026-06-03T2300,4002A,109.2312,23.7428,来宾市,中南小学,,29,29,26,12,11,74,74,112,106,13,8,17,10,0.5,0.4
2026-06-03T2300,1479A,103.8309,36.0467,兰州市,铁路设计院,"颗粒物(PM10),细颗粒物(PM2.5)",58,61,76,39,31,75,75,121,97,27,17,8,9,0.7,0.6
2026-06-03T2300,3241A,103.7439,36.0841,兰州市,百合公园,颗粒物(PM10),53,53,58,31,25,71,71,120,94,26,16,11,11,0.2,0.5
2026-06-03T2300,3242A,103.9613,35.9985,兰州市,和平,颗粒物(PM10),54,55,79,30,27,86,86,129,105,11,7,9,12,0.3,0.3
2026-06-03T2300,4236A,103.629272,36.093822,兰州市,庄浪东路808号,,48,48,66,29,27,45,45,128,86,36,13,8,11,0.4,0.3
2026-06-03T2300,4237A,103.7251,36.104344,兰州市,安宁西路88号,颗粒物(PM10),65,70,80,28,30,81,81,133,107,25,13,19,13,0.3,0.3
2026-06-03T2300,4238A,103.846982,36.067567,兰州市,北滨河东路1号,颗粒物(PM10),52,52,70,29,27,61,61,118,95,44,24,15,14,0.5,0.4
2026-06-03T2300,1067A,116.6712,39.5109,廊坊市,药材公司,,25,23,55,14,27,77,77,122,92,14,13,2,2,0.6,0.6
2026-06-03T2300,1068A,116.7215,39.5592,廊坊市,开发区,,21,15,51,12,26,46,46,130,80,41,14,3,3,0.4,0.4
2026-06-03T2300,1070A,116.7246,39.5273,廊坊市,北华航天学院,,23,15,46,11,26,73,73,125,90,10,10,3,2,0.4,0.5
2026-06-03T2300,2919A,116.7022,39.5454,廊坊市,河北工业大学,,25,15,52,11,24,78,78,129,92,13,12,1,2,0.4,0.4
2026-06-03T2300,2536A,103.7629,29.5844,乐山市,牛耳桥,,42,42,37,24,29,96,96,132,124,17,12,5,5,0.4,0.4
2026-06-03T2300,2537A,103.7501,29.6002,乐山市,市第三水厂,,42,42,37,26,28,85,85,126,117,20,12,6,5,0.7,0.7
2026-06-03T2300,2538A,103.7571,29.5664,乐山市,市监测站,,43,43,38,25,26,100,100,133,124,16,10,4,3,0.9,0.9
2026-06-03T2300,3361A,103.7313,29.563,乐山市,理工大学,,43,43,37,26,29,96,96,142,131,18,11,4,3,0.5,0.6
2026-06-03T2300,2599A,100.2497,26.8802,丽江市,丽江古城,,28,NA,12,13,7,87,87,87,87,10,8,8,9,0.3,0.4
2026-06-03T2300,2600A,100.2203,26.8906,丽江市,市中心,,27,NA,14,12,7,84,84,85,85,7,6,5,5,0.5,0.5
2026-06-03T2300,1267A,119.9141,28.4513,丽水市,监测站大楼,,25,14,37,14,24,78,78,111,82,9,14,4,4,0.5,0.5
2026-06-03T2300,1268A,119.93,28.4589,丽水市,莲都小学,,25,21,37,12,24,80,80,114,89,9,11,/,/,/,/
2026-06-03T2300,1269A,119.8794,28.4232,丽水市,余庄前,,17,17,36,10,24,29,29,106,47,15,14,5,5,0.6,0.6
2026-06-03T2300,1173A,119.1759,34.5885,连云港市,市环境监测站,NA,NA,39,26,22,14,65,65,120,107,13,9,8,7,NA,0.4
2026-06-03T2300,3000A,119.3577,34.6971,连云港市,德源药业,NA,NA,41,35,19,19,NA,NA,99,NA,19,16,7,4,0.7,0.6
2026-06-03T2300,3007A,119.178,34.8442,连云港市,新城一中,,26,26,39,3,14,66,66,83,67,14,14,3,3,0.4,0.4
2026-06-03T2300,3008A,119.3607,34.7519,连云港市,胡沟管理处,,19,19,17,12,11,47,47,69,44,33,27,12,12,0.6,0.5
2026-06-03T2300,3009A,119.1478,34.5913,连云港市,矿山设计院,,39,39,28,14,10,60,60,113,91,12,7,4,4,0.2,0.2
2026-06-03T2300,3434A,119.2414,34.6539,连云港市,工贸学校,,38,38,27,18,17,76,76,126,102,9,10,4,4,0.6,0.6
2026-06-03T2300,3664A,119.4171,34.734,连云港市,连云街道,,47,47,36,17,17,57,57,84,74,30,28,10,11,0.5,0.5
2026-06-03T2300,2573A,102.2629,27.8981,凉山彝族自治州,西昌市政府,,21,21,28,10,16,66,66,85,79,6,10,9,10,0.6,0.6
2026-06-03T2300,2574A,102.2686,27.885,凉山彝族自治州,凉山州政府,,19,17,26,13,17,60,60,81,73,7,10,5,6,0.7,0.7
2026-06-03T2300,4229A,102.2342,27.8859,凉山彝族自治州,凯乐南路30号,,20,18,23,9,14,61,61,76,72,6,12,5,6,0.5,0.5
2026-06-03T2300,2212A,123.1978,41.2036,辽阳市,宏伟区,细颗粒物(PM2.5),100,NA,43,60,40,32,32,76,52,24,25,6,7,0.6,0.8
2026-06-03T2300,2213A,123.1684,41.2497,辽阳市,新华园,细颗粒物(PM2.5),98,NA,52,59,44,41,41,83,60,30,32,7,8,0.4,0.6
2026-06-03T2300,2214A,123.2355,41.2663,辽阳市,滨河路,细颗粒物(PM2.5),70,NA,41,45,38,21,21,72,50,45,32,6,7,0.3,0.5
2026-06-03T2300,4083A,123.153,41.2874,辽阳市,铁西路150号,细颗粒物(PM2.5),88,NA,47,54,43,35,35,79,57,34,32,6,7,0.4,0.5
2026-06-03T2300,2227A,125.1359,42.8845,辽源市,环保局,,33,23,20,23,8,54,54,76,65,17,30,7,7,0.7,0.7
2026-06-03T2300,4085A,125.0998,42.9134,辽源市,安宁大街333号,NA,NA,36,23,22,9,44,44,70,62,NA,35,2,3,0.4,0.4
2026-06-03T2300,1625A,115.9789,36.4372,聊城市,区政府,,39,18,111,3,36,122,122,205,184,4,11,7,11,0.5,0.6
2026-06-03T2300,3200A,115.9772,36.4986,聊城市,监控中心,,37,NA,114,10,36,118,118,217,190,5,11,6,11,0.4,0.5
2026-06-03T2300,3513A,116.0443,36.436,聊城市,九州社区,,40,23,89,3,33,127,127,224,198,5,12,1,7,0.4,0.5
2026-06-03T2300,4018A,116.0564,36.4609,聊城市,星美广场,,42,18,87,7,37,133,133,236,209,4,9,8,11,0.3,0.4
2026-06-03T2300,4113A,116.0091,36.4495,聊城市,利民路,,41,8,74,7,36,129,129,224,200,6,12,8,12,0.5,0.6
2026-06-03T2300,2632A,94.3683,29.6373,林芝市,林芝监测站,,31,NA,7,10,3,98,98,97,97,4,5,4,4,0.4,0.4
2026-06-03T2300,2633A,94.3616,29.6634,林芝市,林芝人民医院,,32,NA,8,15,6,102,102,104,104,4,5,3,3,0.2,0.2
2026-06-03T2300,2603A,100.0779,23.8981,临沧市,市环保局,NA,NA,NA,22,14,13,30,30,54,48,9,8,8,9,0.7,0.7
2026-06-03T2300,2604A,100.0894,23.882,临沧市,市气象局,,25,NA,18,17,14,39,39,58,52,8,8,6,6,0.5,0.5
2026-06-03T2300,1733A,111.5552,36.0791,临汾市,临钢医院,颗粒物(PM10),68,74,99,13,30,100,100,196,151,16,16,6,8,0.4,1
2026-06-03T2300,1734A,111.4984,36.0734,临汾市,技工学校,颗粒物(PM10),68,74,99,22,36,92,92,200,150,24,21,4,21,0.3,0.9
2026-06-03T2300,1736A,111.5017,36.0857,临汾市,市委,颗粒物(PM10),76,86,106,13,33,100,100,199,152,16,18,8,11,0.5,1.1
2026-06-03T2300,3018A,111.5048,36.1015,临汾市,唐尧大酒店,颗粒物(PM10),76,86,108,17,30,100,100,199,155,17,20,7,11,0.4,1
2026-06-03T2300,4244A,111.4879,36.053,临汾市,启星学校,颗粒物(PM10),58,60,93,18,36,71,71,193,140,30,24,6,9,0.4,1
2026-06-03T2300,4271A,103.2464,35.6123,临夏回族自治州,滨河东路1号,颗粒物(PM10),69,76,61,34,22,28,28,108,79,34,13,11,12,0.6,0.4
2026-06-03T2300,4310A,103.207136,35.599807,临夏回族自治州,新华街21号,颗粒物(PM10),63,67,49,39,22,48,48,98,81,3,6,9,10,0.6,0.5
2026-06-03T2300,1618A,118.3429,35.0532,临沂市,沂河小区,,41,41,46,20,18,50,50,170,124,18,12,12,12,0.2,0.2
2026-06-03T2300,1619A,118.2962,35.0568,临沂市,鲁南制药厂,颗粒物(PM10),51,51,45,25,19,62,62,179,134,22,18,12,12,0.4,0.4
2026-06-03T2300,1620A,118.2793,34.9976,临沂市,新光毛纺厂,,50,46,42,35,24,60,60,170,131,22,15,16,12,0.4,0.3
2026-06-03T2300,1621A,118.3955,35.0889,临沂市,河东保险公司,,34,34,35,22,16,46,46,159,118,25,15,9,10,0.1,0.1
2026-06-03T2300,3370A,118.3563,35.0215,临沂市,十里堡居委,,36,36,40,20,19,54,54,171,122,23,17,10,11,0.4,0.5
2026-06-03T2300,3496A,118.359,35.1067,临沂市,南坊新区,,48,48,44,26,18,48,48,159,120,23,15,10,10,0.2,0.3
2026-06-03T2300,3860A,118.3915,35.0297,临沂市,皇山花园小区,,46,46,42,22,18,50,50,164,119,23,15,12,12,0.5,0.5
2026-06-03T2300,1870A,109.4854,24.3898,柳州市,柳东小学,,28,23,24,17,14,88,88,110,108,11,9,6,5,0.6,0.6
2026-06-03T2300,1871A,109.4109,24.3304,柳州市,环保监测站,,33,33,24,17,13,90,90,109,105,14,11,6,6,0.7,0.6
2026-06-03T2300,1872A,109.3886,24.3408,柳州市,河西水厂,,36,36,27,19,14,87,87,116,110,17,11,7,7,0.7,0.6
2026-06-03T2300,1873A,109.4263,24.2951,柳州市,市四中,,36,36,30,23,18,75,75,116,105,22,15,6,6,0.7,0.6
2026-06-03T2300,1874A,109.396,24.3658,柳州市,市九中,颗粒物(PM10),57,59,29,24,13,68,68,102,96,20,10,6,6,0.7,0.6
2026-06-03T2300,1875A,109.4912,24.3164,柳州市,古亭山,,29,26,30,20,14,45,45,107,92,29,12,3,4,0.7,0.6
2026-06-03T2300,3402A,109.5422,24.3994,柳州市,市二中,,29,NA,29,20,15,82,82,118,112,16,11,5,6,0.6,0.6
2026-06-03T2300,2307A,116.5078,31.7369,六安市,监测大楼,细颗粒物(PM2.5),68,NA,46,44,45,50,50,133,88,12,12,4,4,0.5,0.6
2026-06-03T2300,2308A,116.4738,31.7642,六安市,皖西学院,细颗粒物(PM2.5),52,44,60,36,47,62,62,131,97,9,11,6,6,0.4,0.5
2026-06-03T2300,2309A,116.4997,31.7904,六安市,朝阳厂,细颗粒物(PM2.5),64,NA,53,42,50,55,55,134,100,13,16,7,8,0.5,0.5
2026-06-03T2300,2310A,116.5566,31.7885,六安市,开发区,细颗粒物(PM2.5),64,NA,50,42,51,51,51,147,96,22,14,6,6,0.4,0.5
2026-06-03T2300,2577A,104.8293,26.592,六盘水市,黄土坡,,29,29,29,16,21,50,50,77,50,13,12,3,5,0.4,0.4
2026-06-03T2300,2579A,104.8481,26.5898,六盘水市,民中,,20,20,27,10,19,63,63,72,62,15,14,1,3,0.4,0.6
2026-06-03T2300,2580A,104.9541,26.5506,六盘水市,双水,,26,24,21,18,14,33,33,74,60,18,11,4,4,0.4,0.3
2026-06-03T2300,4151A,104.8899,26.5685,六盘水市,钟山大道中段564号,,23,23,36,13,21,53,53,76,66,18,11,4,5,0.9,0.9
2026-06-03T2300,2336A,117.022,25.1031,龙岩市,龙岩市监测站,,30,NA,29,21,22,71,71,108,90,7,8,5,6,0.3,0.4
2026-06-03T2300,2337A,117.0257,25.0662,龙岩市,闽西职业技术学院,,24,24,32,16,22,58,58,103,82,8,5,6,6,0.5,0.6
2026-06-03T2300,2338A,117.0195,25.0306,龙岩市,龙岩学院,,22,20,29,14,19,69,69,110,86,4,5,3,2,/,/
2026-06-03T2300,2885A,104.9344,33.3827,陇南市,滨江中学,颗粒物(PM10),55,57,50,21,20,108,108,121,110,4,12,7,5,0.4,0.5
2026-06-03T2300,3247A,104.9551,33.3709,陇南市,市总工会,,48,48,41,16,15,99,99,120,108,7,7,7,7,0.5,0.5
2026-06-03T2300,2488A,111.9984,27.7346,娄底市,市监测站,,20,14,36,14,28,44,44,76,54,8,11,3,6,0.3,0.6
2026-06-03T2300,2491A,111.9888,27.7035,娄底市,市政府,,18,18,32,12,29,41,41,80,55,4,7,4,2,0.3,0.6
2026-06-03T2300,4127A,111.9812,27.7591,娄底市,涟钢职大,,23,23,34,10,26,46,46,89,55,10,10,5,6,0.5,1.3
2026-06-03T2300,4128A,112.0303,27.7457,娄底市,娄底体校,,22,22,35,14,28,47,47,96,60,6,8,1,2,0.4,0.7
2026-06-03T2300,1894A,105.4427,28.9063,泸州市,小市上码头,,43,43,26,20,11,98,98,140,123,17,11,7,6,0.4,0.3
2026-06-03T2300,1895A,105.4241,28.8573,泸州市,兰田宪桥,,46,46,34,25,17,91,91,145,121,20,16,7,5,0.6,0.5
2026-06-03T2300,1896A,105.4378,28.8833,泸州市,市环监站,,32,32,22,18,11,95,95,137,119,18,13,8,7,0.7,0.6
2026-06-03T2300,4272A,105.3689,28.7783,泸州市,纳溪中医医院,细颗粒物(PM2.5),54,50,33,37,20,60,60,142,115,22,15,6,5,0.7,0.6
2026-06-03T2300,2183A,111.1447,37.5212,吕梁市,环保局,颗粒物(PM10),79,90,97,31,24,18,18,152,100,59,21,3,4,0.4,0.3
2026-06-03T2300,2185A,111.1285,37.5338,吕梁市,自来水公司,颗粒物(PM10),109,141,84,28,24,55,55,148,103,31,20,1,2,0.3,0.4
2026-06-03T2300,2867A,111.1225,37.5093,吕梁市,马茂庄小学,颗粒物(PM10),74,83,96,24,21,43,43,156,104,38,27,5,6,0.3,0.3
2026-06-03T2300,1812A,112.3934,34.6517,洛阳市,市委党校,颗粒物(PM10),74,83,65,28,29,105,105,171,145,21,17,10,11,0.5,0.6
2026-06-03T2300,1815A,112.494,34.6883,洛阳市,河南林校,颗粒物(PM10),75,85,72,24,31,115,115,193,168,19,19,11,14,0.6,0.7
2026-06-03T2300,1816A,112.3843,34.623,洛阳市,开发区管委会,颗粒物(PM10),68,75,55,36,28,131,131,171,152,14,11,12,11,0.5,0.4
2026-06-03T2300,1817A,112.4263,34.6249,洛阳市,市委新办公区,颗粒物(PM10),83,95,61,45,29,112,112,167,150,16,12,13,11,0.3,0.2
2026-06-03T2300,3340A,112.6005,34.6323,洛阳市,伊滨,颗粒物(PM10),53,53,65,26,27,115,115,166,148,13,13,8,8,0.5,0.5
2026-06-03T2300,3341A,112.495,34.6338,洛阳市,中移产业园,颗粒物(PM10),66,72,58,29,28,115,115,171,150,19,16,4,10,0.5,0.6
2026-06-03T2300,3593A,112.5736,34.8993,洛阳市,吉利监测站,颗粒物(PM10),71,79,66,31,25,116,116,178,157,14,9,10,9,0.2,0.2
2026-06-03T2300,3635A,112.3678,34.6623,洛阳市,河科大西苑校区,颗粒物(PM10),87,101,74,36,32,112,112,177,148,24,20,12,14,0.6,0.6
2026-06-03T2300,3636A,112.4387,34.678,洛阳市,英才小学,颗粒物(PM10),81,93,76,30,34,107,107,181,156,16,17,10,15,0.5,0.7
2026-06-03T2300,4214A,112.460027,34.694929,洛阳市,春都路1号院,颗粒物(PM10),79,90,77,28,40,109,109,192,161,16,20,8,14,0.2,0.4
2026-06-03T2300,2399A,114.051,33.5721,漯河市,三五一五工厂,颗粒物(PM10),112,150,95,40,44,95,95,193,160,30,16,38,8,0.5,0.5
2026-06-03T2300,2400A,114.0055,33.5698,漯河市,漯河大学,细颗粒物(PM2.5),76,85,87,48,47,95,95,194,162,28,17,6,7,0.5,0.5
2026-06-03T2300,2401A,114.0134,33.5826,漯河市,市水利局,细颗粒物(PM2.5),78,83,88,49,46,102,102,189,160,22,16,5,6,0.4,0.4
2026-06-03T2300,2402A,114.0261,33.5697,漯河市,市广电局,颗粒物(PM10),74,83,89,35,41,123,123,212,182,17,15,5,6,0.6,0.5
2026-06-03T2300,3478A,113.9691,33.568,漯河市,市图书馆,颗粒物(PM10),94,111,89,36,44,97,97,187,160,21,18,6,7,0.7,0.7
2026-06-03T2300,4250A,114.089259,33.588274,漯河市,韶山路11号,颗粒物(PM10),95,112,94,43,40,95,95,183,154,21,13,8,9,0.4,0.4
2026-06-03T2300,1798A,118.5084,31.6838,马鞍山市,湖东路四小,,48,35,66,33,46,64,64,106,77,9,16,6,7,0.6,0.9
2026-06-03T2300,1799A,118.5019,31.6449,马鞍山市,开发区,,43,34,77,30,58,57,57,99,69,7,17,5,6,0.6,0.8
2026-06-03T2300,3633A,118.4914,31.681,马鞍山市,雨山,,32,31,65,22,38,68,68,118,82,8,14,4,4,0.8,1
2026-06-03T2300,4191A,118.527362,31.722269,马鞍山市,慈湖高新区,NA,NA,47,88,32,61,NA,NA,105,NA,17,25,4,5,0.6,0.8
2026-06-03T2300,1686A,111.0285,21.469,茂名市,电白南海,,27,27,22,11,12,56,56,77,63,3,3,5,5,0.3,0.3
2026-06-03T2300,1687A,110.9294,21.6533,茂名市,茂石化七小,,22,22,27,13,15,49,49,89,68,11,9,6,7,0.2,0.3
2026-06-03T2300,1688A,110.9108,21.6688,茂名市,健康路,,18,17,17,12,14,55,55,91,71,8,7,4,6,0.6,0.6
2026-06-03T2300,1689A,110.8592,21.6826,茂名市,高岭,,24,24,27,12,15,45,45,81,64,11,6,3,6,/,/
2026-06-03T2300,3450A,111.0101,21.5165,茂名市,电白水东,,19,17,15,11,12,58,58,78,66,5,4,2,2,/,/
2026-06-03T2300,2540A,103.8414,30.0871,眉山市,气象局,颗粒物(PM10),52,52,39,18,22,110,110,157,144,18,18,7,7,0.7,0.6
2026-06-03T2300,3148A,103.829,30.0563,眉山市,区人社局,,47,47,41,29,20,98,98,150,134,21,19,8,7,0.7,0.6
2026-06-03T2300,4148A,103.8836,30.0695,眉山市,眉职院,,37,37,46,15,21,101,101,150,136,16,12,6,7,0.7,0.6
2026-06-03T2300,1690A,116.1248,24.3307,梅州市,梅江月梅,,32,26,27,22,21,53,53,92,57,15,8,/,/,/,/
2026-06-03T2300,1691A,116.0798,24.2719,梅州市,梅县新城,,29,26,27,20,20,63,63,99,74,11,10,8,9,0.5,0.5
2026-06-03T2300,3315A,116.1234,24.2994,梅州市,梅龙,,28,22,24,19,18,54,54,107,80,15,8,6,6,0.7,0.7
2026-06-03T2300,1878A,104.7775,31.4741,绵阳市,富乐山,,39,39,37,25,27,109,109,153,143,7,9,9,9,0.7,0.7
2026-06-03T2300,1880A,104.6698,31.4668,绵阳市,高新区自来水公司,,40,40,38,23,26,103,103,149,138,14,13,9,9,0.7,0.6
2026-06-03T2300,3491A,104.6899,31.5324,绵阳市,西科大附属小学,颗粒物(PM10),51,51,41,26,27,65,65,156,142,46,19,6,6,0.7,0.7
2026-06-03T2300,3492A,104.5647,31.5343,绵阳市,安州区旅游局,,44,44,47,20,28,111,111,166,154,18,11,4,5,0.5,0.6
2026-06-03T2300,4146A,104.7092,31.4972,绵阳市,科技城新区公安局,颗粒物(PM10),53,53,43,24,24,89,89,161,148,23,13,8,9,0.7,0.6
2026-06-03T2300,4226A,104.765114,31.453094,绵阳市,绵阳市气象局,,50,50,40,26,25,112,112,142,134,13,15,8,8,0.5,0.5
2026-06-03T2300,1784A,129.61,44.561,牡丹江市,环保大楼,,20,20,20,3,6,47,47,89,74,21,11,5,5,0.2,0.2
2026-06-03T2300,1787A,129.6364,44.6075,牡丹江市,机车工厂,,24,24,34,10,18,40,40,78,59,21,11,6,6,0.2,0.2
2026-06-03T2300,1788A,129.6386,44.5462,牡丹江市,第一中学,,21,21,21,3,11,45,45,86,68,17,9,5,5,0.2,0.2
2026-06-03T2300,4287A,129.5992,44.5964,牡丹江市,东晓云街98号,,30,30,27,8,9,55,55,84,72,12,9,6,5,0.2,0.2
2026-06-03T2300,2531A,105.0703,29.61,内江市,市监测站,,39,39,25,21,17,112,112,151,144,15,12,11,11,0.6,0.6
2026-06-03T2300,2533A,105.0657,29.5807,内江市,内江二中,,35,31,23,24,17,103,103,148,139,17,11,9,9,0.5,0.5
2026-06-03T2300,2534A,105.0407,29.5828,内江市,内江日报社,,46,46,19,26,19,98,98,155,148,26,13,16,14,0.4,0.5
2026-06-03T2300,4147A,105.0433,29.6105,内江市,玉峰路西段888号,,43,33,24,30,18,108,108,148,142,18,12,12,11,0.5,0.5
2026-06-03T2300,2628A,92.0653,31.4846,那曲市,那曲监测站,,31,30,9,20,8,97,97,127,123,10,6,5,5,0.5,0.4
2026-06-03T2300,4243A,92.0515,31.4787,那曲市,那曲市委宣传部,,30,NA,6,18,7,96,96,125,122,13,7,8,7,0.6,0.4
2026-06-03T2300,1291A,115.8887,28.7006,南昌市,省林业公司,,24,9,48,3,40,75,75,118,90,9,22,4,6,0.5,0.6
2026-06-03T2300,1292A,115.813,28.7443,南昌市,林科所,,18,7,37,3,36,27,27,112,67,35,21,6,8,0.6,0.7
2026-06-03T2300,1294A,115.8518,28.687,南昌市,建工学校,,40,40,49,3,37,67,67,114,83,13,17,7,10,0.7,0.8
2026-06-03T2300,1295A,115.8926,28.6425,南昌市,象湖,,20,NA,34,8,33,64,64,104,78,18,19,7,11,0.6,0.7
2026-06-03T2300,3046A,115.9084,28.6062,南昌市,机电学校,,18,17,45,7,31,56,56,107,76,13,17,5,7,0.7,0.7
2026-06-03T2300,3690A,115.9718,28.7032,南昌市,外国语学校,,21,10,49,8,38,65,65,77,77,9,13,11,14,0.8,0.8
2026-06-03T2300,4106A,115.7923,28.6873,南昌市,工业二路,,19,19,46,6,38,56,56,113,82,9,13,5,6,0.5,0.7
2026-06-03T2300,4192A,115.931587,28.686774,南昌市,南京东路235号,,22,NA,35,9,35,70,70,124,88,17,17,4,7,0.9,0.9
2026-06-03T2300,1906A,106.0791,30.8022,南充市,南充市委,,45,42,39,31,28,102,102,122,118,14,13,6,7,0.2,0.3
2026-06-03T2300,1907A,106.1038,30.8215,南充市,南充炼油厂,颗粒物(PM10),53,53,42,27,28,108,108,129,125,13,13,7,8,0.4,0.4
2026-06-03T2300,4227A,106.108336,30.788436,南充市,梨树横街98号,,38,38,38,26,28,109,109,129,126,13,13,7,10,0.2,0.3
2026-06-03T2300,4304A,106.1172,30.843,南充市,清泉寺北路188号,,40,40,42,26,29,112,112,130,127,13,12,7,8,0.4,0.4
2026-06-03T2300,4305A,106.067,30.7616,南充市,同庆路1号,,46,40,38,32,26,100,100,124,121,15,13,8,8,0.4,0.4
2026-06-03T2300,1151A,118.8033,32.1085,南京市,迈皋桥,,32,NA,50,22,41,70,70,141,108,17,20,5,8,0.5,0.6
2026-06-03T2300,1152A,118.7487,32.057,南京市,草场门,,31,19,58,19,44,99,99,148,121,9,19,4,6,0.9,0.8
2026-06-03T2300,1154A,118.770105,32.004342,南京市,中华门,,26,22,56,18,40,71,71,123,93,6,12,7,6,1.1,1.1
2026-06-03T2300,1155A,118.8059,32.0329,南京市,瑞金路,,25,17,59,17,43,80,80,132,103,13,23,4,4,0.9,0.8
2026-06-03T2300,1156A,118.7946,32.0774,南京市,玄武湖,,31,31,61,17,38,67,67,124,96,17,22,4,7,0.5,0.5
2026-06-03T2300,1157A,118.6415,32.0964,南京市,浦口,,35,NA,58,24,42,64,64,125,92,20,24,4,5,0.8,0.7
2026-06-03T2300,1158A,118.730129,32.000956,南京市,奥体中心,,36,25,62,25,40,77,77,131,103,11,20,6,8,0.7,0.5
2026-06-03T2300,1159A,118.9072,32.1047,南京市,仙林大学城,,31,31,65,21,40,68,68,142,106,13,19,6,8,0.8,0.9
2026-06-03T2300,3422A,118.8443,31.919,南京市,江宁彩虹桥,,30,23,65,21,36,66,66,130,94,12,18,4,5,0.6,0.7
2026-06-03T2300,3427A,118.8497,32.3599,南京市,六合雄州,,36,36,70,24,45,64,64,120,93,14,32,4,4,0.5,0.7
2026-06-03T2300,4086A,118.7641,32.0841,南京市,新模范马路66号,,29,29,72,13,37,92,92,148,118,5,16,4,4,0.8,0.7
2026-06-03T2300,4249A,118.8707617,31.34017673,南京市,汶溪路181号,,36,28,43,25,54,56,56,98,74,6,9,8,7,0.4,0.5
2026-06-03T2300,4312A,119.019,31.6512,南京市,中山西路1号,NA,NA,NA,79,NA,65,NA,NA,170,NA,NA,26,NA,4,NA,0.9
2026-06-03T2300,1401A,108.3098,22.788,南宁市,二十一中,,34,34,19,17,10,50,50,78,73,11,9,1,1,0.4,0.4
2026-06-03T2300,1402A,108.3135,22.8529,南宁市,北湖,,33,33,20,14,11,54,54,82,74,8,9,3,3,0.8,0.8
2026-06-03T2300,1403A,108.3205,22.8222,南宁市,市监测站,,21,21,20,11,8,56,56,90,82,6,5,4,4,0.7,0.6
2026-06-03T2300,1404A,108.3828,22.8038,南宁市,大自然花园,,29,25,17,20,8,52,52,82,76,9,6,5,4,0.4,0.3
2026-06-03T2300,1406A,108.2397,22.8462,南宁市,区农职院,,35,32,21,24,11,51,51,84,75,9,7,4,3,0.7,0.6
2026-06-03T2300,1407A,108.3285,22.7356,南宁市,英华嘉园,,28,28,22,14,10,49,49,80,73,13,11,4,4,0.6,0.6
2026-06-03T2300,3401A,108.4829,22.762,南宁市,红星社区,,29,29,19,12,10,53,53,84,79,9,8,7,6,0.6,0.3
2026-06-03T2300,4132A,108.2927,23.1477,南宁市,起凤路9号,,36,36,23,20,14,55,55,111,90,18,13,6,5,0.6,0.5
2026-06-03T2300,4221A,108.2177,22.7774,南宁市,乐贤路16号,,33,33,24,15,10,47,47,81,71,15,13,5,5,0.7,0.6
2026-06-03T2300,2332A,118.1682,26.6371,南平市,南平市监测站,,23,11,33,8,24,73,73,107,78,6,10,4,5,0.4,0.5
2026-06-03T2300,2334A,118.1757,26.6276,南平市,南平七中,,19,14,35,11,22,60,60,107,75,6,10,2,3,0.4,0.5
2026-06-03T2300,1168A,120.9056,31.9669,南通市,狼山街道,细颗粒物(PM2.5),84,NA,42,52,45,47,47,161,104,35,28,4,6,1.1,1
2026-06-03T2300,1170A,120.8635,32.0231,南通市,城中,细颗粒物(PM2.5),103,NA,60,63,46,74,74,179,122,22,22,6,7,0.8,0.7
2026-06-03T2300,1171A,120.9376,31.9301,南通市,星湖花园,细颗粒物(PM2.5),58,39,44,39,36,79,79,164,117,22,25,4,5,0.8,0.8
2026-06-03T2300,1172A,120.8053,32.046,南通市,紫琅学院,细颗粒物(PM2.5),80,NA,54,50,42,45,45,112,76,30,25,6,7,0.8,0.8
2026-06-03T2300,3291A,121.0631,32.0644,南通市,通州监测站,细颗粒物(PM2.5),68,NA,47,44,38,90,90,166,133,10,10,6,7,1.0,0.8
2026-06-03T2300,3432A,120.9348,31.9874,南通市,环境教育馆,细颗粒物(PM2.5),74,NA,59,47,51,69,69,167,112,17,24,5,6,0.8,0.7
2026-06-03T2300,4091A,120.8692,31.9885,南通市,洪江路,细颗粒物(PM2.5),104,NA,48,64,50,62,62,148,101,24,24,4,5,1.0,0.9
2026-06-03T2300,2404A,112.5338,33.0086,南阳市,瓦房庄,颗粒物(PM10),63,67,69,32,38,106,106,169,146,12,11,5,7,0.6,0.7
2026-06-03T2300,2405A,112.5002,32.9734,南阳市,汉画馆,颗粒物(PM10),75,84,85,35,38,91,91,160,136,25,19,6,7,0.5,0.5
2026-06-03T2300,2406A,112.5778,33.0144,南阳市,气象站,颗粒物(PM10),68,75,81,27,37,103,103,164,144,11,12,6,8,0.4,0.5
2026-06-03T2300,2407A,112.548,32.9687,南阳市,理工学院,颗粒物(PM10),60,63,74,34,43,99,99,170,148,20,16,7,8,0.4,0.4
2026-06-03T2300,4008A,112.5233,32.9921,南阳市,卧龙区政府,颗粒物(PM10),88,102,84,39,42,98,98,162,148,16,16,5,6,0.6,0.6
2026-06-03T2300,1234A,121.8352,29.9111,宁波市,区环保大楼,,47,47,53,27,25,51,51,80,53,28,35,6,8,0.5,0.5
2026-06-03T2300,1235A,121.5595,29.8208,宁波市,万里学院,,34,34,42,22,25,39,39,88,51,19,16,7,7,0.8,0.7
2026-06-03T2300,1236A,121.713,29.9564,宁波市,龙赛医院,,37,37,51,23,29,38,38,113,52,25,21,8,9,0.6,0.6
2026-06-03T2300,1240A,121.5855,29.8635,宁波市,太古小学,,33,31,41,23,26,44,44,91,54,15,15,6,5,0.3,0.3
2026-06-03T2300,1241A,121.5239,29.8673,宁波市,市环境监测中心,,50,50,56,26,28,44,44,83,50,19,17,6,15,0.7,0.9
2026-06-03T2300,2871A,121.6156,29.9015,宁波市,万里国际学校,,32,32,40,20,25,54,54,106,63,13,14,7,7,0.5,0.5
2026-06-03T2300,3710A,121.5593,29.8976,宁波市,白沙活动中心,,35,29,35,24,30,49,49,94,60,17,17,8,7,0.5,0.5
2026-06-03T2300,4095A,121.8962,29.7529,宁波市,中科路88号,,42,32,28,29,21,84,84,84,71,4,7,5,6,0.3,0.3
2026-06-03T2300,2341A,119.5387,26.6611,宁德市,宁德市监测站,NA,NA,35,62,32,41,NA,NA,204,NA,19,26,6,7,1.1,1.4
2026-06-03T2300,3209A,119.5231,26.6562,宁德市,宁德一中,细颗粒物(PM2.5),54,53,45,37,45,74,74,197,136,15,15,7,9,1.2,1.4
2026-06-03T2300,2618A,98.859,25.8541,怒江傈僳族自治州,州监测站,,25,24,24,17,13,37,37,71,66,20,10,4,5,0.6,0.4
2026-06-03T2300,2619A,98.8607,25.8168,怒江傈僳族自治州,泸水一中,,30,NA,20,21,14,38,38,60,54,15,12,4,4,0.8,0.7
2026-06-03T2300,1888A,101.6891,26.571,攀枝花市,弄弄坪,颗粒物(PM10),56,58,24,12,5,87,87,89,81,10,8,5,3,0.3,0.3
2026-06-03T2300,1889A,101.577,26.5914,攀枝花市,河门口,,36,36,19,12,8,77,77,98,83,6,10,9,11,0.6,0.9
2026-06-03T2300,1891A,101.7365,26.4986,攀枝花市,仁和,,30,30,13,15,8,76,76,70,70,7,6,6,6,0.4,0.4
2026-06-03T2300,2835A,101.7222,26.567,攀枝花市,四十中小,,26,21,17,15,7,81,81,83,80,7,5,14,9,0.6,0.6
2026-06-03T2300,1604A,122.0303,41.1489,盘锦市,开发区,,43,NA,19,30,21,69,69,94,89,7,10,6,7,0.3,0.3
2026-06-03T2300,1605A,122.0486,41.0883,盘锦市,兴隆台,细颗粒物(PM2.5),96,NA,20,58,42,64,64,70,NA,9,13,6,6,0.6,0.6
2026-06-03T2300,1606A,121.8297,41.1026,盘锦市,新生街道,细颗粒物(PM2.5),52,NA,19,36,38,69,69,81,81,14,15,5,7,0.3,0.4
2026-06-03T2300,1832A,113.3257,33.7423,平顶山市,新华旅馆,颗粒物(PM10),80,91,85,38,50,130,130,199,170,19,13,3,4,0.6,0.6
2026-06-03T2300,1833A,113.2917,33.737,平顶山市,规划设计院,颗粒物(PM10),85,99,85,43,51,111,111,193,161,13,7,4,5,0.6,0.7
2026-06-03T2300,1834A,113.182,33.7738,平顶山市,平顶山工学院,NA,NA,71,69,33,42,89,89,180,150,NA,12,5,6,NA,0.5
2026-06-03T2300,3594A,112.8736,33.9068,平顶山市,石龙区,颗粒物(PM10),63,67,80,31,37,94,94,158,127,13,21,10,11,0.6,0.6
2026-06-03T2300,4116A,113.284,33.7139,平顶山市,姚电大道23号,颗粒物(PM10),104,130,105,37,50,96,96,199,158,31,15,6,8,0.6,0.6
2026-06-03T2300,2656A,106.6633,35.5338,平凉市,聚贤嘉苑,颗粒物(PM10),81,93,90,38,28,74,74,131,112,23,15,10,10,0.5,0.5
2026-06-03T2300,2657A,106.7021,35.5307,平凉市,博物馆,颗粒物(PM10),75,84,81,30,23,83,83,131,114,15,14,8,9,0.4,0.5
2026-06-03T2300,2348A,113.8384,27.6436,萍乡市,中医院,,27,27,32,6,19,49,49,88,67,17,15,9,9,1.3,0.8
2026-06-03T2300,2350A,113.8677,27.6438,萍乡市,市环保局,,22,22,37,9,24,35,35,92,71,23,13,12,13,1.3,0.6
2026-06-03T2300,2351A,113.8663,27.6202,萍乡市,安源区政府,,20,16,30,14,21,38,38,90,70,17,10,6,8,0.5,0.5
2026-06-03T2300,4107A,113.8686,27.6668,萍乡市,联洪村委会,,16,16,36,10,22,42,42,78,62,10,13,7,9,0.6,0.7
2026-06-03T2300,2319A,119.0142,25.4324,莆田市,荔城区仓后路,,36,NA,52,25,33,63,63,124,72,10,13,/,/,/,/
2026-06-03T2300,2320A,119.0016,25.4553,莆田市,莆田市监测站,,29,29,46,18,32,64,64,136,89,9,11,3,3,0.5,0.6
2026-06-03T2300,2321A,119.112,25.4561,莆田市,涵江区六中,,24,24,50,15,32,51,51,123,73,17,15,/,/,0.7,0.7
2026-06-03T2300,2322A,119.1014,25.3215,莆田市,秀屿区政府,,36,29,44,25,26,57,57,119,79,10,10,5,5,0.6,0.6
2026-06-03T2300,2392A,115.0312,35.7636,濮阳市,环保局,,47,47,124,20,40,141,141,217,192,4,14,3,7,0.9,1
2026-06-03T2300,3021A,115,35.7667,濮阳市,濮水河管理处,,43,NA,117,18,40,136,136,209,186,7,15,3,6,0.7,0.7
2026-06-03T2300,4118A,115.0552,35.7816,濮阳市,中原东路68号,,41,34,139,25,40,130,130,220,193,8,16,3,7,0.8,0.9
2026-06-03T2300,4216A,115.0923632,35.76857718,濮阳市,任丘路479号,,43,40,134,14,46,136,136,219,187,5,14,2,6,0.5,0.6
2026-06-03T2300,2601A,100.9801,22.7634,普洱市,市环保局,,34,34,32,16,16,62,62,72,66,5,7,5,6,0.5,0.7
2026-06-03T2300,2602A,100.9763,22.8237,普洱市,普洱第二中学,,34,34,40,16,12,61,61,69,64,5,9,6,6,0.6,0.7
2026-06-03T2300,3345A,131.0413,45.7795,七台河市,中波台,,25,6,16,3,6,79,79,91,77,8,11,4,4,0.5,0.5
2026-06-03T2300,3637A,131.0136,45.7688,七台河市,人民广场,,24,9,18,3,5,76,76,95,85,14,12,6,5,0.4,0.4
2026-06-03T2300,3684A,130.8639,45.8144,七台河市,新建矿广场,,17,NA,16,10,7,53,53,76,60,13,15,3,4,0.4,0.4
2026-06-03T2300,1779A,123.9307,47.3641,齐齐哈尔市,安居小区,,21,11,25,3,10,66,66,87,73,5,10,3,3,0.4,0.4
2026-06-03T2300,1780A,123.9497,47.3389,齐齐哈尔市,中心广场,,20,14,23,11,9,62,62,82,71,18,18,4,4,0.6,0.6
2026-06-03T2300,1781A,123.9483,47.3229,齐齐哈尔市,农牧车辆厂,,23,17,26,3,9,71,71,92,77,9,12,8,9,0.4,0.5
2026-06-03T2300,1783A,123.9442,47.2994,齐齐哈尔市,市环境监测站,,19,10,21,3,13,60,60,86,71,8,10,3,4,0.5,0.5
2026-06-03T2300,3662A,123.6341,47.2079,齐齐哈尔市,富区青少年活动中心,,24,8,30,3,16,74,74,89,79,9,17,4,5,0.1,0.3
2026-06-03T2300,2591A,107.9765,26.5724,黔东南苗族侗族自治州,市环境监测站,,20,19,22,14,19,23,23,69,57,21,10,2,2,0.6,0.5
2026-06-03T2300,2881A,107.8909,26.531,黔东南苗族侗族自治州,凯里学院,,24,24,19,16,18,26,26,70,55,18,10,2,2,0.6,0.6
2026-06-03T2300,2593A,107.5223,26.2371,黔南布依族苗族自治州,小围寨,,30,NA,20,21,17,57,57,68,62,6,7,5,5,0.5,0.6
2026-06-03T2300,3538A,107.5175,26.2977,黔南布依族苗族自治州,沙坝,,24,24,22,15,16,49,49,69,66,8,5,3,4,0.6,0.6
2026-06-03T2300,2589A,104.9022,25.0943,黔西南布依族苗族自治州,场坝街,NA,NA,NA,21,NA,18,NA,NA,86,86,NA,3,NA,6,NA,0.4
2026-06-03T2300,2590A,104.8812,25.0994,黔西南布依族苗族自治州,坪东大道,,23,12,19,7,16,71,71,85,83,6,4,5,5,0.4,0.4
2026-06-03T2300,2502A,108.6238,21.9667,钦州市,市环保站,,19,9,19,8,8,60,60,79,64,6,6,2,2,0.5,0.5
2026-06-03T2300,2503A,108.655,21.9481,钦州市,沙埠小学,,40,40,26,12,12,41,41,83,56,16,9,8,8,0.6,0.5
2026-06-03T2300,2504A,108.5989,21.7435,钦州市,港区一小,,40,40,30,15,12,50,50,62,55,13,8,2,3,0.6,0.5
2026-06-03T2300,3404A,108.5959,21.9634,钦州市,北职校,NA,NA,28,22,10,10,NA,NA,76,56,6,6,6,4,0.5,0.6
2026-06-03T2300,1046A,119.5247,39.9346,秦皇岛市,建设大厦,,25,19,39,3,18,78,78,80,80,5,12,5,5,0.2,0.3
2026-06-03T2300,3132A,119.5979,39.938,秦皇岛市,文明里,,30,30,43,3,20,82,82,75,75,7,18,4,5,0.2,0.3
2026-06-03T2300,4066A,119.7458,39.9952,秦皇岛市,南园路157号,,21,19,36,6,18,65,65,70,68,20,27,8,8,0.2,0.2
2026-06-03T2300,4067A,119.5131,39.8858,秦皇岛市,翠岛大街1号,,25,13,20,3,18,77,77,78,78,10,16,8,9,0.3,0.3
2026-06-03T2300,4198A,119.509013,39.825305,秦皇岛市,北戴河轮滑馆,,28,28,36,12,15,44,44,76,69,17,13,8,8,0.3,0.2
2026-06-03T2300,1310A,120.404,36.0625,青岛市,市南区东部子站,NA,NA,NA,3,4,2,67,67,71,NA,4,9,NA,6,0.1,0.3
2026-06-03T2300,1311A,120.362344,36.10282,青岛市,四方区子站,,28,NA,3,7,3,88,88,85,82,8,7,7,7,0.5,0.5
2026-06-03T2300,1312A,120.294373,36.054183,青岛市,市南区西部子站,,25,9,1,3,1,78,78,75,60,14,20,4,4,0.6,0.7
2026-06-03T2300,1313A,120.4581,36.0858,青岛市,崂山区子站,,20,NA,2,3,2,61,61,87,76,19,10,7,6,0.3,0.3
2026-06-03T2300,1315A,120.3945,36.3083,青岛市,城阳区子站,,27,7,6,7,2,85,85,84,84,10,9,6,6,0.3,0.3
2026-06-03T2300,3642A,120.3454,36.0735,青岛市,市北区南部,,25,6,5,3,1,78,78,88,82,20,7,4,3,0.5,0.5
2026-06-03T2300,3643A,120.3897,36.18,青岛市,李沧区北部,,26,7,4,3,2,81,81,74,74,6,6,10,10,0.3,0.3
2026-06-03T2300,4110A,120.5222,36.4089,青岛市,盟旺路653号,,25,11,10,6,4,79,79,85,81,5,5,6,5,0.5,0.6
2026-06-03T2300,4290A,120.196923,35.954556,青岛市,珠江路669号,,30,NA,3,6,2,94,94,84,84,4,6,4,4,0.5,0.5
2026-06-03T2300,4291A,120.0424,35.8656,青岛市,黄岛区人民政府广场,,28,9,8,6,2,89,89,80,80,7,7,8,9,0.5,0.5
2026-06-03T2300,1703A,113.0218,23.7086,清远市,凤城街办,,39,36,44,27,35,67,67,134,115,25,17,/,/,/,/
2026-06-03T2300,3025A,113.0479,23.6343,清远市,技师学院,,46,46,36,24,23,63,63,151,126,27,16,6,6,0.6,0.5
2026-06-03T2300,3318A,112.9898,23.7403,清远市,清新太和,,39,39,39,25,28,86,86,116,105,17,13,7,9,0.5,0.5
2026-06-03T2300,3455A,113.076,23.72,清远市,清城东城,,40,40,40,20,26,73,73,141,118,22,14,/,/,/,/
2026-06-03T2300,2661A,107.6325,35.7357,庆阳市,庆阳五中,颗粒物(PM10),73,82,72,28,21,94,94,105,101,10,11,4,4,0.3,0.4
2026-06-03T2300,2662A,107.6361,35.7067,庆阳市,市环保局,颗粒物(PM10),67,73,69,24,23,106,106,119,116,11,12,5,5,0.3,0.4
2026-06-03T2300,1916A,103.7897,25.5036,曲靖市,环境监测站,NA,NA,24,23,8,11,NA,NA,109,108,6,7,4,5,0.2,0.3
2026-06-03T2300,1917A,103.8013,25.5357,曲靖市,烟厂办公区,,28,28,20,3,11,81,81,106,100,7,7,4,5,0.4,0.3
2026-06-03T2300,3376A,103.7926,25.4651,曲靖市,南苑二区,,28,14,15,3,10,89,89,100,97,4,5,4,4,0.6,0.6
2026-06-03T2300,3377A,103.7442,25.5259,曲靖市,曲靖师范学院,,34,34,22,3,10,77,77,104,98,9,9,2,3,0.5,0.4
2026-06-03T2300,1264A,118.8694,28.94,衢州市,环保大楼,细颗粒物(PM2.5),96,69,66,58,50,51,51,108,80,26,23,/,/,/,/
2026-06-03T2300,1266A,118.8622,28.9809,衢州市,衢州学院,细颗粒物(PM2.5),92,72,59,56,44,34,34,106,81,50,34,7,8,0.7,0.6
2026-06-03T2300,4097A,118.9646,28.9832,衢州市,衢州三中,细颗粒物(PM2.5),103,70,62,63,49,41,41,103,85,34,32,5,5,0.7,0.7
2026-06-03T2300,1611A,118.5818,24.9116,泉州市,涂山街,,29,29,40,16,28,54,54,116,77,11,13,3,4,0.6,0.6
2026-06-03T2300,1612A,118.597,24.8976,泉州市,津头埔,,28,28,33,11,24,54,54,111,75,10,14,2,2,0.6,0.6
2026-06-03T2300,1613A,118.6669,24.9422,泉州市,万安,,27,27,40,13,25,59,59,114,78,9,13,3,3,0.5,0.5
2026-06-03T2300,4105A,118.6355,24.9148,泉州市,霞新路6号,,20,20,40,10,23,54,54,117,76,14,15,/,/,0.5,0.5
2026-06-03T2300,2626A,88.8873,29.2723,日喀则市,日喀则监测站,颗粒物(PM10),53,53,14,17,7,147,147,142,142,4,4,6,5,0.4,0.4
2026-06-03T2300,3726A,88.8775,29.2425,日喀则市,林业技术推广中心,颗粒物(PM10),78,89,17,12,2,146,146,139,139,2,2,8,7,0.3,0.4
2026-06-03T2300,1659A,119.4711,35.421,日照市,监测站,,30,NA,3,16,4,93,93,82,82,7,9,9,8,0.3,0.3
2026-06-03T2300,1660A,119.523,35.4216,日照市,市政府广场,,29,NA,5,18,3,92,92,85,85,6,6,4,4,0.5,0.5
2026-06-03T2300,1661A,119.5511,35.4113,日照市,港务局,,31,17,4,11,2,99,99,87,85,5,5,5,5,0.6,0.7
2026-06-03T2300,3507A,119.5326,35.4627,日照市,职业技术学院,,30,22,6,16,2,96,96,86,86,8,9,7,6,0.5,0.5
2026-06-03T2300,3604A,119.3267,35.1043,日照市,岚山环保分局,,25,14,15,11,6,79,79,79,72,8,11,9,9,0.5,0.5
2026-06-03T2300,1835A,111.1922,34.7752,三门峡市,市政府,颗粒物(PM10),102,123,86,34,32,47,47,176,129,36,18,7,13,0.3,0.3
2026-06-03T2300,1836A,111.1588,34.794,三门峡市,开发区,颗粒物(PM10),93,109,80,32,33,70,70,178,137,32,18,6,10,0.4,0.5
2026-06-03T2300,3039A,111.1911,34.7829,三门峡市,三门峡市第一小学,颗粒物(PM10),102,125,96,33,32,55,55,179,133,38,18,8,13,0.3,0.4
2026-06-03T2300,3598A,111.1031,34.719,三门峡市,富达温泉假日酒店,颗粒物(PM10),95,112,107,33,37,70,70,170,136,31,24,12,16,0.7,0.8
2026-06-03T2300,2324A,117.621,26.2626,三明市,三钢,,19,16,32,13,24,57,57,97,65,10,15,4,10,0.6,1.3
2026-06-03T2300,2325A,117.6352,26.2714,三明市,三明二中,,16,14,40,11,22,51,51,100,64,8,12,2,5,0.6,0.8
2026-06-03T2300,2326A,117.6028,26.2377,三明市,三元区政府,,23,21,32,16,24,53,53,99,55,8,11,1,4,0.8,0.9
2026-06-03T2300,1877A,109.4962,18.2682,三亚市,河西子站,,19,15,21,13,14,58,58,73,60,2,4,3,3,0.4,0.5
2026-06-03T2300,3540A,109.7348,18.3443,三亚市,君悦子站,,25,25,25,9,11,39,39,70,50,10,8,2,2,0.4,0.5
2026-06-03T2300,4135A,109.1714,18.3739,三亚市,城东小学站,,33,NA,26,23,14,27,27,64,47,8,5,/,/,/,/
2026-06-03T2300,2624A,91.7592,29.234,山南市,山南监测站,,45,18,17,14,5,143,143,143,143,3,3,8,8,0.2,0.2
2026-06-03T2300,2625A,91.7701,29.2436,山南市,山南人民医院,颗粒物(PM10),103,127,23,35,7,148,148,148,148,2,3,4,4,0.2,0.3
2026-06-03T2300,1674A,116.6795,23.3666,汕头市,金平子站,,22,22,28,14,16,70,70,102,79,16,10,4,4,0.6,0.7
2026-06-03T2300,1675A,116.7248,23.3632,汕头市,龙湖子站,,31,31,24,20,17,72,72,94,81,4,4,6,6,/,/
2026-06-03T2300,1676A,116.7257,23.2774,汕头市,濠江子站,,26,20,30,18,18,73,73,99,86,8,10,8,8,/,/
2026-06-03T2300,1677A,116.7518,23.4712,汕头市,澄海子站,,28,21,32,19,18,73,73,106,81,10,8,5,5,0.7,0.8
2026-06-03T2300,1678A,116.6088,23.2539,汕头市,潮阳子站,,25,18,23,17,18,74,74,96,83,5,4,6,6,0.6,0.6
2026-06-03T2300,3444A,116.4539,23.2684,汕头市,潮南峡山,,25,25,23,14,15,80,80,101,87,3,3,6,6,0.7,0.7
2026-06-03T2300,3624A,116.4069,23.2533,汕头市,潮南子站,,23,22,28,14,16,72,72,92,80,3,4,5,6,/,/
2026-06-03T2300,1693A,115.3653,22.7751,汕尾市,市环保局,,25,24,22,12,14,78,78,90,84,3,3,5,5,0.5,0.5
2026-06-03T2300,1695A,115.362,22.7926,汕尾市,新城中学,,27,NA,22,14,14,84,84,95,91,3,3,6,6,0.7,0.6
2026-06-03T2300,2645A,109.9155,33.8714,商洛市,监测站,颗粒物(PM10),53,54,53,22,25,95,95,137,114,15,13,7,6,0.6,0.6
2026-06-03T2300,3045A,109.9647,33.8486,商洛市,商州区中学,颗粒物(PM10),56,58,54,23,23,80,80,146,119,23,15,8,6,0.8,0.7
2026-06-03T2300,2408A,115.6701,34.4283,商丘市,环境监测站,颗粒物(PM10),95,112,103,37,43,136,136,179,166,10,10,4,5,0.5,0.6
2026-06-03T2300,2409A,115.6458,34.4047,商丘市,粮食局,颗粒物(PM10),89,104,98,42,48,131,131,177,163,12,13,5,6,0.6,0.6
2026-06-03T2300,3171A,115.6069,34.4465,商丘市,梁园区档案局,颗粒物(PM10),98,116,94,34,45,117,117,174,163,15,12,2,2,0.3,0.3
2026-06-03T2300,4119A,115.6701,34.3767,商丘市,北海东路185号,颗粒物(PM10),96,114,98,49,54,114,114,176,153,25,18,4,5,0.6,0.6
2026-06-03T2300,4120A,115.6172,34.3704,商丘市,中山大街3号,颗粒物(PM10),113,153,119,46,45,106,106,176,150,21,15,7,7,0.6,0.5
2026-06-03T2300,1141A,121.401,31.2382,上海市,普陀,细颗粒物(PM2.5),123,92,55,85,42,69,69,148,101,25,26,5,6,0.5,0.3
2026-06-03T2300,1142A,121.4774,31.2043,上海市,十五厂,细颗粒物(PM2.5),88,63,53,54,37,59,59,141,90,24,29,6,6,0.8,0.6
2026-06-03T2300,1143A,121.4673,31.3011,上海市,虹口,细颗粒物(PM2.5),98,80,58,59,41,17,17,149,94,76,29,4,4,0.8,0.7
2026-06-03T2300,1147A,121.4253,31.226,上海市,静安监测站,细颗粒物(PM2.5),96,69,53,58,36,63,63,148,104,29,25,8,8,0.9,0.8
2026-06-03T2300,1148A,121.7029,31.1905,上海市,浦东川沙,细颗粒物(PM2.5),84,61,57,52,40,84,84,121,121,15,31,8,8,0.8,0.7
2026-06-03T2300,1149A,121.5339,31.229,上海市,浦东新区监测站,细颗粒物(PM2.5),86,64,54,53,38,51,51,142,97,19,22,6,6,0.7,0.5
2026-06-03T2300,1150A,121.5776,31.2038,上海市,浦东张江,细颗粒物(PM2.5),58,46,52,39,36,64,64,159,114,19,23,6,7,0.6,0.5
2026-06-03T2300,3265A,121.4242,31.3303,上海市,宝山庙行,颗粒物(PM10),85,98,76,49,37,0,0,103,72,97,44,9,9,0.4,0.4
2026-06-03T2300,3266A,121.8789,31.4662,上海市,崇明上实东滩,细颗粒物(PM2.5),84,63,34,52,28,63,63,64,62,19,23,7,8,0.5,0.3
2026-06-03T2300,3268A,121.316,31.2839,上海市,嘉定南翔,细颗粒物(PM2.5),108,88,50,68,36,36,36,138,74,52,34,5,6,0.7,0.5
2026-06-03T2300,3269A,121.3357,30.7455,上海市,金山新城,,46,36,40,32,31,71,71,125,90,8,18,3,4,0.9,0.8
2026-06-03T2300,3270A,121.4996,31.0741,上海市,闵行浦江,细颗粒物(PM2.5),60,43,52,40,40,52,52,132,80,19,27,6,6,0.4,0.3
2026-06-03T2300,3271A,121.2886,31.1663,上海市,青浦徐泾,细颗粒物(PM2.5),101,86,48,61,36,40,40,129,63,26,25,5,6,0.5,0.4
2026-06-03T2300,3272A,121.2193,31.0382,上海市,松江图书馆,NA,NA,51,55,44,42,51,51,137,79,NA,23,6,7,0.3,0.3
2026-06-03T2300,3273A,121.3904,31.206,上海市,长宁仙霞,细颗粒物(PM2.5),104,69,52,64,37,42,42,122,76,23,26,6,8,0.5,0.4
2026-06-03T2300,3274A,121.7964,31.0507,上海市,浦东惠南,细颗粒物(PM2.5),58,45,48,39,36,66,66,154,100,33,24,7,7,0.9,0.7
2026-06-03T2300,3544A,121.4891,30.925,上海市,奉贤南桥新城,,48,42,49,33,31,70,70,130,95,14,27,7,7,0.6,0.5
2026-06-03T2300,4183A,121.417401,31.16637,上海市,冠生园路458号,细颗粒物(PM2.5),78,66,63,49,36,39,39,106,60,22,26,4,4,0.8,0.7
2026-06-03T2300,4205A,121.541914,31.268301,上海市,宁武路151号,细颗粒物(PM2.5),104,86,66,64,39,52,52,148,106,31,39,6,6,0.6,0.4
2026-06-03T2300,2382A,117.9758,28.4439,上饶市,市监测站,,29,20,45,3,29,90,90,100,68,4,13,5,8,/,/
2026-06-03T2300,2383A,117.9521,28.4637,上饶市,凤凰光学,,31,18,46,3,34,99,99,108,78,4,11,8,22,0.3,0.6
2026-06-03T2300,3685A,117.897,28.4316,上饶市,双创科技城,,33,19,49,3,31,103,103,107,71,6,18,4,8,0.2,0.5
2026-06-03T2300,4211A,118.190438,28.444845,上饶市,裕丰大道,,28,28,41,3,29,83,83,86,59,8,9,5,9,0.4,0.5
2026-06-03T2300,1669A,113.5821,24.7733,韶关市,市八中,,32,32,41,19,25,101,101,119,111,12,12,8,10,0.8,0.7
2026-06-03T2300,1671A,113.5916,24.7973,韶关市,园林处,,45,45,35,29,28,90,90,105,98,14,14,20,12,/,/
2026-06-03T2300,1673A,113.5971,24.6864,韶关市,曲江监测站,NA,NA,65,43,38,28,NA,NA,120,NA,22,15,14,9,0.7,0.7
2026-06-03T2300,2809A,113.6668,24.7756,韶关市,大学路288号,颗粒物(PM10),53,54,41,34,28,60,60,120,108,14,11,11,12,/,/
2026-06-03T2300,3622A,113.5556,24.8082,韶关市,碧湖山庄,,39,35,37,27,25,86,86,113,102,16,12,4,4,0.6,0.5
2026-06-03T2300,2464A,111.5277,27.2442,邵阳市,市化工厂,,22,17,27,15,32,46,46,77,60,4,6,5,5,0.4,0.5
2026-06-03T2300,2466A,111.4327,27.2276,邵阳市,市环保局,NA,NA,NA,36,23,30,63,63,98,81,5,8,2,3,0.4,0.4
2026-06-03T2300,4218A,111.446,27.2472,邵阳市,北塔二期4-26地块,,24,18,36,13,24,74,74,96,87,7,9,4,4,0.3,0.3
2026-06-03T2300,4219A,111.4739,27.2282,邵阳市,邵水西路287号,,38,NA,33,26,32,62,62,90,74,4,5,3,4,0.3,0.4
2026-06-03T2300,1247A,120.6053,29.9927,绍兴市,城东开发委,,43,40,52,30,38,39,39,88,58,14,18,7,8,0.6,0.6
2026-06-03T2300,2921A,120.5482,30.0003,绍兴市,树下王站,,50,NA,52,35,48,35,35,82,56,14,18,7,8,0.6,0.6
2026-06-03T2300,3408A,120.5685,29.936,绍兴市,绍兴中专,,40,39,53,28,35,26,26,84,55,17,19,6,6,0.8,0.8
2026-06-03T2300,3409A,120.4905,30.086,绍兴市,柯桥区政府,,49,38,58,34,48,43,43,95,60,13,18,5,5,0.7,0.7
2026-06-03T2300,3410A,120.8751,30.0249,绍兴市,重华小学,,45,41,48,31,35,30,30,90,53,22,19,7,7,0.8,0.8
