timepoint,stationcode,longitude,latitude,area,positionname,primarypollutant,aqi,pm10,pm10_24h,pm2_5,pm2_5_24h,o3,o3_24h,o3_8h,o3_8h_24h,no2,no2_24h,so2,so2_24h,co,co_24h
2026-07-09T0000,2568A,102.2503,31.8896,阿坝藏族羌族自治州,马师校,,32,32,20,7,8,31,31,99,72,9,4,3,4,0.3,0.3
2026-07-09T0000,3994A,102.2174,31.9016,阿坝藏族羌族自治州,马尔康中学西区,,14,NA,12,7,8,42,42,97,76,6,5,2,2,0.3,0.3
2026-07-09T0000,2695A,80.2899,41.1684,阿克苏地区,电视台,颗粒物(PM10),90,105,68,40,60,131,131,130,126,4,7,5,5,0.3,0.3
2026-07-09T0000,2696A,80.2592,41.1541,阿克苏地区,艺术中心,细颗粒物(PM2.5),58,57,59,39,40,119,119,139,NA,16,14,4,4,0.3,0.3
2026-07-09T0000,2205A,105.699,38.8409,阿拉善盟,蒙二幼,,39,22,24,8,5,124,124,139,137,3,5,12,11,0.3,0.3
2026-07-09T0000,2206A,105.7198,38.8508,阿拉善盟,环保局新楼,,39,32,19,7,5,124,124,137,137,8,4,10,10,0.5,0.4
2026-07-09T0000,2708A,88.1266,47.8515,阿勒泰地区,市站,,35,16,23,3,3,109,109,117,115,5,10,7,7,0.5,0.5
2026-07-09T0000,4166A,88.1198,47.7931,阿勒泰地区,阿勒泰路33号,,34,32,19,3,2,106,106,108,107,2,6,7,7,0.2,0.3
2026-07-09T0000,2630A,80.1171,32.4999,阿里地区,阿里监测站,,24,6,7,3,2,76,76,79,77,1,3,3,4,0.3,0.2
2026-07-09T0000,3192A,80.0906,32.5029,阿里地区,阿里藏医院,,24,6,9,3,3,74,74,77,76,1,2,9,9,0.2,0.2
2026-07-09T0000,2644A,109.0088,32.6974,安康市,汉滨区检察院,,36,36,26,19,16,36,36,126,88,10,7,3,4,0.5,0.5
2026-07-09T0000,4054A,109.0324,32.6913,安康市,市邮政管理局,,33,33,29,19,16,43,43,139,87,10,7,1,3,0.7,0.7
2026-07-09T0000,2291A,117.0806,30.5181,安庆市,环科院,,15,15,11,9,6,12,12,60,36,27,9,8,9,0.5,0.4
2026-07-09T0000,2292A,117.0331,30.5118,安庆市,马山宾馆,,16,16,12,11,7,13,13,57,36,31,16,2,2,0.3,0.3
2026-07-09T0000,2294A,116.9897,30.6146,安庆市,安庆大学,,18,16,12,12,7,37,37,60,48,6,6,3,4,0.4,0.3
2026-07-09T0000,3173A,117.0598,30.5351,安庆市,市人大,,16,16,11,10,6,23,23,64,45,19,7,5,5,0.4,0.4
2026-07-09T0000,3123A,105.9408,26.2431,安顺市,凤凰山,NA,NA,11,14,10,9,NA,NA,60,NA,8,8,4,6,0.4,0.4
2026-07-09T0000,3124A,105.9443,26.2567,安顺市,金钟山,,21,9,12,8,11,67,67,87,77,6,6,6,7,0.4,0.4
2026-07-09T0000,3125A,105.8983,26.248,安顺市,娄家坡,,21,12,12,8,10,66,66,87,75,3,6,5,6,0.4,0.4
2026-07-09T0000,1819A,114.3552,36.1017,安阳市,红庙街,颗粒物(PM10),54,55,33,32,18,40,40,129,76,16,8,4,4,1.9,0.7
2026-07-09T0000,1820A,114.361,36.0681,安阳市,银杏小区,颗粒物(PM10),56,58,32,29,19,41,41,134,78,16,9,1,1,1.5,0.4
2026-07-09T0000,3141A,114.3921,36.0879,安阳市,信访局,颗粒物(PM10),54,55,35,28,19,64,64,148,104,15,8,3,3,1.6,0.8
2026-07-09T0000,3669A,114.4706,36.0634,安阳市,左辅环卫站,颗粒物(PM10),56,58,36,32,19,30,30,121,82,36,12,4,2,1.1,0.4
2026-07-09T0000,4117A,114.2918,36.0769,安阳市,钢三路198号,颗粒物(PM10),60,63,31,37,17,38,38,121,68,16,8,2,2,1.8,0.7
2026-07-09T0000,1748A,123.0441,41.1201,鞍山市,深沟寺,,33,16,17,9,10,103,103,120,97,5,9,6,7,0.5,0.6
2026-07-09T0000,1749A,123.011,41.0931,鞍山市,太阳城,,35,22,21,12,12,110,110,115,103,3,10,7,7,0.7,0.9
2026-07-09T0000,1750A,123.0483,41.1445,鞍山市,太平,,32,32,24,12,11,91,91,116,97,4,11,6,7,0.5,0.9
2026-07-09T0000,1751A,122.964,41.0968,鞍山市,铁西三道街,,34,20,21,11,11,106,106,131,113,5,9,5,5,0.7,0.9
2026-07-09T0000,1753A,123.0219,41.0822,鞍山市,明达新区,,42,42,16,10,10,112,112,120,109,5,9,4,5,0.5,0.7
2026-07-09T0000,4201A,122.944647,41.082639,鞍山市,兴盛南路290号,,32,13,25,10,15,101,101,118,101,12,13,5,5,0.7,0.8
2026-07-09T0000,2195A,107.4206,40.7609,巴彦淖尔市,附二中,颗粒物(PM10),64,69,37,27,13,38,38,136,94,50,21,14,14,0.8,0.7
2026-07-09T0000,2196A,107.37,40.7372,巴彦淖尔市,市环保大楼,颗粒物(PM10),63,67,47,18,10,79,79,128,98,18,14,13,10,0.7,0.6
2026-07-09T0000,1956A,86.1476,41.7529,巴音郭楞蒙古自治州,孔雀公园,颗粒物(PM10),58,60,70,34,34,100,100,112,99,6,9,5,5,0.1,0.2
2026-07-09T0000,1957A,86.1971,41.7166,巴音郭楞蒙古自治州,棉纺厂,细颗粒物(PM2.5),64,68,47,42,28,92,92,114,100,17,10,/,/,/,/
2026-07-09T0000,1958A,86.236,41.7172,巴音郭楞蒙古自治州,经济开发区,,43,34,36,30,23,105,105,115,101,5,6,3,4,0.1,0.2
2026-07-09T0000,3181A,106.776805,31.852614,巴中市,市五中,,35,31,30,24,20,45,45,123,86,13,10,8,8,0.7,0.7
2026-07-09T0000,3183A,106.7419,31.8654,巴中市,圣泉水务公司,,42,NA,26,29,19,39,39,125,86,23,11,8,9,0.9,0.8
2026-07-09T0000,3616A,106.7617,31.8343,巴中市,市中心医院,,47,47,34,26,19,39,39,121,84,18,9,7,7,0.9,0.8
2026-07-09T0000,2235A,122.7909,45.608,白城市,洮北区环保局,,15,11,17,9,16,46,46,81,64,9,8,3,4,0.2,0.3
2026-07-09T0000,2236A,122.8741,45.5725,白城市,市环保局,NA,NA,NA,11,10,11,NA,NA,34,NA,9,8,3,4,0.3,0.4
2026-07-09T0000,2231A,126.4219,41.9172,白山市,喜丰,,22,22,26,6,4,34,34,43,43,6,10,9,10,0.6,0.9
2026-07-09T0000,2232A,126.4082,41.9416,白山市,环保局,,21,21,9,3,0,21,21,60,45,8,4,12,10,0.7,0.7
2026-07-09T0000,2647A,104.1727,36.5448,白银市,第三小学,颗粒物(PM10),71,79,68,23,22,120,120,142,128,17,22,35,40,0.5,0.6
2026-07-09T0000,2648A,104.1467,36.5482,白银市,动力公司,颗粒物(PM10),70,78,54,18,20,121,121,148,125,17,21,8,15,0.5,0.5
2026-07-09T0000,2512A,106.6102,23.901,百色市,市监测站,,23,23,19,11,10,58,58,86,81,9,8,12,12,0.4,0.3
2026-07-09T0000,2513A,106.6524,23.8842,百色市,市中心血站,NA,NA,NA,19,8,10,NA,NA,84,NA,7,7,14,13,0.5,0.5
2026-07-09T0000,4133A,106.6273,23.8798,百色市,龙景西路,,36,36,25,14,12,59,59,88,82,8,7,16,17,0.5,0.5
2026-07-09T0000,2270A,117.396,32.9389,蚌埠市,工人疗养院,,19,19,20,3,5,44,44,81,64,6,8,5,6,0.1,0.2
2026-07-09T0000,2271A,117.3606,32.9428,蚌埠市,百货大楼,,17,17,17,6,6,45,45,92,73,11,8,8,8,0.6,0.6
2026-07-09T0000,2273A,117.4183,32.8909,蚌埠市,蚌埠学院,,14,NA,12,7,6,44,44,91,68,2,3,5,5,0.3,0.3
2026-07-09T0000,2274A,117.3534,32.9672,蚌埠市,淮上区政府,NA,NA,NA,15,13,6,NA,NA,85,71,6,5,4,5,0.3,0.4
2026-07-09T0000,2275A,117.3143,32.8977,蚌埠市,高新区,,14,9,14,3,6,44,44,88,69,7,6,9,9,0.4,0.4
2026-07-09T0000,3715A,117.3091,32.9314,蚌埠市,蚌埠田家炳中学,,20,20,21,10,9,43,43,92,73,6,6,6,8,0.4,0.5
2026-07-09T0000,1585A,109.8761,40.6533,包头市,市环境监测站,,28,NA,25,19,12,89,89,138,115,20,24,25,12,0.6,0.5
2026-07-09T0000,1587A,109.9992,40.5843,包头市,包头八中,,39,39,35,22,14,82,82,127,110,17,21,32,17,0.5,0.6
2026-07-09T0000,1589A,109.8641,40.6288,包头市,惠龙物流,,42,42,22,15,10,93,93,131,113,15,20,10,8,0.4,0.5
2026-07-09T0000,1590A,110.0376,40.5546,包头市,东河鸿龙湾,,27,25,24,14,10,86,86,135,116,17,19,18,12,0.3,0.3
2026-07-09T0000,3283A,109.9154,40.5684,包头市,滨河大厦,,32,32,18,11,10,90,90,126,110,13,23,9,10,0.4,0.5
2026-07-09T0000,3419A,109.9449,40.6259,包头市,包头市委党校,,46,33,16,32,11,77,77,136,114,29,24,56,15,0.8,0.3
2026-07-09T0000,3683A,109.8332,40.6577,包头市,昆区政府,,42,42,24,17,12,82,82,123,102,25,27,21,12,0.7,0.6
2026-07-09T0000,1931A,107.0802,34.3129,宝鸡市,竹园沟,,36,25,30,25,21,71,71,164,113,9,7,7,7,0.9,0.8
2026-07-09T0000,1933A,107.1429,34.3549,宝鸡市,监测站,,43,35,38,30,25,86,86,182,126,13,11,6,7,0.5,0.5
2026-07-09T0000,1934A,107.1172,34.3759,宝鸡市,技工学校,细颗粒物(PM2.5),74,NA,41,47,30,87,87,184,130,10,8,6,8,0.7,0.5
2026-07-09T0000,1936A,107.2025,34.3518,宝鸡市,文理学院,,50,50,43,33,26,89,89,184,144,19,14,8,9,0.7,0.6
2026-07-09T0000,1937A,107.2396,34.3626,宝鸡市,三迪小学,颗粒物(PM10),71,79,43,34,25,88,88,188,166,19,16,8,9,0.6,0.5
2026-07-09T0000,4155A,107.1721,34.3558,宝鸡市,滨河北路,颗粒物(PM10),58,61,47,37,28,78,78,170,125,12,10,6,8,0.7,0.6
2026-07-09T0000,4308A,107.3898,34.3601,宝鸡市,陈仓区北开路21号,颗粒物(PM10),54,55,48,33,28,85,85,183,155,44,15,5,15,0.5,0.5
2026-07-09T0000,1051A,115.4803,38.8568,保定市,游泳馆,,46,44,27,32,24,95,95,162,148,14,8,3,4,0.1,0.1
2026-07-09T0000,1052A,115.509,38.8895,保定市,华电二区,臭氧1小时(O3_1h),57,38,25,37,20,165,165,184,183,15,10,3,2,0.6,0.6
2026-07-09T0000,1053A,115.4588,38.9037,保定市,接待中心,,45,45,34,29,24,129,129,164,159,7,5,1,2,0.5,0.5
2026-07-09T0000,1054A,115.4484,38.8344,保定市,地表水厂,颗粒物(PM10),56,58,46,27,21,129,129,171,160,10,8,2,2,0.6,0.5
2026-07-09T0000,3581A,115.3136,38.9511,保定市,满城区生态环境分局,,50,48,28,35,21,112,112,176,161,16,8,1,1,0.2,0.2
2026-07-09T0000,3582A,115.4709,38.7628,保定市,清苑区第二中学,颗粒物(PM10),75,84,51,47,21,99,99,166,145,13,5,6,6,0.4,0.3
2026-07-09T0000,3583A,115.6231,39.0223,保定市,徐水物探局,,42,42,25,24,17,122,122,171,154,17,12,7,6,0.4,0.3
2026-07-09T0000,4004A,115.4199,38.8665,保定市,双鹰农机,,50,40,34,35,24,135,135,169,162,10,9,3,3,0.1,0.2
2026-07-09T0000,4034A,115.515,38.8589,保定市,植保所站,,48,48,29,31,20,109,109,173,158,27,13,3,9,0.2,0.2
2026-07-09T0000,2594A,99.1589,25.1137,保山市,市环境监测站,,16,NA,9,11,6,17,17,39,31,10,7,5,6,0.3,0.3
2026-07-09T0000,2595A,99.1616,25.1381,保山市,市环保局,,23,NA,10,16,14,15,15,40,31,6,5,5,5,0.3,0.3
2026-07-09T0000,1867A,109.1435,21.4085,北海市,海滩公园,,27,15,24,8,4,86,86,107,103,3,3,3,2,0.3,0.3
2026-07-09T0000,1868A,109.0983,21.466,北海市,新市环保局,,29,14,13,8,4,90,90,96,93,8,7,2,2,0.4,0.3
2026-07-09T0000,1869A,109.1775,21.5232,北海市,北海工业园,NA,NA,NA,16,6,3,66,66,88,76,8,8,1,1,0.6,0.3
2026-07-09T0000,3400A,109.1844,21.4396,北海市,龙潭自来水厂,,19,12,10,3,2,59,59,90,80,4,4,4,5,0.6,0.5
2026-07-09T0000,1001A,116.3611,39.8786,北京市,万寿西宫,,41,41,28,22,18,127,127,166,158,13,11,3,3,0.4,0.4
2026-07-09T0000,1003A,116.4174,39.9289,北京市,东四,,39,39,27,22,20,124,124,176,158,18,16,3,3,0.4,0.5
2026-07-09T0000,1004A,116.4073,39.8858,北京市,天坛,,38,38,27,23,18,77,77,156,131,19,13,1,1,0.7,0.6
2026-07-09T0000,1005A,116.4622,39.9364,北京市,农展馆,,38,38,30,19,20,114,114,163,142,19,18,1,1,0.5,0.4
2026-07-09T0000,1006A,116.3399,39.9293,北京市,官园,,43,43,31,28,19,126,126,170,161,18,15,6,5,0.5,0.5
2026-07-09T0000,1007A,116.2879,39.9613,北京市,海淀万柳,,43,43,31,27,19,96,96,157,145,21,17,4,5,0.5,0.5
2026-07-09T0000,1008A,116.6635,40.1349,北京市,顺义新城,,34,34,27,20,17,51,51,182,132,14,11,1,1,0.5,0.5
2026-07-09T0000,1009A,116.6275,40.327,北京市,怀柔镇,,36,36,24,25,15,71,71,150,120,9,8,3,3,0.5,0.5
2026-07-09T0000,1010A,116.2295,40.217,北京市,昌平镇,,34,34,25,20,13,100,100,163,140,12,12,3,3,0.7,0.6
2026-07-09T0000,1011A,116.3968,39.982,北京市,奥体中心,,37,37,26,22,16,100,100,140,128,20,15,2,3,0.6,0.4
2026-07-09T0000,3418A,116.8336,40.4095,北京市,密云新城,,22,21,18,15,13,49,49,122,69,2,4,1,1,0.4,0.4
2026-07-09T0000,3671A,116.0879,39.9725,北京市,门头沟三家店,,25,25,26,13,16,59,59,138,104,14,13,2,2,0.4,0.4
2026-07-09T0000,3672A,116.1507,39.8246,北京市,丰台云岗,颗粒物(PM10),55,56,41,20,19,77,77,153,134,29,12,3,3,0.4,0.4
2026-07-09T0000,3674A,115.9578,39.7602,北京市,房山燕山,,31,31,26,20,17,76,76,126,105,8,7,2,1,0.6,0.5
2026-07-09T0000,3675A,116.4669,39.7734,北京市,大兴旧宫,,29,28,28,20,18,77,77,156,129,14,19,1,1,0.6,0.6
2026-07-09T0000,3694A,115.9859,40.4562,北京市,延庆石河营,,38,36,22,26,13,92,92,143,133,12,10,2,2,0.5,0.4
2026-07-09T0000,3695A,116.6151,40.3052,北京市,怀柔新城,,42,42,21,25,8,66,66,133,106,6,6,1,1,0.6,0.7
2026-07-09T0000,3696A,116.2542,39.8764,北京市,丰台小屯,,47,47,33,28,19,100,100,157,148,18,9,2,2,0.7,0.6
2026-07-09T0000,3697A,116.8399,40.3843,北京市,密云镇,,20,20,21,13,13,46,46,129,81,11,10,2,2,0.5,0.5
2026-07-09T0000,4057A,115.9423,40.4431,北京市,延庆百泉,,41,41,20,25,12,101,101,149,142,8,7,1,1,0.6,0.4
2026-07-09T0000,4058A,116.6598,39.9164,北京市,通州新华,颗粒物(PM10),61,65,32,33,20,127,127,161,146,24,19,2,2,0.6,0.6
2026-07-09T0000,4182A,116.1942,39.9158,北京市,石景山八角,颗粒物(PM10),51,51,35,23,20,99,99,154,143,20,15,1,3,0.5,0.4
2026-07-09T0000,4194A,117.078628,40.151726,北京市,平谷新城,,45,40,26,31,16,122,122,150,137,4,3,1,2,0.6,0.6
2026-07-09T0000,1761A,123.8274146,41.31234549,本溪市,大峪,,23,13,13,6,9,72,72,98,78,2,6,6,6,0.4,0.5
2026-07-09T0000,1763A,123.7169,41.3094,本溪市,彩屯,,33,23,17,23,11,77,77,99,72,22,15,9,6,2.5,1.3
2026-07-09T0000,1764A,123.7672166,41.28649327,本溪市,东明,,35,14,15,6,7,109,109,109,103,4,7,7,6,0.4,0.6
2026-07-09T0000,1765A,123.799345,41.266614,本溪市,新立屯,,37,13,13,3,6,116,116,98,93,3,7,8,8,0.4,0.6
2026-07-09T0000,1766A,123.829144,41.336777,本溪市,威宁,,22,22,16,6,9,58,58,97,68,1,6,8,8,0.3,0.6
2026-07-09T0000,2587A,105.287,27.3133,毕节市,八中,,30,30,26,18,16,32,32,117,78,16,12,8,11,0.8,0.7
2026-07-09T0000,2588A,105.3079,27.2987,毕节市,师专,,43,43,30,17,15,39,39,119,80,25,13,12,14,0.6,0.5
2026-07-09T0000,4263A,105.3688,27.3598,毕节市,工业大道,,26,26,28,12,11,22,22,122,79,29,12,6,7,/,/
2026-07-09T0000,1629A,117.9961,37.3604,滨州市,第二水厂,,34,34,17,16,9,108,108,164,140,26,8,6,6,0.5,0.4
2026-07-09T0000,1630A,117.9789,37.3931,滨州市,北中新校,,39,31,20,15,10,122,122,177,160,29,11,12,11,0.6,0.5
2026-07-09T0000,3514A,117.9379,37.3959,滨州市,中海酒店,,39,19,13,14,8,123,123,172,151,17,12,9,9,0.1,0.1
2026-07-09T0000,3515A,117.9381509,37.35547456,滨州市,开发区一中,,43,39,21,30,10,76,76,161,133,27,7,9,9,0.6,0.5
2026-07-09T0000,3516A,118.0914,37.6938,滨州市,金海六路,,41,41,19,18,11,123,123,174,155,16,13,5,7,0.7,0.5
2026-07-09T0000,4028A,117.9955,37.3752,滨州市,滨州市西街道办事处,,32,29,14,15,8,102,102,168,144,25,6,6,4,0.4,0.4
2026-07-09T0000,2311A,115.8071,33.8399,亳州市,污水处理厂,,18,16,11,3,5,56,56,121,98,10,11,3,3,0,0.4
2026-07-09T0000,2312A,115.7789,33.8519,亳州市,三国揽胜宫,,25,25,20,3,9,66,66,124,102,6,7,3,4,0.3,0.2
2026-07-09T0000,3332A,115.7631,33.803,亳州市,亳州学院,,19,10,7,3,9,58,58,123,98,8,9,2,2,0.4,0.4
2026-07-09T0000,2693A,82.0482,44.8553,博尔塔拉蒙古自治州,市党校,NA,NA,NA,23,NA,6,57,57,112,94,8,6,3,3,0.2,0.2
2026-07-09T0000,2694A,82.0805,44.8966,博尔塔拉蒙古自治州,市环保局,,40,40,26,3,4,81,81,117,104,14,8,6,6,0.3,0.1
2026-07-09T0000,1071A,116.8733,38.2922,沧州市,沧县城建局,细颗粒物(PM2.5),62,NA,18,41,18,115,115,139,136,12,8,6,4,0.6,0.1
2026-07-09T0000,1072A,116.8462,38.3189,沧州市,电视转播站,,49,49,33,20,15,115,115,164,154,9,9,5,7,0.4,0.2
2026-07-09T0000,1073A,116.8588,38.3161,沧州市,市环保局,,48,48,34,27,18,93,93,133,120,9,8,3,2,0.4,0.3
2026-07-09T0000,3324A,116.8011,38.294,沧州市,河北水利电力学院,臭氧1小时(O3_1h),69,31,18,26,17,175,175,162,158,10,9,2,6,0.7,0.4
2026-07-09T0000,2622A,97.1813,31.1289,昌都市,昌都监测站,,26,26,17,7,5,55,55,108,90,14,8,5,6,0.4,0.3
2026-07-09T0000,3719A,97.1707,31.1428,昌都市,昌都会议中心,,23,23,12,12,5,54,54,113,NA,13,6,4,5,0.4,0.4
2026-07-09T0000,2692A,87.2722,44.0298,昌吉回族自治州,新区政务中心,,30,30,22,16,11,38,38,113,97,40,12,9,9,0.6,0.4
2026-07-09T0000,3613A,87.3069,44.0093,昌吉回族自治州,亚心广场,,36,36,26,16,10,66,66,122,107,31,12,8,8,0.5,0.2
2026-07-09T0000,4164A,87.2057,43.9289,昌吉回族自治州,财政所,,35,35,23,17,6,44,44,121,98,12,7,7,7,0.2,0.2
2026-07-09T0000,1120A,125.2874,43.9024,长春市,客车厂,,43,31,13,30,12,88,88,90,85,12,10,4,4,0.6,0.5
2026-07-09T0000,1121A,125.2943,43.8508,长春市,邮电学院,,42,NA,14,29,11,98,98,88,81,6,5,6,6,0.5,0.4
2026-07-09T0000,1122A,125.3648,43.8745,长春市,劳动公园,,45,NA,11,31,11,87,87,86,84,9,9,5,6,0.5,0.4
2026-07-09T0000,1123A,125.3233,43.8781,长春市,园林处,,42,NA,12,29,11,104,104,94,92,7,8,3,3,0.5,0.4
2026-07-09T0000,1124A,125.4604,43.7904,长春市,净月潭,,33,NA,10,23,9,91,91,75,75,6,4,6,6,0.3,0.2
2026-07-09T0000,1126A,125.38,43.8422,长春市,经开区环卫处,,38,NA,12,26,9,80,80,90,86,8,7,4,4,0.4,0.3
2026-07-09T0000,1127A,125.234,43.7761,长春市,高新区管委会,,35,29,11,24,10,86,86,92,85,9,7,5,4,0.4,0.4
2026-07-09T0000,1128A,125.1695,43.83,长春市,岱山公园,,40,NA,14,28,13,90,90,92,82,15,11,2,2,0.4,0.3
2026-07-09T0000,4281A,125.334645,43.916281,长春市,北亚泰大街1068号,,40,30,13,28,12,86,86,82,78,14,12,4,4,0.6,0.5
2026-07-09T0000,1335A,113.082,28.2421,长沙市,经开区环保局,,12,6,14,3,7,37,37,64,51,5,4,4,4,0.4,0.4
2026-07-09T0000,1336A,112.8873,28.2202,长沙市,高开区环保局,,14,6,15,3,6,42,42,78,61,4,4,3,5,0.5,0.6
2026-07-09T0000,1337A,113.0785,28.2012,长沙市,马坡岭,,12,6,13,3,7,38,38,67,54,8,6,6,6,0.7,0.6
2026-07-09T0000,1338A,112.9448,28.1894,长沙市,湖南师范大学,,14,NA,18,3,7,43,43,80,60,4,3,6,7,0.0,0
2026-07-09T0000,1339A,113.0177,28.1322,长沙市,雨花区环保局,,12,7,14,7,7,37,37,68,54,9,5,5,5,0.6,0.5
2026-07-09T0000,1340A,112.9795,28.2593,长沙市,伍家岭,,14,8,15,3,6,42,42,79,60,7,5,3,4,0.3,0.3
2026-07-09T0000,1341A,113.002,28.1944,长沙市,火车新站,,10,8,14,3,6,31,31,66,50,12,7,5,6,0.4,0.3
2026-07-09T0000,1342A,112.9846,28.1177,长沙市,天心区环保局,,15,9,12,6,6,46,46,75,61,8,7,3,4,0,0
2026-07-09T0000,1343A,112.8906,28.1307,长沙市,湖南中医药大学,,12,NA,14,3,8,38,38,77,59,9,7,6,8,0.4,0.5
2026-07-09T0000,1727A,113.1146,36.1547,长治市,清华站,,41,14,32,3,21,131,131,151,133,4,6,7,8,0.4,0.5
2026-07-09T0000,1730A,113.0887,36.2126,长治市,审计局,,40,6,31,3,21,128,128,154,132,3,6,8,10,0.5,0.7
2026-07-09T0000,1731A,113.0845,36.1856,长治市,长治八中,,38,10,35,8,23,121,121,153,130,15,12,11,12,0.4,0.7
2026-07-09T0000,2845A,113.1561,36.1912,长治市,德盛苑,,45,14,28,8,22,142,142,154,140,7,8,11,11,0.6,0.6
2026-07-09T0000,3568A,113.0603,36.0464,长治市,向阳小学,,45,28,40,11,25,144,144,149,138,2,9,8,12,0.1,0.3
2026-07-09T0000,3569A,112.8788,36.315,长治市,屯留一中,,35,14,35,13,22,112,112,136,113,4,11,10,11,1.0,1.6
2026-07-09T0000,4189A,113.113092,36.199482,长治市,英华南巷50号,,39,22,38,3,22,122,122,157,131,6,7,8,10,0.8,0.9
2026-07-09T0000,4190A,113.23666,36.33435,长治市,学府街1号,,31,22,35,14,21,98,98,164,126,7,8,5,6,0.4,0.5
2026-07-09T0000,1854A,111.696,28.9725,常德市,市二中,,16,16,13,8,8,41,41,65,56,6,4,8,7,1.0,0.9
2026-07-09T0000,3138A,111.7152,29.0288,常德市,武陵区永安,,16,15,19,11,8,43,43,70,56,2,3,11,7,0.5,0.5
2026-07-09T0000,3139A,111.6891,28.9881,常德市,鼎城区玉霞,,22,22,14,11,8,28,28,67,50,14,7,11,9,0.9,0.8
2026-07-09T0000,3140A,111.6651,29.0526,常德市,武陵区长庚,,15,NA,13,9,7,45,45,71,59,7,3,12,9,0.6,0.6
2026-07-09T0000,1196A,119.9524,31.7586,常州市,市监测站,,20,NA,15,14,5,32,32,91,71,18,14,16,15,0.3,0.3
2026-07-09T0000,1200A,119.9351,31.703,常州市,武进监测站,,19,19,14,10,5,29,29,83,69,21,10,11,5,0.4,0.4
2026-07-09T0000,3002A,119.9701,31.813,常州市,行政中心,,26,26,17,12,6,36,36,86,67,18,10,8,8,0.3,0.3
2026-07-09T0000,3003A,120.0434,31.7726,常州市,经开区,,17,17,20,3,4,38,38,92,74,15,13,5,4,0.7,0.7
2026-07-09T0000,3010A,119.8919,31.7892,常州市,钟楼,,20,20,20,3,4,37,37,86,66,16,12,8,9,0.5,0.5
2026-07-09T0000,3429A,119.8595,31.706,常州市,武进经发区,,21,21,19,10,9,21,21,74,58,19,8,8,9,0.8,0.8
2026-07-09T0000,3430A,119.5812,31.7256,常州市,金坛城区,,16,16,16,8,9,36,36,80,55,7,6,8,8,0.4,0.5
2026-07-09T0000,4089A,119.9551,31.863,常州市,崇义南街5-H号,,12,12,15,6,4,28,28,87,60,11,10,6,7,0.7,0.7
2026-07-09T0000,2220A,120.4318,41.588,朝阳市,西梁,,23,14,23,8,13,72,72,106,84,9,9,7,8,0.6,0.7
2026-07-09T0000,2221A,120.452,41.565,朝阳市,河畔小区,,28,7,18,3,14,87,87,108,92,7,7,9,9,0.7,0.8
2026-07-09T0000,2222A,120.4176,41.5648,朝阳市,八里堡,,20,13,23,8,13,61,61,109,88,16,11,5,5,0.6,0.7
2026-07-09T0000,3026A,116.6179,23.6608,潮州市,市政府,,24,24,18,15,11,28,28,73,51,13,8,7,5,0.6,0.6
2026-07-09T0000,4036A,116.646,23.676,潮州市,金山,,24,24,17,13,10,36,36,75,59,10,7,2,2,0.4,0.3
2026-07-09T0000,2473A,113.0116,25.8228,郴州市,市职中,,16,16,9,9,7,22,22,51,30,7,5,6,6,0.5,0.6
2026-07-09T0000,2475A,113.0381,25.8074,郴州市,市审计局,,13,13,10,6,7,34,34,59,38,8,6,4,4,/,/
2026-07-09T0000,2476A,113.0348,25.7757,郴州市,市环保局,,10,10,10,6,7,28,28,51,32,7,5,5,6,0.5,0.5
2026-07-09T0000,4252A,113.0138,25.8011,郴州市,好美居路49号,,13,13,10,3,4,36,36,50,34,5,6,10,10,/,/
2026-07-09T0000,1431A,103.9727,30.7242,成都市,金泉两河,颗粒物(PM10),55,56,47,26,33,40,40,203,133,15,18,1,4,0.5,0.2
2026-07-09T0000,1432A,104.1423,30.6765,成都市,十里店,,41,33,47,21,32,129,129,196,160,8,17,5,6,0.6,0.7
2026-07-09T0000,1433A,104.0594,30.5765,成都市,三瓦窑,,44,27,45,24,30,139,139,196,160,10,23,5,7,0.5,0.6
2026-07-09T0000,1434A,104.1122,30.6306,成都市,沙河铺,,39,39,45,23,29,120,120,195,152,14,21,5,5,0.6,0.7
2026-07-09T0000,2880A,104.0219,30.6561,成都市,大石西路,,40,38,48,25,34,125,125,188,143,14,21,4,6,0.5,0.6
2026-07-09T0000,3136A,104.2724,30.559,成都市,龙泉驿区区政府,,45,27,33,23,29,144,144,179,157,6,10,7,8,0.5,0.6
2026-07-09T0000,3357A,104.0028,30.6891,成都市,金博路,,41,NA,35,22,31,129,129,208,167,11,23,7,8,0.6,0.7
2026-07-09T0000,3359A,104.056,30.5228,成都市,华阳,,44,29,38,22,28,139,139,184,158,8,14,2,3,0.5,0.5
2026-07-09T0000,3488A,104.387954,30.746684,成都市,青白江技师分院,,38,35,40,26,30,116,116,162,140,8,14,6,7,0.6,0.7
2026-07-09T0000,3489A,104.0788,30.4054,成都市,科学城,,44,30,39,18,27,139,139,172,154,5,10,5,8,0.2,0.3
2026-07-09T0000,4011A,103.8505,30.6946,成都市,光华大道三段,,44,44,50,23,34,130,130,191,172,12,14,4,5,0.5,0.6
2026-07-09T0000,4144A,104.3257,30.6406,成都市,八角井街185号,,41,25,46,18,31,130,130,183,141,8,13,5,6,0.5,0.6
2026-07-09T0000,4224A,104.2433276,30.53529463,成都市,鲸龙路1057号,,45,31,39,19,27,144,144,185,162,8,15,8,9,0.7,0.8
2026-07-09T0000,1062A,117.9531,40.908,承德市,铁路,,22,22,23,10,9,24,24,89,56,15,15,4,7,0.3,0.3
2026-07-09T0000,1063A,117.9397,40.9763,承德市,中国银行,,25,25,23,16,10,20,20,99,64,8,7,3,4,0.4,0.3
2026-07-09T0000,4073A,117.9462,40.95,承德市,杏林街1号,,22,22,23,11,14,29,29,100,67,11,8,3,5,0.4,0.3
2026-07-09T0000,4274A,117.7994,40.9605,承德市,滨河大街98号,,29,29,25,18,10,10,10,92,32,7,5,4,6,0.4,0.4
2026-07-09T0000,2314A,117.4698,30.6617,池州市,池州学院,,13,13,11,6,6,29,29,48,40,15,9,4,4,0.6,0.5
2026-07-09T0000,3237A,117.4918,30.6617,池州市,展览馆,,12,12,12,7,4,28,28,53,42,8,5,3,3,0.3,0.3
2026-07-09T0000,3333A,117.5626,30.695,池州市,第八中学,,15,15,12,7,6,25,25,54,41,12,4,4,4,0.4,0.3
2026-07-09T0000,3334A,117.5037,30.6242,池州市,第十二中学,,29,29,15,9,6,20,20,48,37,15,7,5,5,0.6,0.7
2026-07-09T0000,1744A,118.9229,42.2816,赤峰市,松山一中,,44,44,19,28,15,32,32,109,65,27,16,28,12,0.8,0.6
2026-07-09T0000,1745A,118.9588,42.2733,赤峰市,哈达街,,48,48,19,29,14,19,19,96,53,35,18,28,17,0.8,0.5
2026-07-09T0000,1746A,118.8792,42.2551,赤峰市,天义路,,14,10,9,3,8,44,44,90,63,13,15,13,12,0.4,0.5
2026-07-09T0000,3058A,119.2656,42.0356,赤峰市,银河街,,35,NA,19,24,14,43,43,95,61,18,14,19,15,0.7,0.7
2026-07-09T0000,3286A,118.9359,42.3146,赤峰市,桥北物流园区,,28,28,17,13,11,37,37,93,58,18,17,55,18,0.6,0.4
2026-07-09T0000,2521A,107.3473,22.4137,崇左市,市环保局江州分局,,15,15,17,3,10,34,34,60,54,7,5,3,3,0.6,0.6
2026-07-09T0000,4256A,107.375,22.3736,崇左市,石景林东路7号,,11,10,19,3,12,34,34,63,58,8,7,5,5,0.5,0.5
2026-07-09T0000,3207A,118.31131,32.3033,滁州市,市政府原办公楼,,22,NA,10,15,16,42,42,78,62,4,3,5,6,0.4,0.3
2026-07-09T0000,3331A,118.3268,32.2633,滁州市,图书馆,,14,7,10,6,8,43,43,84,66,4,2,7,7,0.2,0.3
2026-07-09T0000,4101A,118.3196,32.3335,滁州市,银山路666号,,15,11,11,8,10,48,48,84,69,6,4,5,5,0.3,0.3
2026-07-09T0000,4102A,118.3426,32.2979,滁州市,黄山路555号,,19,16,18,13,12,37,37,67,57,6,4,8,9,0.3,0.3
2026-07-09T0000,2606A,101.5379,25.0492,楚雄彝族自治州,市经济开发区,,23,21,11,3,6,72,72,64,55,6,7,1,2,0.6,0.5
2026-07-09T0000,4153A,101.5536,25.0343,楚雄彝族自治州,团结路562号,,23,12,9,3,6,73,73,70,59,4,5,1,2,0.4,0.4
2026-07-09T0000,2549A,107.5087,31.2186,达州市,市环境监测站,,27,27,26,13,10,37,37,118,78,28,16,5,8,0.5,0.4
2026-07-09T0000,2550A,107.4988,31.2132,达州市,凤凰小区,,34,34,29,17,11,34,34,116,80,30,14,5,7,0.4,0.3
2026-07-09T0000,2551A,107.5081,31.1987,达州市,达县机关宾馆,,29,29,28,18,12,20,20,122,66,44,24,4,7,0.3,0.3
2026-07-09T0000,2552A,107.4644,31.2124,达州市,市政中心,,42,42,37,18,12,38,38,144,93,38,18,5,8,0.4,0.4
2026-07-09T0000,2614A,100.2168,25.5818,大理白族自治州,大理市环境监测站,,11,11,7,3,5,28,28,42,35,6,6,5,5,0.4,0.4
2026-07-09T0000,2615A,100.1542,25.7055,大理白族自治州,大理古城,,13,10,13,9,5,23,23,59,38,8,8,6,6,0.4,0.3
2026-07-09T0000,1109A,121.6119,38.974,大连市,甘井子,,50,NA,17,35,12,109,109,154,144,11,8,7,7,0.8,0.6
2026-07-09T0000,1110A,121.565,38.9509,大连市,周水子,,49,NA,17,34,15,115,115,149,143,14,14,8,8,1.1,0.8
2026-07-09T0000,1111A,121.5637,38.8849,大连市,星海三站,细颗粒物(PM2.5),54,NA,18,37,15,110,110,143,131,1,2,6,6,1.0,0.8
2026-07-09T0000,1112A,121.6301,38.9117,大连市,青泥洼桥,,50,39,19,35,12,108,108,148,134,9,9,7,7,0.9,0.7
2026-07-09T0000,1113A,121.6248,38.8643,大连市,傅家庄,,43,NA,16,30,13,108,108,141,130,6,6,5,6,0.8,0.6
2026-07-09T0000,1114A,121.5117,38.8636,大连市,七贤岭,,47,47,22,27,12,112,112,146,137,5,3,4,4,0.7,0.7
2026-07-09T0000,1116A,121.7507,39.1339,大连市,金州,,49,41,18,34,13,119,119,150,147,10,9,6,7,0.7,0.6
2026-07-09T0000,1117A,121.7811,39.0495,大连市,开发区,细颗粒物(PM2.5),74,47,21,47,14,79,79,132,112,30,14,7,8,0.7,0.5
2026-07-09T0000,1118A,121.9762,39.0631,大连市,双D港,细颗粒物(PM2.5),56,NA,20,38,13,61,61,127,102,7,8,6,6,0.8,0.6
2026-07-09T0000,4082A,121.2548,38.8188,大连市,旅顺,,48,41,18,33,15,105,105,142,136,14,9,6,6,0.6,0.4
2026-07-09T0000,1789A,124.8085,46.0381,大庆市,大同区,,17,13,14,3,6,54,54,68,63,14,10,6,5,0.5,0.6
2026-07-09T0000,1790A,125.1166,46.5255,大庆市,龙凤区,,23,23,14,3,7,29,29,43,34,8,12,4,3,0.1,0.2
2026-07-09T0000,1791A,124.8894,46.4007,大庆市,红岗区,,17,9,13,8,8,52,52,49,43,2,8,7,8,0.5,0.5
2026-07-09T0000,1792A,125.1391,46.578,大庆市,萨尔图区,,11,11,15,3,8,30,30,46,38,8,12,6,6,0.3,0.4
2026-07-09T0000,1793A,124.9026,46.6217,大庆市,让胡路区,,19,19,21,6,12,21,21,44,31,13,14,4,4,0.6,0.6
2026-07-09T0000,3481A,125.127,46.6277,大庆市,萨区政府监测点,,12,10,14,8,11,38,38,51,44,1,7,5,5,0.2,0.2
2026-07-09T0000,1723A,113.2926,40.0759,大同市,云冈宾馆,,34,21,29,11,9,106,106,132,124,17,17,7,9,0.7,0.6
2026-07-09T0000,1724A,113.3437,40.0921,大同市,大同大学,,28,21,33,19,9,89,89,135,118,14,15,7,10,0.6,0.6
2026-07-09T0000,1725A,113.2637,40.129,大同市,安家小村,,36,15,43,7,11,115,115,127,121,10,17,8,9,0.6,0.5
2026-07-09T0000,3282A,113.3399,40.0586,大同市,大同市卫生学校,,37,24,33,8,9,117,117,144,131,11,15,7,10,0.6,0.7
2026-07-09T0000,3565A,113.1371,40.1122,大同市,云冈站,,31,16,23,6,7,99,99,119,117,11,16,7,8,0.8,0.6
2026-07-09T0000,3566A,113.1186,40.2556,大同市,图书馆,,31,26,18,3,7,97,97,110,109,11,8,7,7,1.4,0.9
2026-07-09T0000,3567A,113.5931,40.0459,大同市,区一中,,40,18,26,11,9,128,128,150,134,8,14,8,9,0.4,0.5
2026-07-09T0000,4199A,113.2798248,40.09972476,大同市,魏都大道141号,,34,16,35,10,12,108,108,129,122,12,16,6,7,0.8,0.6
2026-07-09T0000,2269A,124.1068,50.4091,大兴安岭地区,科技局,,24,24,21,11,11,51,51,64,49,2,4,11,11,0.2,0.2
2026-07-09T0000,3663A,124.117,50.4279,大兴安岭地区,红旗社区,,23,NA,8,16,9,42,42,68,49,2,4,5,5,0.2,0.2
2026-07-09T0000,1600A,124.33,40.0625,丹东市,江湾东路,,40,18,10,17,6,127,127,110,110,4,6,2,2,0.6,0.4
2026-07-09T0000,1601A,124.4242,40.1513,丹东市,临江后街,,34,19,8,18,5,106,106,100,100,3,4,3,4,0.5,0.4
2026-07-09T0000,1602A,124.3935,40.1461,丹东市,元宝山,,35,21,9,21,5,110,110,99,99,4,5,3,3,0.6,0.5
2026-07-09T0000,1603A,124.3634,40.1093,丹东市,民主桥,,36,24,11,23,5,114,114,100,100,1,4,6,6,0.9,0.7
2026-07-09T0000,3541A,109.5726195,19.51688767,儋州市,第一中学子站,NA,NA,NA,15,3,5,42,42,50,50,3,5,2,3,0.4,0.7
2026-07-09T0000,3542A,109.5567,19.5187,儋州市,东坡学校子站,,14,13,11,3,4,44,44,53,53,2,2,1,2,0.6,0.6
2026-07-09T0000,2616A,98.5611,24.4273,德宏傣族景颇族自治州,德宏州监测站,,9,NA,6,3,8,28,28,42,36,8,7,7,5,0.5,0.5
2026-07-09T0000,3677A,98.5887,24.4366,德宏傣族景颇族自治州,芒市人民政府综合楼,,22,22,27,3,5,25,25,35,30,7,7,7,4,0.5,0.6
2026-07-09T0000,1901A,104.424,31.1209,德阳市,东山公园,,34,NA,29,23,28,106,106,152,134,7,7,5,5,0.7,0.7
2026-07-09T0000,1902A,104.3827,31.1318,德阳市,西小区,,36,36,42,22,28,87,87,145,126,16,15,9,9,1.0,1.1
2026-07-09T0000,1904A,104.3553,31.1091,德阳市,耐火材料厂,,43,38,41,30,31,97,97,183,158,14,13,4,4,0.5,0.5
2026-07-09T0000,4145A,104.4144,31.1495,德阳市,市林业局,,33,30,36,22,28,104,104,182,152,19,14,12,12,0.8,0.9
2026-07-09T0000,1622A,116.3034,37.4675,德州市,儿童乐园,,33,29,17,23,9,105,105,169,146,6,7,9,10,0.9,0.8
2026-07-09T0000,1624A,116.2992,37.4449,德州市,监理站,,38,27,16,26,8,100,100,165,142,8,8,13,14,0.4,0.3
2026-07-09T0000,3066A,116.2722,37.438,德州市,九衢泉纯净水厂,,33,29,19,23,9,94,94,164,136,15,13,14,12,0.8,0.7
2026-07-09T0000,3371A,116.3693,37.44,德州市,开发区人民医院,,43,34,16,30,9,95,95,165,139,19,11,10,10,0.6,0.6
2026-07-09T0000,3511A,116.5687,37.3331,德州市,陵城艺术中心,细颗粒物(PM2.5),52,NA,17,36,10,84,84,173,145,14,10,1,4,0.3,0.3
2026-07-09T0000,4292A,116.352738,37.420875,德州市,新河东路,,35,27,13,24,5,37,37,167,125,33,15,10,11,0.7,0.6
2026-07-09T0000,2621A,99.7054,27.8319,迪庆藏族自治州,迪庆州站,NA,NA,NA,NA,NA,NA,NA,NA,NA,NA,NA,NA,NA,NA,NA,NA
2026-07-09T0000,3180A,99.7122,27.8129,迪庆藏族自治州,质量技术监督局,,17,10,14,3,8,54,54,77,68,8,10,7,7,0.2,0.2
2026-07-09T0000,4257A,104.6092,35.5962,定西市,将台街,颗粒物(PM10),57,59,40,24,16,112,112,143,130,7,12,6,7,0.1,0.1
2026-07-09T0000,4309A,104.6159,35.5701,定西市,正龙路62号,颗粒物(PM10),58,60,42,26,16,103,103,132,120,8,9,7,7,0.4,0.3
2026-07-09T0000,4071A,114.9883,38.5232,定州市,交通局,颗粒物(PM10),63,67,57,24,21,112,112,180,158,18,15,6,7,0.5,0.5
2026-07-09T0000,4072A,115.0045,38.5136,定州市,第五中学,颗粒物(PM10),60,64,46,22,22,119,119,178,159,14,14,4,5,0.3,0.3
2026-07-09T0000,1390A,113.7943,23.0132,东莞市,东城石井,,36,36,26,22,20,1,1,NA,NA,7,10,3,3,0.5,0.4
2026-07-09T0000,1391A,113.7384,22.9659,东莞市,南城西平,,29,29,16,18,9,8,8,50,23,36,23,6,6,0.8,0.7
2026-07-09T0000,3319A,113.7283,23.041,东莞市,万江金泰,,38,38,17,22,11,15,15,60,30,36,22,8,8,0.9,0.8
2026-07-09T0000,4129A,113.8666,23.1062,东莞市,裕兴路,,46,46,25,24,11,20,20,68,34,27,20,8,4,0.7,0.6
2026-07-09T0000,4130A,114.0076,22.9739,东莞市,教育路1号,,37,37,23,20,12,5,5,64,24,49,25,6,6,0.8,0.8
2026-07-09T0000,4131A,113.7981,22.8124,东莞市,长怡路1号,,49,49,24,24,13,7,7,51,18,36,23,4,4,0.7,0.7
2026-07-09T0000,1666A,118.6612,37.4313,东营市,市环保局,,38,31,19,26,10,104,104,198,169,17,15,11,8,0.6,0.5
2026-07-09T0000,3036A,118.6903,37.4337,东营市,开发区管委会,细颗粒物(PM2.5),60,41,25,40,13,105,105,198,167,25,19,16,13,0.8,0.5
2026-07-09T0000,3365A,118.5721,37.5654,东营市,垦利区民丰路,,36,36,22,20,13,111,111,190,161,19,13,3,3,0.5,0.4
2026-07-09T0000,3498A,118.5063,37.8606,东营市,河口城区,,48,19,16,16,13,152,152,188,179,12,15,5,7,0.7,0.6
2026-07-09T0000,3646A,118.4979,37.4623,东营市,胜利站,,37,28,24,20,12,117,117,199,163,21,15,6,7,0.9,0.6
2026-07-09T0000,3734A,118.5753,37.4405,东营市,理想之城,,29,29,20,20,10,86,86,207,164,33,22,4,7,0.6,0.5
2026-07-09T0000,1591A,110.0024,39.8127,鄂尔多斯市,综合楼,颗粒物(PM10),62,66,31,26,12,101,101,138,132,31,20,18,14,0.6,0.6
2026-07-09T0000,1592A,109.9485,39.8259,鄂尔多斯市,巴音孟克林场办事处,,48,48,25,11,9,113,113,136,132,22,15,9,7,0.6,0.4
2026-07-09T0000,1593A,109.7734,39.5987,鄂尔多斯市,康泽苑,,32,19,20,14,8,101,101,141,128,17,11,11,11,0.3,0.3
2026-07-09T0000,1594A,109.8121,39.5987,鄂尔多斯市,华泰汽车城,,36,36,23,17,9,40,40,130,107,60,20,10,10,0.7,0.5
2026-07-09T0000,1595A,109.9734,39.7884,鄂尔多斯市,奥林花园,颗粒物(PM10),60,63,33,21,11,81,81,130,119,29,20,7,5,0.6,0.5
2026-07-09T0000,2436A,114.894,30.3989,鄂州市,市政府,,24,24,20,7,5,45,45,92,63,8,10,3,3,0.4,0.5
2026-07-09T0000,2437A,114.8986,30.3714,鄂州市,赵家坝,,15,15,19,6,5,40,40,102,61,9,8,6,5,0.5,0.5
2026-07-09T0000,3654A,114.8093,30.4091,鄂州市,精准医疗中心,,28,28,22,13,8,24,24,54,43,27,17,13,8,1.7,0.7
2026-07-09T0000,2454A,109.4978,30.2979,恩施土家族苗族自治州,湖北民院,,29,29,23,15,12,27,27,102,73,11,5,5,5,0.5,0.5
2026-07-09T0000,3549A,109.5061,30.3771,恩施土家族苗族自治州,龙凤新区,,20,20,18,11,13,22,22,106,63,9,6,5,5,0.4,0.4
2026-07-09T0000,2499A,108.3411,21.6159,防城港市,沙万,,29,29,16,7,6,37,37,56,45,36,26,3,2,0.6,0.7
2026-07-09T0000,2500A,108.3515,21.7733,防城港市,防城档案局,,25,25,14,10,9,44,44,54,51,12,14,5,5,0.5,0.6
2026-07-09T0000,2501A,108.3506,21.6414,防城港市,大海花园,,24,20,10,3,6,75,75,70,66,13,23,6,7,0.4,0.5
2026-07-09T0000,1371A,113.1293,23.0065,佛山市,湾梁,,22,19,10,15,8,2,2,42,26,42,26,/,/,/,/
2026-07-09T0000,1372A,113.1082,23.0477,佛山市,华材职中,,29,22,10,20,11,3,3,48,33,42,17,7,7,0.4,0.3
2026-07-09T0000,1373A,113.1439,23.045,佛山市,南海气象局,,26,21,15,18,11,3,3,42,28,41,24,/,/,/,/
2026-07-09T0000,1374A,113.2879,22.8094,佛山市,顺德苏岗,,20,20,17,12,9,4,4,37,25,39,25,/,/,0.7,0.7
2026-07-09T0000,1376A,112.8384,22.8678,佛山市,高明孔堂,,22,22,15,13,10,22,22,64,46,8,10,/,/,/,/
2026-07-09T0000,1377A,112.8835,23.1584,佛山市,三水监测站,,19,NA,11,13,12,17,17,52,37,19,18,2,4,0.6,0.6
2026-07-09T0000,1378A,112.8668,23.185,佛山市,三水云东海,,20,20,17,13,11,14,14,47,30,21,20,/,/,/,/
2026-07-09T0000,3625A,113.2568,22.7629,佛山市,容桂街道办,,26,NA,9,18,12,21,21,39,32,22,19,/,/,/,/
2026-07-09T0000,1282A,119.2681,26.0506,福州市,师大,,30,30,27,13,10,45,45,96,79,14,8,5,4,0.4,0.3
2026-07-09T0000,1283A,119.2983,26.1028,福州市,五四北路,,25,25,26,11,11,52,52,106,87,16,10,5,4,0.5,0.5
2026-07-09T0000,1284A,119.2648,26.0769,福州市,杨桥西路,,31,31,29,9,11,50,50,100,84,14,9,4,4,/,/
2026-07-09T0000,3048A,119.5799,26.0937,福州市,九龙,,24,24,29,7,12,29,29,110,74,16,12,6,7,0.2,0.2
2026-07-09T0000,3526A,119.5188,25.9666,福州市,吴航,,23,23,20,14,13,35,35,108,76,13,10,6,7,0.5,0.5
2026-07-09T0000,4104A,119.3106,26.0648,福州市,路通桥巷6号,,27,27,26,18,15,45,45,104,81,11,7,/,/,/,/
2026-07-09T0000,1755A,123.7974,41.8494,抚顺市,望花区,,23,23,16,8,13,71,71,109,92,10,12,8,9,0.6,0.7
2026-07-09T0000,1756A,123.9161,41.8827,抚顺市,顺城区,,21,18,14,10,9,67,67,112,98,9,12,10,15,0.7,0.6
2026-07-09T0000,1757A,124.0437,41.8615,抚顺市,东洲区,,27,9,16,3,10,84,84,107,99,6,10,7,7,0.3,0.5
2026-07-09T0000,1758A,123.9246,41.8638,抚顺市,新抚区,,25,25,17,17,12,36,36,105,80,8,7,5,5,0.8,0.8
2026-07-09T0000,1759A,124.0972,41.8961,抚顺市,大伙房水库,,27,10,11,3,7,84,84,109,102,6,9,11,11,0.3,0.4
2026-07-09T0000,1760A,123.708,41.8386,抚顺市,沈抚新城,,23,21,19,8,13,73,73,105,91,10,12,7,9,0.7,0.8
2026-07-09T0000,2377A,116.3544,27.9833,抚州市,市站,NA,NA,NA,17,NA,6,NA,NA,45,39,NA,3,NA,2,0.6,0.5
2026-07-09T0000,2378A,116.3562,27.9631,抚州市,血防站,,22,22,20,3,4,25,25,44,34,9,5,5,5,0.6,0.6
2026-07-09T0000,2379A,116.3561,28.0007,抚州市,采茶剧团,,23,23,19,3,3,25,25,49,39,15,9,9,9,0.6,0.5
2026-07-09T0000,2380A,116.3854,27.9648,抚州市,医学分院,,20,20,20,3,3,27,27,52,42,10,5,4,4,0.5,0.4
2026-07-09T0000,2207A,121.6095,41.9978,阜新市,工业园区,,27,NA,27,15,18,84,84,143,117,16,13,10,10,0.4,0.4
2026-07-09T0000,2208A,121.6567,42.0188,阜新市,长青街,,30,NA,22,17,17,94,94,150,124,12,10,11,11,0.5,0.5
2026-07-09T0000,2209A,121.6672,42.07,阜新市,农业园区,,32,NA,32,22,16,91,91,142,121,10,8,5,5,0.6,0.6
2026-07-09T0000,2211A,121.6343,42.0455,阜新市,玉龙新城,,26,NA,27,18,15,70,70,127,105,13,14,3,5,0.5,0.6
2026-07-09T0000,2301A,115.8276,32.8929,阜阳市,市监测站,,20,20,20,9,7,48,48,84,60,19,11,6,5,0.3,0.3
2026-07-09T0000,2303A,115.8551,32.8606,阜阳市,开发区,,15,8,14,7,9,47,47,74,55,14,9,4,6,0.2,0.3
2026-07-09T0000,2875A,115.783962,32.889217,阜阳市,阜阳职业技术学院,,20,19,21,8,9,62,62,87,70,9,6,3,3,0.4,0.4
2026-07-09T0000,3468A,115.79,32.8614,阜阳市,市规划展馆,,16,14,22,11,11,46,46,81,55,19,13,2,2,0.5,0.6
2026-07-09T0000,3469A,115.835101,32.918568,阜阳市,枣园社区,,24,24,20,13,8,58,58,84,64,13,10,1,3,0.4,0.4
2026-07-09T0000,2669A,102.9097,34.9841,甘南藏族自治州,州政府,颗粒物(PM10),73,81,29,28,16,6,6,115,82,53,15,5,5,0.4,0.3
2026-07-09T0000,3380A,102.8915,34.9618,甘南藏族自治州,甘肃民族师范学院,颗粒物(PM10),82,94,37,22,14,12,12,125,76,63,24,4,4,0.4,0.3
2026-07-09T0000,2570A,101.96,30.048,甘孜藏族自治州,水桥子,,26,20,19,15,13,82,82,116,104,13,11,10,5,0.3,0.2
2026-07-09T0000,3065A,101.9534,29.9976,甘孜藏族自治州,州环保局,,36,36,24,18,11,40,40,106,93,38,16,2,3,0.5,0.4
2026-07-09T0000,2363A,114.9368,25.8663,赣州市,地委,,18,18,15,3,4,25,25,51,39,8,4,3,3,0.6,0.6
2026-07-09T0000,2364A,114.946,25.8483,赣州市,气象台,,15,15,14,3,5,33,33,48,40,8,4,4,4,0.6,0.5
2026-07-09T0000,2365A,114.932,25.8332,赣州市,市图书馆,,14,14,12,3,3,36,36,53,44,8,5,4,4,0.6,0.8
2026-07-09T0000,2366A,114.8905,25.8472,赣州市,华坚鞋城,,18,18,19,3,5,30,30,52,42,9,5,1,1,0.3,0.3
2026-07-09T0000,3109A,115.0094,25.8614,赣州市,赣县区卫计委,,11,11,12,3,4,8,8,54,33,20,9,3,3,0.4,0.4
2026-07-09T0000,2684A,106.2753,36.0057,固原市,监测站,,35,35,31,20,13,89,89,133,100,21,15,5,6,0.2,0.2
2026-07-09T0000,2685A,106.2384,36.0189,固原市,新区,,42,42,31,19,12,97,97,139,106,15,25,7,7,0.5,0.4
2026-07-09T0000,2544A,106.6307,30.4577,广安市,市委,细颗粒物(PM2.5),52,40,30,36,20,91,91,138,121,10,11,9,9,0.5,0.5
2026-07-09T0000,2545A,106.6266,30.4662,广安市,友谊中学,,46,34,28,32,20,71,71,141,124,15,11,10,10,0.3,0.4
2026-07-09T0000,2547A,106.6386,30.4551,广安市,广电花园,,43,31,27,30,21,77,77,145,127,15,11,9,9,0.6,0.6
2026-07-09T0000,2902A,106.6347,30.4868,广安市,北辰小学,,48,34,32,33,26,88,88,141,125,17,12,9,8,0.5,0.4
2026-07-09T0000,2524A,105.8211,32.4444,广元市,老城,颗粒物(PM10),58,61,37,17,17,92,92,125,114,7,7,6,9,0.5,0.6
2026-07-09T0000,2526A,105.8629,32.429,广元市,监测站,,38,38,39,20,15,86,86,132,120,12,10,4,4,0.5,0.6
2026-07-09T0000,3617A,105.8047,32.4167,广元市,经开区,,33,26,33,17,19,104,104,124,119,7,10,5,6,0.6,0.7
2026-07-09T0000,1345A,113.2346,23.1423,广州市,广雅中学,,35,35,15,22,9,3,3,39,25,49,27,6,4,0.6,0.5
2026-07-09T0000,1346A,113.2611,23.105,广州市,市五中,,32,32,15,21,12,4,4,46,25,49,26,8,4,/,/
2026-07-09T0000,1348A,113.3477,23.0916,广州市,广东商学院,,38,38,16,25,9,2,2,39,16,38,24,7,5,0.7,0.5
2026-07-09T0000,1349A,113.4332,23.105,广州市,市八十六中,,29,29,15,19,10,6,6,34,13,44,35,7,6,/,/
2026-07-09T0000,1350A,113.3506,22.9488,广州市,番禺中学,,34,34,15,22,9,2,2,42,21,43,21,6,5,0.6,0.4
2026-07-09T0000,1351A,113.2147,23.3918,广州市,花都师范,,24,24,15,15,10,8,8,42,28,44,28,3,3,0.7,0.6
2026-07-09T0000,1352A,113.2599,23.1329,广州市,市监测站,,32,32,14,20,10,5,5,45,26,42,22,3,2,/,/
2026-07-09T0000,1353A,113.5618,23.3119,广州市,九龙镇镇龙,,16,16,11,11,8,22,22,45,26,13,17,6,7,0.6,0.6
2026-07-09T0000,1354A,113.2764,23.1544,广州市,麓湖,,33,33,16,20,9,1,1,40,23,46,26,6,6,0.7,0.5
2026-07-09T0000,2846A,113.3209,23.1323,广州市,体育西,,33,33,19,20,10,2,2,41,20,54,35,8,6,0.6,0.5
2026-07-09T0000,3298A,113.5718,23.5493,广州市,从化街口,,20,20,13,11,7,20,20,51,35,20,13,7,7,0.6,0.5
2026-07-09T0000,3299A,113.3463,23.369,广州市,白云竹料,,26,26,14,14,8,17,17,41,31,24,19,3,3,0.6,0.6
2026-07-09T0000,3300A,113.2981,23.2365,广州市,白云嘉禾,,36,36,16,18,9,9,9,40,22,38,28,6,7,/,/
2026-07-09T0000,3301A,113.4256,23.1716,广州市,黄埔科学城,,35,35,15,21,10,8,8,38,15,30,20,5,7,0.4,0.3
2026-07-09T0000,3302A,113.3942,23.0485,广州市,番禺大学城,,42,42,16,22,8,4,4,46,20,49,29,10,4,0.7,0.5
2026-07-09T0000,3303A,113.4923,22.8169,广州市,南沙黄阁,,21,21,14,12,8,7,7,49,32,41,23,7,7,/,/
2026-07-09T0000,3304A,113.534,22.7893,广州市,南沙街,,28,28,14,17,8,5,5,48,25,47,23,8,9,0.6,0.4
2026-07-09T0000,3443A,113.2905,23.5541,广州市,花都梯面,,21,21,12,12,8,39,39,49,40,11,13,10,9,/,/
2026-07-09T0000,3445A,113.786,23.7479,广州市,从化良口,,21,21,11,7,6,14,14,41,30,13,9,4,4,/,/
2026-07-09T0000,3446A,113.805,23.2614,广州市,增城荔城,,16,16,15,7,8,21,21,68,31,13,15,8,8,0.5,0.5
2026-07-09T0000,2506A,109.604387,23.066791,贵港市,江南子站,NA,NA,NA,NA,NA,NA,NA,NA,NA,NA,NA,NA,NA,NA,NA,NA
2026-07-09T0000,2508A,109.5669,23.1065,贵港市,荷城子站,NA,NA,NA,NA,NA,NA,NA,NA,NA,NA,NA,NA,NA,NA,NA,NA
2026-07-09T0000,3405A,109.5886,23.1172,贵港市,新世纪学校,NA,NA,NA,NA,NA,NA,NA,NA,NA,NA,NA,NA,NA,NA,NA,NA
2026-07-09T0000,4260A,109.5933,23.095,贵港市,中山路155-3号,,15,NA,14,3,8,48,48,53,53,11,9,/,/,0.6,0.6
2026-07-09T0000,1439A,106.6863,26.6035,贵阳市,马鞍山,,15,14,12,10,8,16,16,91,44,11,8,2,2,/,/
2026-07-09T0000,1441A,106.6241,26.6266,贵阳市,鉴湖路,,24,24,28,6,8,54,54,100,76,8,8,8,10,0.5,0.4
2026-07-09T0000,1442A,106.7468,26.6344,贵阳市,燕子冲,,19,19,22,8,8,40,40,88,62,11,11,11,9,0.4,0.4
2026-07-09T0000,1443A,106.6556,26.4362,贵阳市,碧云窝,,24,24,28,10,9,54,54,91,69,4,6,10,8,/,/
2026-07-09T0000,1445A,106.6963,26.6063,贵阳市,红边门,,27,27,19,18,8,36,36,96,67,18,11,5,12,/,/
2026-07-09T0000,1446A,106.7162383,26.56964667,贵阳市,新华路,NA,NA,36,26,9,8,NA,NA,96,58,18,11,6,31,0.4,0.7
2026-07-09T0000,1447A,106.6742,26.542,贵阳市,太慈桥,,19,19,19,12,9,32,32,90,54,13,9,3,4,/,/
2026-07-09T0000,4230A,106.688212,26.56952,贵阳市,花果园大街66号,,23,16,19,16,8,34,34,85,59,13,11,3,3,/,/
2026-07-09T0000,4231A,106.687268,26.516892,贵阳市,漓江路57号,,27,27,16,18,9,31,31,87,57,16,9,5,3,0.6,0.5
2026-07-09T0000,1864A,110.3091,25.2705,桂林市,龙隐路小学,,24,24,13,11,6,16,16,49,30,11,6,7,6,0.6,0.5
2026-07-09T0000,1865A,110.2849361,25.22909545,桂林市,八中,,20,20,27,3,4,31,31,51,37,7,7,4,6,0.7,0.7
2026-07-09T0000,3531A,110.296,25.1254,桂林市,旅游学院,,24,24,17,16,6,23,23,48,36,4,3,20,10,0.3,0.3
2026-07-09T0000,4222A,110.1835,25.2444,桂林市,环湖路276号,,40,NA,7,28,8,24,24,56,36,10,4,68,12,0.3,0.3
2026-07-09T0000,4301A,110.2803,25.2773,桂林市,信义路13号,,23,17,11,16,7,18,18,47,27,13,7,12,6,0.6,0.4
2026-07-09T0000,2674A,100.2262,34.4854,果洛藏族自治州,玛沁县大武镇,,28,28,25,6,8,67,67,104,88,2,3,18,18,0.4,0.4
2026-07-09T0000,1130A,126.5557,45.8109,哈尔滨市,松北商大,,10,9,11,7,8,17,17,35,29,16,16,5,5,0.5,0.4
2026-07-09T0000,1132A,126.6162,45.719,哈尔滨市,南岗学府路,,23,23,20,6,4,18,18,46,35,25,19,7,6,0.4,0.3
2026-07-09T0000,1133A,126.6894,45.7733,哈尔滨市,太平宏伟公园,,17,17,16,3,3,24,24,46,NA,21,20,7,7,0.2,0.2
2026-07-09T0000,1134A,126.6361,45.7672,哈尔滨市,道外承德广场,,24,24,24,6,3,28,28,41,36,17,20,5,5,0.1,0.2
2026-07-09T0000,1136A,126.644,45.7261,哈尔滨市,动力和平路,,15,15,16,3,3,23,23,46,37,23,21,7,6,0.3,0.3
2026-07-09T0000,1137A,126.5933,45.7479,哈尔滨市,道里建国路,,23,23,16,14,6,33,33,45,37,14,16,5,5,0.9,1.2
2026-07-09T0000,1138A,126.6127,45.6119,哈尔滨市,平房东轻厂,,9,6,13,3,5,28,28,41,33,12,17,7,8,0.5,0.6
2026-07-09T0000,1139A,126.5875,45.9827,哈尔滨市,呼兰师专,,10,9,8,3,2,26,26,37,36,20,21,7,6,0.5,0.5
2026-07-09T0000,1140A,126.6299,45.6799,哈尔滨市,省农科院,,19,12,15,3,4,8,8,45,27,37,25,5,5,0.5,0.5
2026-07-09T0000,4282A,126.6769,45.7379,哈尔滨市,华山路1号,,12,12,10,3,2,38,38,53,46,13,15,4,3,0.1,0.1
2026-07-09T0000,4283A,126.9717,45.5356,哈尔滨市,解放大街52号,,12,12,13,3,3,28,28,41,38,8,11,5,6,0.3,0.4
2026-07-09T0000,2688A,93.5124,42.8176,哈密市,地区监测站,,33,28,25,20,21,104,104,111,106,6,8,4,9,0.1,0.2
2026-07-09T0000,2689A,93.5014,42.8312,哈密市,哈密师范学校,,36,NA,31,25,16,94,94,105,92,10,11,8,8,0.2,0.2
2026-07-09T0000,2671A,100.9016,36.9464,海北藏族自治州,海晏县西海镇,,37,36,25,21,16,117,117,154,140,7,5,10,8,0.5,0.4
2026-07-09T0000,3867A,102.074,36.5056,海东市,平安区公安局北苑,,42,38,29,24,20,134,134,144,140,5,7,11,11,0.9,0.6
2026-07-09T0000,4163A,102.0984,36.5119,海东市,滨河路,颗粒物(PM10),57,59,32,24,23,123,123,139,117,15,27,10,10,0.4,0.6
2026-07-09T0000,1410A,110.3189,20.0596,海口市,海南大学,,14,13,15,8,10,43,43,63,44,9,8,5,5,0.4,0.4
2026-07-09T0000,1411A,110.2827,20.0051,海口市,秀英海南医院,,13,13,13,8,9,18,18,61,28,26,13,5,5,0.3,0.3
2026-07-09T0000,1412A,110.3391,19.9979,海口市,海南师范大学,,16,16,16,7,8,38,38,60,41,5,7,3,3,0.4,0.4
2026-07-09T0000,1413A,110.3303,20.0359,海口市,龙华路环保局宿舍,,15,15,15,8,9,40,40,65,45,9,7,/,/,0.3,0.3
2026-07-09T0000,3539A,110.5111,19.9737,海口市,桂林洋子站,,21,21,16,9,8,22,22,57,42,14,6,/,/,/,/
2026-07-09T0000,4134A,110.1952,20.0451,海口市,长滨二路9号,,16,12,14,11,8,30,30,58,31,11,10,/,/,/,/
2026-07-09T0000,2673A,100.6158,36.2985,海南藏族自治州,共和县恰卜恰镇,颗粒物(PM10),51,51,21,16,11,109,109,137,128,14,7,16,10,0.5,0.4
2026-07-09T0000,2676A,97.373,37.376,海西蒙古族藏族自治州,德令哈市,,35,26,30,7,15,111,111,123,111,1,2,10,11,0.4,0.4
2026-07-09T0000,1049A,114.492,36.5712,邯郸市,矿院,,33,30,23,23,19,58,58,162,144,26,6,2,3,1.3,0.6
2026-07-09T0000,1050A,114.4839,36.6136,邯郸市,丛台公园,,27,24,21,10,14,85,85,145,123,19,6,12,7,1.3,0.5
2026-07-09T0000,3458A,114.7893,36.5592,邯郸市,香泉濮院小区,"颗粒物(PM10),细颗粒物(PM2.5)",52,52,14,36,15,52,52,154,123,30,11,3,3,0.5,0.2
2026-07-09T0000,3580A,114.1998,36.4439,邯郸市,峰峰矿区临水派出所,,36,29,30,3,21,114,114,136,110,10,10,6,2,0.9,0.4
2026-07-09T0000,4068A,114.5209,36.7697,邯郸市,建安街268号,,30,26,27,17,14,96,96,156,135,18,11,3,3,1.1,0.5
2026-07-09T0000,4069A,114.5488,36.6177,邯郸市,丛台东路558号,NA,NA,52,28,26,13,NA,NA,132,116,62,9,2,3,1.6,0.5
2026-07-09T0000,2635A,107.0155,33.0707,汉中市,市监测站,,39,28,34,27,23,78,78,144,118,10,10,4,4,0.4,0.4
2026-07-09T0000,2636A,107.0083,33.114,汉中市,鑫源开发区,,32,27,32,22,21,91,91,141,117,12,12,5,7,0.5,0.5
2026-07-09T0000,2637A,107.0072,33.0323,汉中市,南郑大河坎水厂,,35,31,33,24,21,67,67,137,101,11,12,3,3,0.4,0.4
2026-07-09T0000,1223A,120.2073,30.2111,杭州市,滨江,,21,21,17,10,7,16,16,70,35,20,17,4,5,0.4,0.4
2026-07-09T0000,1224A,120.0625,30.2737,杭州市,西溪,,18,18,13,11,7,2,2,47,17,9,10,4,5,0.8,0.8
2026-07-09T0000,1226A,120.3417,30.315,杭州市,下沙,,15,15,15,8,8,32,32,77,45,13,14,4,4,0.6,0.6
2026-07-09T0000,1227A,120.1252,30.2465,杭州市,卧龙桥,,11,11,12,3,6,5,5,49,12,12,13,5,5,0.3,0.3
2026-07-09T0000,1228A,120.1902,30.2691,杭州市,浙江农大,,15,15,15,8,8,27,27,55,29,17,19,6,7,0.4,0.4
2026-07-09T0000,1230A,120.1195,30.3121,杭州市,和睦小学,,13,11,15,9,9,25,25,44,31,8,9,7,8,0.6,0.6
2026-07-09T0000,1231A,120.3076,30.4146,杭州市,临平镇,,22,22,16,10,7,17,17,63,36,22,12,7,7,0.5,0.5
2026-07-09T0000,1232A,120.2753,30.1839,杭州市,城厢镇,,25,25,21,11,8,19,19,80,43,21,15,6,6,0.5,0.5
2026-07-09T0000,1233A,120.0883,30.1808,杭州市,云栖,,18,18,15,7,7,4,4,45,18,15,14,5,5,0.5,0.6
2026-07-09T0000,3557A,119.9463,30.0496,杭州市,镇二中,,18,18,16,11,8,1,1,61,29,36,20,5,6,0.7,0.7
2026-07-09T0000,3558A,119.7184,30.2367,杭州市,市府大楼,,12,8,11,8,7,9,9,33,20,11,8,8,8,0.3,0.3
2026-07-09T0000,3656A,120.1554,30.2863,杭州市,消防大队,,10,8,12,7,8,29,29,55,33,4,9,8,8,0.7,0.8
2026-07-09T0000,1270A,117.1957,31.7845,合肥市,明珠广场,,15,14,15,7,7,47,47,82,60,8,6,7,7,0.4,0.5
2026-07-09T0000,1271A,117.307,31.8765,合肥市,三里街,,14,9,14,8,8,43,43,79,56,12,11,9,9,0.5,0.5
2026-07-09T0000,1272A,117.2587,31.8703,合肥市,琥珀山庄,,17,NA,14,6,6,52,52,87,62,7,7,7,6,0.5,0.5
2026-07-09T0000,1275A,117.2593,31.9376,合肥市,庐阳区,,17,12,15,3,9,53,53,92,65,9,14,8,9,0.6,0.7
2026-07-09T0000,1276A,117.345251,31.861615,合肥市,瑶海区,,15,9,15,3,5,46,46,77,57,6,8,9,9,0.5,0.5
2026-07-09T0000,1277A,117.3033,31.7967,合肥市,包河区,,17,7,12,6,6,54,54,80,62,6,10,7,6,0.5,0.5
2026-07-09T0000,1278A,117.278,31.7392,合肥市,滨湖新区,,17,7,11,6,7,52,52,74,58,5,6,12,13,0.6,0.6
2026-07-09T0000,1279A,117.1324,31.8395,合肥市,高新区,,18,12,16,7,8,57,57,81,65,3,6,7,8,0.5,0.5
2026-07-09T0000,3464A,117.3802,31.9148,合肥市,高教基地,,16,6,13,3,6,49,49,75,60,5,5,6,6,0.6,0.6
2026-07-09T0000,4098A,117.2518,31.8404,合肥市,中国科学技术大学,,18,7,13,6,7,56,56,98,68,7,8,10,9,0.5,0.6
2026-07-09T0000,3614A,79.9241,37.0878,和田地区,地区环保局,NA,NA,NA,194,54,78,69,69,126,109,NA,6,2,2,0.3,0.2
2026-07-09T0000,3615A,79.9132,37.1137,和田地区,市环保局,颗粒物(PM10),102,125,199,50,78,93,93,130,119,17,7,3,2,0.5,0.3
2026-07-09T0000,2517A,108.0496,24.6957,河池市,市环保站,,12,7,16,3,7,38,38,52,47,5,4,4,4,0.9,0.8
2026-07-09T0000,4302A,108.0901,24.6945,河池市,上任中路54号,,19,19,16,3,5,40,40,53,48,6,5,4,4,0.7,0.7
2026-07-09T0000,1697A,114.6962,23.7538,河源市,东埔,,27,27,16,16,11,32,32,50,43,10,7,5,4,0.6,0.6
2026-07-09T0000,1698A,114.6895,23.7232,河源市,老城,,33,33,18,15,10,23,23,50,39,11,9,8,8,0.6,0.9
2026-07-09T0000,3374A,115.5562,35.089,菏泽市,定陶老年大学,,36,31,18,22,10,115,115,171,150,15,9,3,3,0.4,0.4
2026-07-09T0000,4114A,115.4239,35.2593,菏泽市,黄河路600号,,29,27,24,20,10,88,88,130,114,12,6,4,4,0.3,0.3
2026-07-09T0000,4115A,115.5025,35.2727,菏泽市,菏泽市人社局,,29,25,20,12,11,90,90,124,103,8,8,2,3,0.3,0.3
2026-07-09T0000,4184A,115.479691,35.244011,菏泽市,永昌路1号,,32,28,24,16,8,102,102,140,120,8,8,5,5,0.4,0.4
2026-07-09T0000,4193A,115.471542,35.280012,菏泽市,长城路999号,,32,19,18,14,16,100,100,134,119,8,7,5,6,0.4,0.3
2026-07-09T0000,2514A,111.5264,24.4178,贺州市,环保小区,,15,15,12,9,10,35,35,44,37,6,8,9,9,0.4,0.4
2026-07-09T0000,2515A,111.561,24.4074,贺州市,政协大楼,,14,14,7,7,9,27,27,47,38,10,11,15,15,0.4,0.4
2026-07-09T0000,3534A,111.4744,24.455,贺州市,西湾,,25,25,18,9,5,26,26,45,35,11,9,10,9,0.3,0.3
2026-07-09T0000,2385A,114.17,35.9019,鹤壁市,市监测站,细颗粒物(PM2.5),90,64,47,55,34,47,47,105,62,8,8,4,3,0.8,0.6
2026-07-09T0000,2386A,114.2953,35.7512,鹤壁市,市交警支队,,45,45,40,27,26,56,56,124,89,17,14,5,6,0.8,0.5
2026-07-09T0000,2387A,114.2877,35.7302,鹤壁市,迎宾馆,,49,49,37,26,22,62,62,134,93,10,9,8,8,1.0,0.6
2026-07-09T0000,3474A,114.2616,35.6824,鹤壁市,大新区,,44,44,37,28,25,70,70,140,101,10,12,5,6,0.8,0.5
2026-07-09T0000,3596A,114.1573,35.9607,鹤壁市,南山宾馆,细颗粒物(PM2.5),54,41,36,37,36,48,48,100,70,14,7,8,9,0.5,0.4
2026-07-09T0000,2244A,130.2537,47.3416,鹤岗市,哈啤分公司,,14,6,15,3,9,43,43,51,49,5,9,4,3,0,0
2026-07-09T0000,2245A,130.2683,47.3087,鹤岗市,斯达机电,,12,6,9,3,10,37,37,44,44,4,7,6,6,0.1,0.2
2026-07-09T0000,2246A,130.3114,47.3388,鹤岗市,东山纸板厂,,10,10,17,3,6,32,32,39,38,7,11,3,4,0.1,0.1
2026-07-09T0000,2263A,127.4832,50.2524,黑河市,交通局,,15,9,17,3,9,47,47,67,62,3,5,5,5,0.1,0.1
2026-07-09T0000,2264A,127.5146,50.2339,黑河市,环保局,,15,NA,13,6,9,45,45,64,59,5,7,6,6,0.2,0.2
2026-07-09T0000,1074A,115.6839,37.754,衡水市,电机北厂,,49,49,32,16,13,75,75,167,138,25,8,5,6,0.6,0.4
2026-07-09T0000,1075A,115.6303,37.7318,衡水市,市监测站,,37,37,28,20,9,105,105,175,153,17,7,7,7,0.6,0.5
2026-07-09T0000,3188A,115.6684,37.7216,衡水市,市城管局,颗粒物(PM10),53,53,27,25,13,99,99,172,145,17,7,9,3,0.3,0.3
2026-07-09T0000,3459A,115.599,37.5491,衡水市,地表水厂,,46,46,34,24,17,55,55,168,121,37,17,1,2,0.2,0.2
2026-07-09T0000,2457A,112.6209,26.9268,衡阳市,衡阳化工总厂,,10,10,13,3,5,30,30,65,45,7,6,3,4,0.5,0.6
2026-07-09T0000,2458A,112.621,26.8957,衡阳市,珠晖区环保局,,10,10,12,3,4,28,28,65,44,7,5,5,6,0.8,0.8
2026-07-09T0000,2459A,112.628,26.8654,衡阳市,市委党校,NA,NA,20,14,3,6,28,28,63,45,NA,2,4,4,0.3,0.3
2026-07-09T0000,2460A,112.6007,26.8977,衡阳市,市监测站,,10,9,14,3,4,31,31,67,47,10,8,1,2,0.6,0.6
2026-07-09T0000,2461A,112.5658,26.9013,衡阳市,真空机电公司,,11,8,13,3,7,34,34,67,47,9,10,5,6,0.8,0.9
2026-07-09T0000,3399A,112.6703,26.8817,衡阳市,师范学院,,13,12,13,9,6,29,29,64,44,3,4,8,8,0.5,0.5
2026-07-09T0000,3038A,103.3757,23.3679,红河哈尼族彝族自治州,州图书馆,,12,12,12,6,8,17,17,56,38,9,6,6,4,0.2,0.3
2026-07-09T0000,4154A,103.401,23.3561,红河哈尼族彝族自治州,蒙自市朝阳路,NA,NA,33,15,3,8,NA,NA,55,43,NA,5,NA,7,NA,0.3
2026-07-09T0000,1090A,111.6506,40.7517,呼和浩特市,呼市一监,,30,12,15,6,9,93,93,108,101,8,9,6,7,0.4,0.4
2026-07-09T0000,1094A,111.7516,40.8369,呼和浩特市,如意水处理厂,,20,20,14,12,11,56,56,107,86,29,16,7,7,0.7,0.5
2026-07-09T0000,1095A,111.727798,40.806187,呼和浩特市,二十九中,,30,NA,15,21,16,74,74,107,92,17,12,10,10,0.7,0.6
2026-07-09T0000,1097A,111.717,40.7617,呼和浩特市,化肥厂生活区,,29,16,15,10,11,91,91,107,96,11,14,12,12,0.6,0.7
2026-07-09T0000,3699A,111.6519,40.8389,呼和浩特市,海东办,,20,12,12,3,5,61,61,106,86,29,15,8,8,0.5,0.3
2026-07-09T0000,4275A,111.591512,40.827312,呼和浩特市,成吉思汗西街8号,,19,9,15,3,4,43,43,98,66,37,22,5,7,0.5,0.4
2026-07-09T0000,4276A,111.6597,40.8077,呼和浩特市,公园东路75号,,30,NA,12,12,6,94,94,114,106,17,15,13,12,0.8,0.7
2026-07-09T0000,4277A,111.5427,40.7846,呼和浩特市,金海路35号,,22,19,22,7,10,68,68,92,81,22,18,4,5,0.7,0.5
2026-07-09T0000,3061A,119.7511,49.1576,呼伦贝尔市,国华电力东,,32,28,23,22,11,51,51,92,72,9,7,4,4,0.4,0.4
2026-07-09T0000,4279A,119.7569,49.2222,呼伦贝尔市,伊敏大街东7号,,20,19,19,13,11,61,61,92,77,12,10,6,6,0.7,0.7
2026-07-09T0000,1250A,120.075,30.867,湖州市,城西水厂,,20,20,14,14,9,0,0,79,29,34,26,6,6,0.4,0.3
2026-07-09T0000,2873A,120.083,30.8929,湖州市,仁皇山新区,,15,11,16,3,10,5,5,91,39,29,21,4,5,0.5,0.4
2026-07-09T0000,2907A,120.1846,30.8592,湖州市,吴兴区站,,18,18,14,12,8,9,9,70,38,23,14,5,5,0.4,0.3
2026-07-09T0000,3562A,120.4146,30.8538,湖州市,南浔区站,,12,10,15,8,8,22,22,63,40,14,9,5,5,0.5,0.5
2026-07-09T0000,1607A,120.904878,40.721091,葫芦岛市,龙港区,臭氧1小时(O3_1h),77,35,28,34,21,181,181,173,173,5,9,6,6,0.6,0.5
2026-07-09T0000,1608A,120.8382,40.7521,葫芦岛市,化工街,,50,44,32,20,21,160,160,165,165,13,17,9,15,0.6,0.4
2026-07-09T0000,1609A,120.8339,40.7078,葫芦岛市,新区,臭氧1小时(O3_1h),57,32,30,28,22,165,165,164,164,4,7,4,4,0.7,0.6
2026-07-09T0000,1610A,120.8697,40.7679,葫芦岛市,东城区,NA,NA,NA,33,34,26,NA,NA,153,NA,8,12,3,8,0.7,0.6
2026-07-09T0000,2483A,109.9297,27.5383,怀化市,河西地税局,,18,18,9,3,5,26,26,64,41,7,6,5,6,/,/
2026-07-09T0000,2484A,109.9783,27.5342,怀化市,市四医院,,15,15,12,7,6,19,19,67,39,15,8,6,6,0.1,0.1
2026-07-09T0000,2485A,109.9971,27.5579,怀化市,监测楼,,16,16,18,9,6,24,24,69,42,12,8,8,9,0.3,0.3
2026-07-09T0000,1210A,119.0566,33.5991,淮安市,钵池山,,29,29,20,19,13,55,55,82,77,28,13,6,6,0.7,0.6
2026-07-09T0000,1211A,119.0083,33.578,淮安市,北京南路,,25,24,18,17,11,53,53,84,80,21,8,6,6,0.6,0.7
2026-07-09T0000,1212A,118.9938,33.6083,淮安市,市监测站,,21,NA,11,13,14,66,66,80,78,16,11,6,6,0.7,0.9
2026-07-09T0000,1213A,119.135,33.5038,淮安市,楚州区监测站,,23,17,21,16,16,48,48,92,72,28,18,5,5,0.6,0.6
2026-07-09T0000,3426A,118.8757,33.2897,淮安市,新华书店,,19,18,15,12,8,58,58,88,79,13,10,8,7,1.0,0.9
2026-07-09T0000,4092A,119.119691,33.550006,淮安市,枚皋中路89号,,31,31,22,16,10,62,62,86,81,23,14,8,9,0.7,0.8
2026-07-09T0000,4206A,119.028838,33.631911,淮安市,承德北路606号,,27,27,22,14,13,52,52,74,71,15,12,6,7,1.0,1.1
2026-07-09T0000,2282A,116.8005,33.9749,淮北市,监测站,,24,24,22,11,9,54,54,119,95,16,9,7,6,0.3,0.3
2026-07-09T0000,2283A,116.8094,33.9008,淮北市,烈山区政府,NA,NA,40,22,8,13,48,48,119,95,NA,9,3,4,0.5,0.5
2026-07-09T0000,4017A,116.7926,33.9534,淮北市,市博物馆,,26,26,22,15,16,58,58,120,99,18,10,2,3,0.4,0.5
2026-07-09T0000,4100A,116.8322,33.9884,淮北市,杜集区第一实验学校,,40,40,38,10,12,38,38,100,78,22,11,3,3,0.6,0.6
2026-07-09T0000,2277A,116.8304,32.7726,淮南市,潘集区政府,,22,22,16,10,10,39,39,69,56,6,4,5,5,0.1,0.2
2026-07-09T0000,2279A,116.8569,32.5949,淮南市,谢家集区政府,,14,10,10,9,9,44,44,77,61,9,8,7,7,0.1,0.1
2026-07-09T0000,2280A,116.8279,32.6333,淮南市,八公山区政府,,15,11,15,8,8,47,47,76,64,6,6,5,5,0.1,0.1
2026-07-09T0000,2894A,117.0561,32.6536,淮南市,经济技术开发区消防队,,13,10,9,7,7,40,40,80,60,8,6,7,9,0.4,0.4
2026-07-09T0000,3329A,117.011,32.5891,淮南市,山南新区,,18,NA,8,12,11,44,44,82,67,8,6,10,11,0.4,0.5
2026-07-09T0000,4209A,117.003137,32.644456,淮南市,国庆中路369号,,21,21,19,12,8,40,40,76,63,14,11,9,9,0.1,0.1
2026-07-09T0000,2446A,114.9021,30.474,黄冈市,职工中心,NA,NA,20,17,12,9,NA,NA,88,NA,9,10,9,10,0.6,0.4
2026-07-09T0000,2929A,114.8858,30.4519,黄冈市,红卫路,NA,NA,18,15,10,9,NA,NA,92,60,9,10,7,7,0.4,0.3
2026-07-09T0000,3398A,114.9134,30.4446,黄冈市,市林业局,,23,23,18,16,10,48,48,102,66,16,16,4,5,0.4,0.4
2026-07-09T0000,2672A,102.02,35.5101,黄南藏族自治州,同仁县隆务镇,,36,33,23,9,10,115,115,141,134,1,2,11,11,0.3,0.2
2026-07-09T0000,2295A,118.2905,29.6965,黄山市,延安路89号,,11,11,9,3,2,8,8,48,25,8,4,2,3,0.4,0.3
2026-07-09T0000,2297A,118.1369,30.2755,黄山市,黄山区政府5号楼,,28,28,14,6,3,14,14,46,25,3,2,3,3,0.5,0.5
2026-07-09T0000,4210A,118.335445,29.720283,黄山市,滨江东路7-2号,,16,16,21,9,4,5,5,48,23,5,4,/,/,/,/
2026-07-09T0000,2423A,115.0547,30.2332,黄石市,沈家营,,50,50,35,10,8,13,13,84,40,23,14,8,6,0.8,0.4
2026-07-09T0000,2426A,114.899,30.211,黄石市,铁山,,24,24,21,6,5,32,32,81,52,12,9,4,4,0.5,0.4
2026-07-09T0000,2427A,115.0259,30.2108,黄石市,团城山,,32,32,25,7,7,11,11,79,53,28,11,4,4,1.2,0.7
2026-07-09T0000,3149A,115.0174,30.1591,黄石市,笔架山北路,,43,43,30,11,6,29,29,75,51,8,7,4,4,0.5,0.4
2026-07-09T0000,4185A,115.078022,30.21118,黄石市,磁湖东路29号,,41,41,34,16,10,27,27,83,48,25,19,12,7,1.2,0.8
2026-07-09T0000,1392A,114.4181,23.0528,惠州市,河南岸金山湖子站,,20,20,15,12,10,37,37,66,46,6,8,8,9,0.5,0.5
2026-07-09T0000,1393A,114.4055,23.0824,惠州市,下埔横江三路子站,,28,28,19,13,9,43,43,74,51,4,6,5,6,0.6,0.5
2026-07-09T0000,1395A,114.4645,22.7832,惠州市,惠阳区承修路船湖子站,,22,22,16,14,9,39,39,69,50,6,6,3,3,0.6,0.6
2026-07-09T0000,1396A,114.5316,22.7423,惠州市,大亚湾管委会子站,,29,29,18,12,7,42,42,68,53,8,8,6,6,0.3,0.3
2026-07-09T0000,3314A,114.4334,22.8134,惠州市,惠阳秋长,,24,24,13,12,9,37,37,70,52,8,11,/,/,/,/
2026-07-09T0000,3452A,114.6521,22.7755,惠州市,大亚湾霞涌,,16,16,15,6,8,48,48,109,53,4,5,/,/,/,/
2026-07-09T0000,4300A,114.4089,23.1147,惠州市,文华一路1号,,22,22,16,10,8,39,39,74,51,5,7,/,/,/,/
2026-07-09T0000,2240A,130.9618,45.2926,鸡西市,环保局,,15,6,5,3,8,45,45,48,43,7,9,10,11,0.3,0.3
2026-07-09T0000,2243A,130.9294,45.2959,鸡西市,第一中学,,13,8,8,6,8,40,40,45,38,6,6,5,5,0.3,0.3
2026-07-09T0000,3707A,131.0069,45.2988,鸡西市,欧美日汽修厂,,14,6,7,3,3,42,42,45,40,5,5,7,7,0.5,0.5
2026-07-09T0000,2367A,114.9753,27.0803,吉安市,红声器材厂,,19,19,20,7,5,45,45,56,45,5,6,6,7,0.1,0.2
2026-07-09T0000,2369A,114.9903,27.1313,吉安市,市环境监测站,,18,18,19,7,3,46,46,51,44,3,3,8,10,/,/
2026-07-09T0000,2370A,115.009527,27.096792,吉安市,青原区法院,,21,21,18,3,4,45,45,53,46,7,5,9,8,0.3,0.2
2026-07-09T0000,1772A,126.54,43.8622,吉林市,哈达湾,,25,23,11,17,7,76,76,66,66,14,12,5,6,0.5,0.4
2026-07-09T0000,1773A,126.5843,43.8358,吉林市,东局子,,26,NA,8,18,8,66,66,44,44,8,9,4,3,0.6,0.5
2026-07-09T0000,1774A,126.5051,43.8243,吉林市,电力学院,,25,NA,4,17,6,74,74,66,66,6,5,5,5,0.4,0.3
2026-07-09T0000,1775A,126.6133,43.8971,吉林市,江北,,28,19,14,19,9,75,75,50,50,3,5,7,7,0.6,0.6
2026-07-09T0000,1776A,126.5549,43.8304,吉林市,江南公园,,28,NA,8,19,9,66,66,44,44,5,6,4,4,0.4,0.4
2026-07-09T0000,2868A,126.4737,43.953,吉林市,九站,,28,NA,14,15,8,87,87,75,75,12,7,3,2,0.3,0.3
2026-07-09T0000,1299A,116.9866,36.6118,济南市,科干所,,44,27,15,25,9,138,138,150,141,10,15,6,5,0.7,0.5
2026-07-09T0000,1300A,116.9379,36.6652,济南市,农科所,,40,NA,15,28,8,113,113,145,127,10,12,3,3,0.2,0.1
2026-07-09T0000,1301A,117.1265,36.6736,济南市,开发区,,35,24,14,24,10,96,96,132,114,5,7,6,6,0.5,0.5
2026-07-09T0000,1303A,117.0616,36.6865,济南市,省种子仓库,,39,31,18,22,9,123,123,147,134,5,9,5,6,0.4,0.4
2026-07-09T0000,1304A,116.9495185,36.644937,济南市,机床二厂,,42,NA,15,29,8,120,120,148,131,7,8,5,5,0.3,0.3
2026-07-09T0000,1305A,117.0496,36.6629,济南市,市监测站,,40,29,16,18,7,126,126,143,132,5,10,3,3,0.4,0.4
2026-07-09T0000,1306A,116.7674,36.5458,济南市,长清党校,,43,NA,15,30,10,125,125,137,127,7,7,3,4,0.3,0.3
2026-07-09T0000,1961A,117.5323,36.6865,济南市,东山小学,,49,NA,19,34,10,112,112,144,126,9,10,3,3,0.2,0.2
2026-07-09T0000,3059A,117.7181,36.205,济南市,泰兴公司,,39,39,26,20,13,38,38,137,88,31,16,12,14,0.8,0.4
2026-07-09T0000,3064A,117.6861,36.2172,济南市,莱芜战役纪念馆,,26,24,23,18,13,79,79,143,107,14,12,9,9,0.1,0.1
2026-07-09T0000,3494A,117.1673,36.9782,济南市,济阳区政府,,49,49,23,24,8,71,71,158,115,34,15,2,3,0.2,0.2
2026-07-09T0000,3495A,117.1168,36.6299,济南市,锦屏中学,,42,32,17,29,11,87,87,114,99,4,7,2,2,0.2,0.2
2026-07-09T0000,4108A,117.7107,36.2385,济南市,山财大街5号,,27,27,21,17,13,72,72,156,116,25,15,10,10,0.6,0.6
2026-07-09T0000,4109A,116.9744,36.6889,济南市,无影山路12号,,40,NA,12,28,10,113,113,140,122,8,11,4,4,0.4,0.4
2026-07-09T0000,1653A,116.6229,35.4288,济宁市,火炬城,,48,48,31,23,13,60,60,96,NA,16,9,4,4,0.7,0.6
2026-07-09T0000,3500A,116.5808,35.3703,济宁市,北湖一中,,35,35,28,17,12,43,43,123,99,12,4,4,5,0.5,0.4
2026-07-09T0000,3501A,116.8251,35.5592,济宁市,服务中心,,27,25,28,18,16,84,84,147,121,9,6,3,2,0.5,0.5
2026-07-09T0000,3678A,116.5907,35.4054,济宁市,市第七中学,,35,35,30,16,13,55,55,125,101,12,6,3,4,0.4,0.4
2026-07-09T0000,4111A,116.6075,35.4566,济宁市,任和路,,35,35,25,17,13,70,70,136,115,10,6,2,3,0.6,0.6
2026-07-09T0000,4112A,116.5648,35.3921,济宁市,文体南路1号,,35,33,22,24,9,57,57,111,91,11,5,2,3,0.4,0.4
2026-07-09T0000,4122A,112.6071,35.1015,济源市,市委党校,颗粒物(PM10),59,62,76,26,35,113,113,162,150,12,14,10,12,0.8,0.7
2026-07-09T0000,4123A,112.596,35.0702,济源市,沁园中路1号,,50,50,60,26,34,121,121,189,171,13,17,2,9,0.7,0.9
2026-07-09T0000,2255A,130.2749,46.8028,佳木斯市,佳纺,,16,NA,13,11,10,41,41,40,38,3,9,3,3,0.2,0.3
2026-07-09T0000,2257A,130.3258,46.7975,佳木斯市,环保局,,13,7,10,3,8,41,41,38,34,4,13,5,5,0.3,0.3
2026-07-09T0000,4285A,130.363,46.806,佳木斯市,顺和街,,15,NA,12,10,9,38,38,38,34,3,11,2,2,0.2,0.3
2026-07-09T0000,4286A,130.3952,46.8268,佳木斯市,长安路196号,,16,16,15,3,6,35,35,41,40,9,9,6,5,0.2,0.2
2026-07-09T0000,1252A,120.7439,30.778,嘉兴市,清河小学,,20,20,20,9,5,23,23,80,46,15,12,6,6,0.3,0.4
2026-07-09T0000,1253A,120.7261,30.7477,嘉兴市,嘉兴学院,,16,11,16,11,13,26,26,87,49,23,19,4,4,0.4,0.4
2026-07-09T0000,2872A,120.7845,30.7524,嘉兴市,南湖区残联,,16,16,21,8,9,27,27,90,55,14,11,6,6,0.6,0.6
2026-07-09T0000,3407A,120.6915,30.7741,嘉兴市,秀洲住建,,16,16,18,6,6,23,23,79,47,19,14,6,6,0.3,0.3
2026-07-09T0000,1945A,98.291,39.7705,嘉峪关市,气象局,,35,34,34,14,14,112,112,119,116,4,9,5,9,0.4,0.6
2026-07-09T0000,2884A,98.2672,39.7978,嘉峪关市,酒钢宾馆,NA,NA,NA,34,11,12,112,112,122,120,2,10,7,14,0.1,0.5
2026-07-09T0000,3248A,98.2644,39.7723,嘉峪关市,雄关区,,38,38,44,14,13,109,109,118,116,5,9,4,10,0.5,0.7
2026-07-09T0000,1383A,113.1063,22.6058,江门市,北街,,18,18,15,10,9,32,32,46,38,6,10,/,/,/,/
2026-07-09T0000,1384A,113.073,22.5835,江门市,西区,,20,16,15,14,10,26,26,54,41,16,14,/,/,/,/
2026-07-09T0000,1385A,113.0218,22.531,江门市,圭峰西,,28,28,17,9,9,32,32,54,43,9,11,/,/,/,/
2026-07-09T0000,1386A,113.0826,22.5947,江门市,东湖,,21,21,16,12,9,20,20,50,37,13,13,7,7,0.5,0.4
2026-07-09T0000,3311A,113.1077,22.5647,江门市,江海富民,,35,35,32,21,11,36,36,54,44,12,14,/,/,0.5,0.5
2026-07-09T0000,3449A,113.0496,22.4669,江门市,新会银湖,,19,19,16,12,9,2,2,48,34,37,16,2,2,0.4,0.4
2026-07-09T0000,3335A,113.3137,35.2643,焦作市,马村街道办,NA,NA,NA,44,NA,31,NA,NA,155,NA,11,10,7,8,0.3,0.5
2026-07-09T0000,3336A,113.2464,35.2374,焦作市,焦作技师学院,NA,NA,NA,46,38,32,112,112,163,147,11,8,6,7,0.8,0.8
2026-07-09T0000,3477A,113.1656,35.2536,焦作市,中站许衡医院,,45,39,44,28,28,142,142,159,154,10,8,8,8,0.5,0.5
2026-07-09T0000,3981A,113.2456,35.18,焦作市,原李万街道办,细颗粒物(PM2.5),64,49,57,42,33,111,111,185,160,11,10,12,11,0.6,0.5
2026-07-09T0000,4264A,113.234,35.219,焦作市,新安路1731号,颗粒物(PM10),57,59,51,38,32,122,122,185,165,5,3,8,9,0.3,0.3
2026-07-09T0000,4295A,113.2722,35.2121,焦作市,人民路3066号,颗粒物(PM10),64,69,47,37,34,106,106,174,148,15,11,4,4,0.7,0.6
2026-07-09T0000,1708A,116.3701,23.5345,揭阳市,新兴,,35,35,26,13,11,29,29,66,42,9,12,6,10,0.4,0.5
2026-07-09T0000,1709A,116.3261,23.5442,揭阳市,西马,,31,31,22,15,11,31,31,67,49,10,10,5,6,0.5,0.5
2026-07-09T0000,1710A,116.361,23.5627,揭阳市,东兴,,18,18,20,12,11,33,33,69,49,10,13,5,6,/,/
2026-07-09T0000,1711A,116.4151,23.5295,揭阳市,渔湖,,28,28,24,14,11,51,51,59,50,6,11,1,3,/,/
2026-07-09T0000,3320A,116.4028,23.5699,揭阳市,曲溪,,25,25,24,16,11,29,29,74,49,7,12,4,10,0.4,0.5
2026-07-09T0000,1944A,102.1691,38.5166,金昌市,天庆家园,,44,44,45,26,21,109,109,105,102,6,14,10,17,0.4,0.8
2026-07-09T0000,4022A,102.1648,38.5369,金昌市,金川区人防中心,,36,34,35,22,15,114,114,111,107,10,11,10,16,0.4,0.3
2026-07-09T0000,4239A,102.193042,38.531887,金昌市,长春路96号,,50,50,46,28,20,113,113,108,105,7,13,7,32,0.3,0.4
2026-07-09T0000,1262A,119.6478,29.0773,金华市,十五中,,29,29,24,14,9,23,23,95,48,22,12,3,3,0.4,0.3
2026-07-09T0000,1263A,119.6859,29.1032,金华市,监测站,,26,26,19,8,6,25,25,91,48,17,11,3,3,0.4,0.4
2026-07-09T0000,3659A,119.656,29.1132,金华市,气象局,,20,20,19,11,7,26,26,88,46,20,14,2,3,0.4,0.3
2026-07-09T0000,1767A,121.1114,41.0879,锦州市,南山,细颗粒物(PM2.5),76,NA,37,48,28,141,141,147,147,15,13,4,7,0.7,0.5
2026-07-09T0000,1768A,121.060361,40.842794,锦州市,开发区,,49,38,46,32,29,156,156,153,153,10,15,5,8,0.5,0.5
2026-07-09T0000,1769A,121.1836,41.1118,锦州市,百股街道,臭氧1小时(O3_1h),70,39,31,34,26,176,176,166,166,7,10,5,5,0.6,0.5
2026-07-09T0000,1770A,121.1176,41.1224,锦州市,天安街道,细颗粒物(PM2.5),76,51,37,48,28,152,152,150,150,11,10,6,5,0.8,0.6
2026-07-09T0000,1771A,121.1303,41.1385,锦州市,北湖公园,细颗粒物(PM2.5),74,49,33,47,25,153,153,149,149,8,7,1,2,0.7,0.4
2026-07-09T0000,2160A,112.8496,35.5051,晋城市,自来水公司,,38,37,39,26,18,113,113,162,154,18,11,3,4,0.7,0.8
2026-07-09T0000,2162A,112.8509,35.4886,晋城市,市环保局,,46,46,47,16,19,127,127,163,159,13,12,5,5,0.5,0.6
2026-07-09T0000,3620A,112.8258,35.4804,晋城市,泽州一中,,47,45,42,23,25,148,148,162,161,9,8,4,4,0.4,0.6
2026-07-09T0000,4078A,112.8246,35.5152,晋城市,前书院路,,45,45,47,15,18,110,110,172,164,8,7,4,4,0.7,0.8
2026-07-09T0000,4079A,112.8864,35.4773,晋城市,祥云街666号,,39,35,44,19,27,124,124,160,157,12,18,3,3,0.6,0.7
2026-07-09T0000,2174A,112.6992,37.6984,晋中市,榆次区政府,,41,39,44,23,27,130,130,191,160,21,19,8,9,0.6,0.8
2026-07-09T0000,2865A,112.7195,37.683,晋中市,榆次三中,NA,NA,34,41,25,26,NA,NA,179,NA,10,13,10,11,0.3,0.4
2026-07-09T0000,4080A,112.7375,37.7215,晋中市,广安街188号,,32,NA,48,22,26,85,85,193,150,18,15,10,12,0.4,0.4
2026-07-09T0000,4200A,112.7478,37.6954,晋中市,迎宾街26号,,36,34,40,25,25,108,108,188,155,13,14,6,8,0.3,0.3
2026-07-09T0000,2439A,112.2012,31.048,荆门市,竹园小学,,22,15,19,15,14,66,66,78,70,7,7,4,4,0.8,0.7
2026-07-09T0000,2440A,112.1968,30.9892,荆门市,掇刀,NA,NA,20,21,18,13,NA,NA,80,NA,21,11,3,10,0.6,0.6
2026-07-09T0000,3012A,112.1849,31.0361,荆门市,西山林语,,23,NA,27,7,14,71,71,87,77,8,7,11,12,0.2,0.2
2026-07-09T0000,3547A,112.1631,31.0134,荆门市,龙泉中学南校,,22,12,26,7,9,69,69,87,78,6,6,6,6,0.9,0.9
2026-07-09T0000,4124A,112.2213,31.0654,荆门市,新台西路6号,,22,21,22,15,16,63,63,83,66,5,5,5,6,0.4,0.4
2026-07-09T0000,1844A,112.2493,30.3198,荆州市,市图书馆,,20,20,12,10,9,62,62,71,69,6,6,4,5,0.5,0.4
2026-07-09T0000,1845A,112.2009,30.3543,荆州市,市委党校,,18,17,14,9,6,56,56,69,64,10,6,6,4,0.4,0.5
2026-07-09T0000,3194A,112.2749,30.3124,荆州市,管委会,,24,24,15,12,9,57,57,73,69,8,6,7,7,0.5,0.4
2026-07-09T0000,4268A,112.1722,30.3366,荆州市,学苑路85号,,16,9,22,3,9,50,50,64,61,13,4,3,3,0.6,0.6
2026-07-09T0000,2343A,117.2114,29.2931,景德镇市,老干部活动中心,,15,15,10,7,5,21,21,50,34,6,4,6,6,0.6,0.5
2026-07-09T0000,2344A,117.1893,29.2789,景德镇市,兽医站,,18,18,23,3,7,24,24,45,37,6,13,5,4,0.4,0.5
2026-07-09T0000,2346A,117.246,29.2958,景德镇市,陶研所,,14,14,11,3,4,10,10,48,25,10,6,5,4,0.4,0.5
2026-07-09T0000,4289A,117.154766,29.256967,景德镇市,青少年活动中心,,26,26,14,10,6,10,10,47,27,14,10,9,14,/,/
2026-07-09T0000,1803A,115.9873,29.6816,九江市,十里,,23,22,16,16,9,38,38,66,56,21,14,4,4,0.3,0.3
2026-07-09T0000,1804A,115.9583,29.7047,九江市,茅山头,,26,26,13,13,7,31,31,60,54,24,9,4,4,0.4,0.4
2026-07-09T0000,1805A,115.9877,29.7295,九江市,西园,,24,20,14,15,10,24,24,66,52,47,24,4,4,0.3,0.3
2026-07-09T0000,1808A,115.9112,29.6038,九江市,综合工业园,,19,16,10,9,6,60,60,72,71,7,7,3,3,0.2,0.2
2026-07-09T0000,3190A,116.0254,29.6995,九江市,外国语学校,,25,19,17,17,10,48,48,60,59,9,8,11,10,0.5,0.6
2026-07-09T0000,4253A,116.010205,29.659402,九江市,莲花大道8号,,19,NA,8,13,7,33,33,58,49,8,5,5,5,0.5,0.5
2026-07-09T0000,4240A,98.495752,39.733935,酒泉市,玉门东路5号,颗粒物(PM10),80,92,40,16,17,107,107,114,112,4,8,7,8,0.2,0.3
2026-07-09T0000,4241A,98.5099,39.7506,酒泉市,北大街108号,,33,27,44,16,16,104,104,113,110,3,7,11,13,0.2,0.2
2026-07-09T0000,2698A,76.0071,39.466,喀什地区,巡警大队,颗粒物(PM10),97,115,102,32,40,76,76,156,142,42,22,4,4,0.5,0.3
2026-07-09T0000,2699A,75.9756,39.4693,喀什地区,吾办,颗粒物(PM10),101,122,94,26,35,85,85,152,136,33,16,4,6,0.6,0.4
2026-07-09T0000,4027A,75.9485,39.4688,喀什地区,老干局,颗粒物(PM10),94,111,99,22,31,101,101,148,138,23,19,4,4,0.3,0.3
2026-07-09T0000,1824A,114.3389,34.778,开封市,肿瘤医院,,28,28,29,17,20,85,85,154,128,16,16,6,7,0.5,0.5
2026-07-09T0000,1826A,114.2884,34.7966,开封市,世纪星幼儿园,,35,35,31,22,19,77,77,142,120,14,14,6,6,0.3,0.3
2026-07-09T0000,3147A,114.3434,34.8101,开封市,龙亭公园,,34,34,32,9,15,72,72,142,117,11,10,4,5,0.4,0.5
2026-07-09T0000,3210A,114.3645,34.7955,开封市,汴京公园,,38,27,34,18,20,121,121,163,151,13,8,5,6,0.5,0.5
2026-07-09T0000,3473A,114.2485,34.8306,开封市,技师学院,,38,38,37,16,17,85,85,163,137,12,13,3,4,0.6,0.6
2026-07-09T0000,3592A,114.4518,34.7503,开封市,祥符区生态环境局,,33,33,26,21,19,93,93,153,133,12,14,10,10,0.5,0.4
2026-07-09T0000,1951A,84.886,45.6029,克拉玛依市,长征新村,,30,23,22,11,9,94,94,110,96,5,13,4,4,0.3,0.3
2026-07-09T0000,1952A,84.8894,45.5827,克拉玛依市,南林小区,,44,44,25,9,3,64,64,96,80,20,13,6,6,0.2,0.1
2026-07-09T0000,1954A,84.896,44.3328,克拉玛依市,独山子区,,36,22,16,3,2,113,113,115,115,2,4,5,6,0.3,0.3
2026-07-09T0000,1955A,85.6888,46.0909,克拉玛依市,乌尔禾区商贸楼,,28,19,24,18,10,88,88,108,106,7,10,8,7,0.2,0.1
2026-07-09T0000,3612A,85.1045,45.6895,克拉玛依市,白碱滩区新站,,31,24,33,3,6,98,98,116,108,4,8,8,8,0.1,0.1
2026-07-09T0000,2697A,76.1457,39.7143,克孜勒苏柯尔克孜自治州,市人民政府,颗粒物(PM10),75,85,86,33,40,106,106,170,156,31,10,7,10,0.1,0
2026-07-09T0000,3665A,76.1654,39.7157,克孜勒苏柯尔克孜自治州,克州文化中心,颗粒物(PM10),73,81,97,25,49,124,124,168,159,18,11,8,8,0.2,0.2
2026-07-09T0000,1450A,102.8203,24.889,昆明市,呈贡新区,,31,31,23,9,8,33,33,109,70,27,11,6,4,0.8,0.7
2026-07-09T0000,1452A,102.7253,25.0904,昆明市,龙泉镇,,19,19,17,8,6,10,10,100,64,33,16,5,5,0.4,0.3
2026-07-09T0000,1453A,102.7267,25.0378,昆明市,东风东路,,31,31,16,14,10,21,21,106,64,42,19,3,2,0.5,0.3
2026-07-09T0000,1454A,102.6744,25.0671,昆明市,金鼎山,,31,31,17,15,8,21,21,112,71,38,16,4,4,0.5,0.3
2026-07-09T0000,1455A,102.6643,25.0401,昆明市,碧鸡广场,,24,24,19,12,10,31,31,104,58,22,16,4,4,0.7,0.6
2026-07-09T0000,3179A,102.7491,25.012,昆明市,官渡区博物馆,,20,20,15,10,7,16,16,106,53,39,21,4,3,0.7,0.4
2026-07-09T0000,3375A,102.8016,24.8336,昆明市,青年创业园,,22,6,13,3,8,68,68,107,70,10,11,4,5,0.2,0.2
2026-07-09T0000,3550A,102.8,24.9787,昆明市,昆明学院,,30,30,21,14,6,33,33,109,66,25,16,6,6,0.6,0.4
2026-07-09T0000,3551A,102.5969,24.6738,昆明市,晋宁区生态环境分局,,20,20,14,6,9,59,59,107,86,10,7,6,6,0.7,0.6
2026-07-09T0000,3552A,102.6673,24.9861,昆明市,云天化总部,,16,16,15,8,6,29,29,105,58,23,16,4,4,0.4,0.4
2026-07-09T0000,1456A,91.132,29.6515,拉萨市,八廓街,,22,14,14,9,9,69,69,103,82,11,9,7,7,0.3,0.3
2026-07-09T0000,1457A,91.1221,29.6748,拉萨市,市环保局,,19,15,12,3,7,60,60,103,79,16,11,6,7,0.2,0.2
2026-07-09T0000,1458A,91.0874,29.6476,拉萨市,区监测站,,21,10,10,9,9,65,65,98,80,14,12,6,6,0.2,0.2
2026-07-09T0000,1459A,91.1774,29.6541,拉萨市,西藏大学,,18,18,11,3,6,50,50,106,79,25,12,5,5,0.2,0.3
2026-07-09T0000,1460A,90.9798,29.6586,拉萨市,区辐射站,,48,48,14,15,13,66,66,89,68,15,13,7,7,0.3,0.3
2026-07-09T0000,1461A,91.0831,29.6292,拉萨市,拉萨火车站,,21,11,9,3,6,66,66,96,80,9,10,4,4,0.3,0.3
2026-07-09T0000,2520A,109.2203,23.7252,来宾市,来宾技工学校,,18,18,17,7,5,31,31,50,44,12,8,9,10,0.7,0.7
2026-07-09T0000,3535A,109.1781,23.7293,来宾市,兴宾区政府,,14,14,16,6,6,24,24,50,NA,10,9,5,7,1.0,0.9
2026-07-09T0000,4002A,109.2312,23.7428,来宾市,中南小学,,14,14,14,8,6,32,32,54,45,10,8,5,6,0.6,0.5
2026-07-09T0000,1479A,103.8309,36.0467,兰州市,铁路设计院,细颗粒物(PM2.5),54,51,49,37,28,110,110,173,131,14,37,7,14,0.5,0.7
2026-07-09T0000,3241A,103.7439,36.0841,兰州市,百合公园,,49,49,53,26,22,108,108,172,132,5,29,2,10,0.3,0.6
2026-07-09T0000,3242A,103.9613,35.9985,兰州市,和平,,49,49,39,32,21,111,111,173,136,8,10,10,12,0.5,0.4
2026-07-09T0000,4236A,103.629272,36.093822,兰州市,庄浪东路808号,颗粒物(PM10),51,51,50,32,23,103,103,186,128,7,18,10,23,0.4,0.6
2026-07-09T0000,4237A,103.7251,36.104344,兰州市,安宁西路88号,,43,43,53,25,23,121,121,192,152,5,23,10,18,0.4,0.5
2026-07-09T0000,4238A,103.846982,36.067567,兰州市,北滨河东路1号,NA,NA,47,50,31,21,108,108,166,132,8,38,13,17,NA,0.5
2026-07-09T0000,1067A,116.6712,39.5109,廊坊市,药材公司,细颗粒物(PM2.5),56,48,30,38,23,125,125,156,146,11,9,1,2,0.4,0.4
2026-07-09T0000,1068A,116.7215,39.5592,廊坊市,开发区,,45,45,29,25,19,105,105,166,145,16,10,3,3,0.4,0.4
2026-07-09T0000,1070A,116.7246,39.5273,廊坊市,北华航天学院,,39,39,27,25,18,108,108,167,150,19,11,3,3,0.4,0.4
2026-07-09T0000,2919A,116.7022,39.5454,廊坊市,河北工业大学,,48,41,28,33,28,126,126,171,162,18,15,1,2,0.3,0.3
2026-07-09T0000,2536A,103.7629,29.5844,乐山市,牛耳桥,,33,33,34,20,18,98,98,149,132,10,14,4,6,0.7,0.7
2026-07-09T0000,2537A,103.7501,29.6002,乐山市,市第三水厂,,38,38,32,21,18,91,91,144,127,13,13,3,4,0.8,0.9
2026-07-09T0000,2538A,103.7571,29.5664,乐山市,市监测站,,43,43,33,29,19,97,97,150,134,11,13,9,4,0.7,0.7
2026-07-09T0000,3361A,103.7313,29.563,乐山市,理工大学,,46,40,34,32,19,80,80,154,134,14,12,10,7,0.7,0.6
2026-07-09T0000,2599A,100.2497,26.8802,丽江市,丽江古城,,15,15,15,8,8,45,45,73,54,11,9,9,10,0.6,0.6
2026-07-09T0000,2600A,100.2203,26.8906,丽江市,市中心,,15,15,13,6,7,44,44,70,50,8,9,8,8,0.4,0.5
2026-07-09T0000,1267A,119.9141,28.4513,丽水市,监测站大楼,,19,19,17,6,6,34,34,60,50,15,10,5,5,0.4,0.4
2026-07-09T0000,1268A,119.93,28.4589,丽水市,莲都小学,,22,22,20,9,8,44,44,61,56,18,12,/,/,/,/
2026-07-09T0000,1269A,119.8794,28.4232,丽水市,余庄前,,15,15,13,7,6,14,14,55,28,18,11,7,7,0.5,0.5
2026-07-09T0000,1173A,119.1759,34.5885,连云港市,市环境监测站,,35,NA,13,24,16,63,63,105,82,9,8,5,6,0.4,0.4
2026-07-09T0000,3000A,119.3577,34.6971,连云港市,德源药业,,44,44,28,22,15,46,46,91,71,32,16,5,5,0.5,0.5
2026-07-09T0000,3007A,119.178,34.8442,连云港市,新城一中,,26,20,22,9,12,16,16,112,66,52,18,2,2,0.7,0.6
2026-07-09T0000,3008A,119.3607,34.7519,连云港市,胡沟管理处,,30,12,13,3,7,94,94,118,93,7,12,7,7,0.5,0.5
2026-07-09T0000,3009A,119.1478,34.5913,连云港市,矿山设计院,,22,22,18,7,12,50,50,93,75,16,8,2,3,0.3,0.4
2026-07-09T0000,3434A,119.2414,34.6539,连云港市,工贸学校,,27,17,16,11,12,85,85,104,92,1,2,2,2,0.5,0.5
2026-07-09T0000,3664A,119.4171,34.734,连云港市,连云街道,,28,18,18,10,12,87,87,101,92,8,12,6,7,0.4,0.4
2026-07-09T0000,2573A,102.2629,27.8981,凉山彝族自治州,西昌市政府,,18,18,19,9,15,53,53,106,82,3,7,7,8,0.4,0.4
2026-07-09T0000,2574A,102.2686,27.885,凉山彝族自治州,凉山州政府,,18,15,19,12,16,45,45,103,77,7,8,4,7,0.5,0.5
2026-07-09T0000,4229A,102.2342,27.8859,凉山彝族自治州,凯乐南路30号,,18,18,20,9,16,43,43,94,72,6,11,6,7,0.2,0.3
2026-07-09T0000,2212A,123.1978,41.2036,辽阳市,宏伟区,,36,16,20,11,10,113,113,124,113,4,8,7,7,0.4,0.6
2026-07-09T0000,2213A,123.1684,41.2497,辽阳市,新华园,,37,15,26,10,14,117,117,129,113,4,13,3,3,0.3,0.6
2026-07-09T0000,2214A,123.2355,41.2663,辽阳市,滨河路,,32,14,21,10,10,101,101,125,103,3,9,7,7,0.3,0.5
2026-07-09T0000,4083A,123.153,41.2874,辽阳市,铁西路150号,,34,14,27,10,12,107,107,123,107,3,8,6,12,0.3,0.7
2026-07-09T0000,2227A,125.1359,42.8845,辽源市,环保局,,35,32,15,24,5,106,106,116,111,5,4,3,3,0.7,0.5
2026-07-09T0000,4085A,125.0998,42.9134,辽源市,安宁大街333号,,38,26,13,26,6,100,100,117,111,5,4,5,4,0.5,0.4
2026-07-09T0000,1625A,115.9789,36.4372,聊城市,区政府,,48,NA,16,33,8,101,101,135,110,4,4,9,10,0.6,0.5
2026-07-09T0000,3200A,115.9772,36.4986,聊城市,监控中心,,39,24,10,24,6,124,124,154,133,4,4,7,8,0.3,0.3
2026-07-09T0000,3513A,116.0443,36.436,聊城市,九州社区,,43,43,24,28,11,106,106,155,122,4,3,4,7,0.4,0.4
2026-07-09T0000,4018A,116.0564,36.4609,聊城市,星美广场,细颗粒物(PM2.5),54,43,18,37,9,98,98,145,110,5,4,10,6,0.4,0.4
2026-07-09T0000,4113A,116.0091,36.4495,聊城市,利民路,,43,36,13,30,8,114,114,158,129,7,6,11,11,0.3,0.3
2026-07-09T0000,2632A,94.3683,29.6373,林芝市,林芝监测站,,19,NA,6,13,4,37,37,49,42,3,4,4,4,0.2,0.3
2026-07-09T0000,2633A,94.3616,29.6634,林芝市,林芝人民医院,,11,7,8,3,4,34,34,50,42,5,5,3,4,0.3,0.4
2026-07-09T0000,2603A,100.0779,23.8981,临沧市,市环保局,,17,17,11,10,11,16,16,29,23,11,10,5,4,0.5,0.5
2026-07-09T0000,2604A,100.0894,23.882,临沧市,市气象局,,18,18,14,3,4,41,41,39,38,5,6,6,6,0.4,0.4
2026-07-09T0000,1733A,111.5552,36.0791,临汾市,临钢医院,,44,44,47,17,21,98,98,180,138,26,18,5,7,0.5,0.7
2026-07-09T0000,1734A,111.4984,36.0734,临汾市,技工学校,,38,38,46,26,26,110,110,196,140,12,14,6,7,0.5,0.7
2026-07-09T0000,1736A,111.5017,36.0857,临汾市,市委,颗粒物(PM10),55,56,62,22,19,108,108,184,136,11,13,7,8,0.8,1
2026-07-09T0000,3018A,111.5048,36.1015,临汾市,唐尧大酒店,颗粒物(PM10),64,69,66,19,19,113,113,189,141,10,14,6,7,0.7,0.9
2026-07-09T0000,4244A,111.4879,36.053,临汾市,启星学校,,45,45,46,30,25,107,107,182,135,13,15,6,7,0.8,0.9
2026-07-09T0000,4271A,103.2464,35.6123,临夏回族自治州,滨河东路1号,颗粒物(PM10),84,97,57,32,20,55,55,127,107,42,13,10,9,0.5,0.5
2026-07-09T0000,4310A,103.207136,35.599807,临夏回族自治州,新华街21号,颗粒物(PM10),54,55,41,30,21,68,68,139,115,23,10,11,11,0.5,0.4
2026-07-09T0000,1618A,118.3429,35.0532,临沂市,沂河小区,,19,19,28,9,14,56,56,101,82,15,12,17,13,0.2,0.2
2026-07-09T0000,1619A,118.2962,35.0568,临沂市,鲁南制药厂,,18,17,20,10,14,55,55,104,84,12,12,13,14,0.5,0.6
2026-07-09T0000,1620A,118.2793,34.9976,临沂市,新光毛纺厂,,36,36,22,18,20,41,41,93,76,18,11,13,10,0.3,0.3
2026-07-09T0000,1621A,118.3955,35.0889,临沂市,河东保险公司,,25,19,23,17,14,36,36,102,81,24,6,13,11,0.1,0.1
2026-07-09T0000,3370A,118.3563,35.0215,临沂市,十里堡居委,,22,17,19,15,14,43,43,95,73,31,17,14,14,0.5,0.6
2026-07-09T0000,3496A,118.359,35.1067,临沂市,南坊新区,,29,29,27,16,20,49,49,115,89,18,11,17,9,0.3,0.2
2026-07-09T0000,3860A,118.3915,35.0297,临沂市,皇山花园小区,,23,22,23,16,17,42,42,100,78,17,10,12,10,0.7,0.5
2026-07-09T0000,1870A,109.4854,24.3898,柳州市,柳东小学,,12,12,13,3,4,25,25,49,36,9,8,5,6,0.6,0.6
2026-07-09T0000,1871A,109.4109,24.3304,柳州市,环保监测站,,12,NA,12,8,5,20,20,53,40,12,10,7,7,0.7,0.7
2026-07-09T0000,1872A,109.3886,24.3408,柳州市,河西水厂,,10,10,15,7,7,20,20,57,42,13,10,7,7,0.7,0.7
2026-07-09T0000,1873A,109.4263,24.2951,柳州市,市四中,,45,NA,17,31,9,11,11,53,38,22,9,5,6,0.8,0.7
2026-07-09T0000,1874A,109.396,24.3658,柳州市,市九中,,18,18,17,10,6,26,26,55,46,11,9,5,6,0.8,0.6
2026-07-09T0000,1875A,109.4912,24.3164,柳州市,古亭山,,11,11,15,3,4,5,5,46,21,13,11,2,3,0.7,0.6
2026-07-09T0000,3402A,109.5422,24.3994,柳州市,市二中,,17,17,14,6,4,17,17,56,38,14,11,6,6,0.6,0.6
2026-07-09T0000,2307A,116.5078,31.7369,六安市,监测大楼,,16,NA,7,11,7,44,44,70,58,3,5,4,7,0.4,0.4
2026-07-09T0000,2308A,116.4738,31.7642,六安市,皖西学院,,17,NA,11,8,8,53,53,79,66,2,4,6,6,0.3,0.4
2026-07-09T0000,2309A,116.4997,31.7904,六安市,朝阳厂,,15,NA,8,8,8,48,48,67,59,5,7,7,7,0.2,0.2
2026-07-09T0000,2310A,116.5566,31.7885,六安市,开发区,,18,16,7,12,10,34,34,72,60,31,9,5,6,0.3,0.2
2026-07-09T0000,2577A,104.8293,26.592,六盘水市,黄土坡,,14,13,20,7,11,42,42,96,67,10,11,3,4,0.4,0.4
2026-07-09T0000,2579A,104.8481,26.5898,六盘水市,民中,,25,19,18,17,12,32,32,96,74,18,15,2,1,0.6,0.5
2026-07-09T0000,2580A,104.9541,26.5506,六盘水市,双水,,20,9,16,3,7,61,61,95,78,7,7,4,4,0.4,0.4
2026-07-09T0000,4151A,104.8899,26.5685,六盘水市,钟山大道中段564号,,25,25,19,3,9,36,36,100,76,16,7,6,6,0.6,0.6
2026-07-09T0000,2336A,117.022,25.1031,龙岩市,龙岩市监测站,,18,18,16,9,8,6,6,53,30,22,8,5,6,0.2,0.2
2026-07-09T0000,2337A,117.0257,25.0662,龙岩市,闽西职业技术学院,,21,21,18,8,8,5,5,48,25,13,6,6,7,0.3,0.3
2026-07-09T0000,2338A,117.0195,25.0306,龙岩市,龙岩学院,,10,10,12,6,6,10,10,48,26,6,4,2,2,/,/
2026-07-09T0000,2885A,104.9344,33.3827,陇南市,滨江中学,,44,32,30,30,21,139,139,130,130,3,7,8,9,0.5,0.5
2026-07-09T0000,3247A,104.9551,33.3709,陇南市,市总工会,,44,42,31,25,18,139,139,131,131,4,5,9,10,0.4,0.4
2026-07-09T0000,2488A,111.9984,27.7346,娄底市,市监测站,,12,6,14,3,5,36,36,51,45,6,4,3,4,0.3,0.3
2026-07-09T0000,2491A,111.9888,27.7035,娄底市,市政府,,13,8,10,3,4,39,39,54,48,4,3,1,2,0.2,0.2
2026-07-09T0000,4127A,111.9812,27.7591,娄底市,涟钢职大,,14,8,8,3,4,42,42,62,54,3,3,2,2,0.6,0.6
2026-07-09T0000,4128A,112.0303,27.7457,娄底市,娄底体校,,15,15,17,3,5,39,39,58,50,3,3,4,4,0.2,0.2
2026-07-09T0000,1894A,105.4427,28.9063,泸州市,小市上码头,,23,21,20,10,9,72,72,142,115,15,12,7,7,0.5,0.5
2026-07-09T0000,1895A,105.4241,28.8573,泸州市,兰田宪桥,,34,34,28,19,16,48,48,138,104,19,13,1,5,0.4,0.5
2026-07-09T0000,1896A,105.4378,28.8833,泸州市,市环监站,,20,20,19,7,8,55,55,127,104,24,14,5,6,0.7,0.6
2026-07-09T0000,4272A,105.3689,28.7783,泸州市,纳溪中医医院,,49,NA,34,34,24,46,46,148,102,22,16,2,3,0.7,0.6
2026-07-09T0000,2183A,111.1447,37.5212,吕梁市,环保局,,45,45,40,25,13,77,77,171,111,35,20,8,9,0.3,0.2
2026-07-09T0000,2185A,111.1285,37.5338,吕梁市,自来水公司,颗粒物(PM10),73,82,50,26,15,52,52,167,114,32,18,6,7,0.5,0.5
2026-07-09T0000,2867A,111.1225,37.5093,吕梁市,马茂庄小学,颗粒物(PM10),64,69,51,27,14,68,68,175,108,51,26,6,8,0.6,0.4
2026-07-09T0000,1812A,112.3934,34.6517,洛阳市,市委党校,,36,26,32,12,19,115,115,158,138,6,10,7,8,0.4,0.5
2026-07-09T0000,1815A,112.494,34.6883,洛阳市,河南林校,,40,27,39,6,21,128,128,187,155,10,16,12,14,0.2,0.4
2026-07-09T0000,1816A,112.3843,34.623,洛阳市,开发区管委会,,38,25,28,12,19,120,120,175,149,6,9,10,11,0.5,0.6
2026-07-09T0000,1817A,112.4263,34.6249,洛阳市,市委新办公区,,37,23,28,11,19,116,116,161,141,7,11,11,13,0.3,0.4
2026-07-09T0000,3340A,112.6005,34.6323,洛阳市,伊滨,,40,22,37,11,20,128,128,184,157,6,12,5,6,0.4,0.4
2026-07-09T0000,3341A,112.495,34.6338,洛阳市,中移产业园,,35,28,33,15,23,112,112,161,139,3,11,7,9,0.7,0.7
2026-07-09T0000,3593A,112.5736,34.8993,洛阳市,吉利监测站,颗粒物(PM10),52,52,48,28,28,92,92,205,168,24,12,9,10,0.3,0.3
2026-07-09T0000,3635A,112.3678,34.6623,洛阳市,河科大西苑校区,,37,27,36,13,22,116,116,162,140,4,8,15,15,0.4,0.5
2026-07-09T0000,3636A,112.4387,34.678,洛阳市,英才小学,,37,28,38,19,22,116,116,174,157,4,13,9,11,0.5,0.6
2026-07-09T0000,4214A,112.460027,34.694929,洛阳市,春都路1号院,,36,20,31,17,23,113,113,176,144,8,13,4,6,0.3,0.4
2026-07-09T0000,2399A,114.051,33.5721,漯河市,三五一五工厂,,34,34,25,19,16,35,35,134,89,31,25,6,5,0.3,0.3
2026-07-09T0000,2400A,114.0055,33.5698,漯河市,漯河大学,,29,29,34,19,16,42,42,140,91,24,25,6,6,0.5,0.5
2026-07-09T0000,2401A,114.0134,33.5826,漯河市,市水利局,,22,NA,19,15,17,46,46,142,94,23,24,6,6,0.5,0.5
2026-07-09T0000,2402A,114.0261,33.5697,漯河市,市广电局,,25,17,19,17,14,50,50,141,99,15,19,4,4,0.5,0.5
2026-07-09T0000,3478A,113.9691,33.568,漯河市,市图书馆,,22,20,23,15,13,38,38,138,88,27,25,8,7,0.6,0.6
2026-07-09T0000,4250A,114.089259,33.588274,漯河市,韶山路11号,,29,NA,24,20,15,45,45,144,98,21,19,6,7,0.5,0.4
2026-07-09T0000,1798A,118.5084,31.6838,马鞍山市,湖东路四小,,15,15,19,9,10,19,19,83,51,20,10,9,9,0.6,0.7
2026-07-09T0000,1799A,118.5019,31.6449,马鞍山市,开发区,,30,21,20,21,11,18,18,97,55,23,10,8,8,0.6,0.8
2026-07-09T0000,3633A,118.4914,31.681,马鞍山市,雨山,,17,17,19,7,12,19,19,87,52,25,14,9,8,0.6,0.7
2026-07-09T0000,4191A,118.527362,31.722269,马鞍山市,慈湖高新区,,16,16,19,6,8,28,28,85,56,18,13,8,9,0.4,0.4
2026-07-09T0000,1686A,111.0285,21.469,茂名市,电白南海,,22,22,23,7,9,52,52,68,54,3,3,5,5,0.5,0.5
2026-07-09T0000,1687A,110.9294,21.6533,茂名市,茂石化七小,,24,24,21,9,9,37,37,58,47,9,8,6,6,0.3,0.4
2026-07-09T0000,1688A,110.9108,21.6688,茂名市,健康路,,14,14,11,8,8,41,41,59,50,6,5,5,5,0.6,0.6
2026-07-09T0000,1689A,110.8592,21.6826,茂名市,高岭,,24,24,21,8,8,42,42,56,48,7,7,5,4,/,/
2026-07-09T0000,3450A,111.0101,21.5165,茂名市,电白水东,,16,14,13,8,10,51,51,66,55,3,3,2,2,/,/
2026-07-09T0000,2540A,103.8414,30.0871,眉山市,气象局,,50,50,39,21,26,132,132,195,170,14,31,7,18,0.8,0.8
2026-07-09T0000,3148A,103.829,30.0563,眉山市,区人社局,,49,49,45,8,12,124,124,180,155,12,30,6,14,0.6,0.6
2026-07-09T0000,4148A,103.8836,30.0695,眉山市,眉职院,,35,24,27,7,10,110,110,188,152,8,11,7,10,0.9,0.9
2026-07-09T0000,1690A,116.1248,24.3307,梅州市,梅江月梅,,23,NA,14,16,9,13,13,49,39,25,9,/,/,/,/
2026-07-09T0000,1691A,116.0798,24.2719,梅州市,梅县新城,,25,23,15,17,11,8,8,49,28,20,11,9,9,0.5,0.4
2026-07-09T0000,3315A,116.1234,24.2994,梅州市,梅龙,,22,22,13,13,9,20,20,43,35,12,7,7,7,0.6,0.6
2026-07-09T0000,1878A,104.7775,31.4741,绵阳市,富乐山,,44,41,38,29,26,139,139,166,145,9,12,12,12,0.8,0.8
2026-07-09T0000,1880A,104.6698,31.4668,绵阳市,高新区自来水公司,,40,40,48,26,30,115,115,160,132,7,18,11,12,0.7,0.7
2026-07-09T0000,3491A,104.6899,31.5324,绵阳市,西科大附属小学,,41,41,47,25,31,129,129,159,141,12,18,6,6,0.5,0.5
2026-07-09T0000,3492A,104.5647,31.5343,绵阳市,安州区旅游局,,43,43,46,22,29,95,95,167,139,12,8,4,5,0.6,0.6
2026-07-09T0000,4146A,104.7092,31.4972,绵阳市,科技城新区公安局,,45,39,44,26,28,141,141,170,148,8,17,12,12,0.8,0.9
2026-07-09T0000,4226A,104.765114,31.453094,绵阳市,绵阳市气象局,,41,41,41,26,25,125,125,147,132,11,17,7,6,0.6,0.6
2026-07-09T0000,1784A,129.61,44.561,牡丹江市,环保大楼,,14,14,13,3,5,38,38,46,44,4,7,6,6,0.3,0.3
2026-07-09T0000,1787A,129.6364,44.6075,牡丹江市,机车工厂,,25,25,26,7,16,27,27,37,34,13,13,11,12,0.3,0.4
2026-07-09T0000,1788A,129.6386,44.5462,牡丹江市,第一中学,,22,22,18,3,3,35,35,46,45,5,6,9,9,0.4,0.4
2026-07-09T0000,4287A,129.5992,44.5964,牡丹江市,东晓云街98号,,14,14,18,9,9,22,22,39,38,14,8,6,6,0.2,0.3
2026-07-09T0000,2531A,105.0703,29.61,内江市,市监测站,,46,NA,28,32,26,88,88,156,135,29,14,12,12,0.5,0.5
2026-07-09T0000,2533A,105.0657,29.5807,内江市,内江二中,,49,40,30,34,26,94,94,156,138,17,13,11,11,0.5,0.4
2026-07-09T0000,2534A,105.0407,29.5828,内江市,内江日报社,,46,33,25,32,26,108,108,162,146,13,10,8,7,0.6,0.6
2026-07-09T0000,4147A,105.0433,29.6105,内江市,玉峰路西段888号,,43,37,28,30,24,95,95,142,126,16,13,10,11,0.5,0.4
2026-07-09T0000,2628A,92.0653,31.4846,那曲市,那曲监测站,,29,16,20,14,11,90,90,106,98,7,10,3,3,0.3,0.3
2026-07-09T0000,4243A,92.0515,31.4787,那曲市,那曲市委宣传部,,30,10,9,6,6,93,93,105,99,8,9,5,4,0.3,0.2
2026-07-09T0000,1291A,115.8887,28.7006,南昌市,省林业公司,,25,17,12,17,12,14,14,61,47,28,10,4,4,0.7,0.6
2026-07-09T0000,1292A,115.813,28.7443,南昌市,林科所,,20,12,12,11,11,3,3,43,22,39,16,6,9,0.8,0.7
2026-07-09T0000,1294A,115.8518,28.687,南昌市,建工学校,,29,29,14,20,18,23,23,56,45,25,11,6,8,0.6,0.5
2026-07-09T0000,1295A,115.8926,28.6425,南昌市,象湖,,35,NA,8,24,13,21,21,59,45,25,14,9,11,0.4,0.3
2026-07-09T0000,3046A,115.9084,28.6062,南昌市,机电学校,,28,28,23,19,11,20,20,59,42,19,13,6,7,0.6,0.6
2026-07-09T0000,3690A,115.9718,28.7032,南昌市,外国语学校,,21,21,21,14,12,26,26,65,52,13,9,13,13,0.7,0.7
2026-07-09T0000,4106A,115.7923,28.6873,南昌市,工业二路,,16,16,21,7,11,18,18,52,36,11,9,6,9,0.5,0.5
2026-07-09T0000,4192A,115.931587,28.686774,南昌市,南京东路235号,,22,21,14,15,11,36,36,69,56,15,13,4,5,0.6,0.5
2026-07-09T0000,1906A,106.0791,30.8022,南充市,南充市委,,38,38,32,25,20,76,76,138,126,18,9,6,6,0.3,0.3
2026-07-09T0000,1907A,106.1038,30.8215,南充市,南充炼油厂,,33,28,32,23,23,84,84,142,129,19,10,6,6,0.6,0.4
2026-07-09T0000,4227A,106.108336,30.788436,南充市,梨树横街98号,,35,34,33,20,21,112,112,141,131,11,10,7,8,0.2,0.2
2026-07-09T0000,4304A,106.1172,30.843,南充市,清泉寺北路188号,,47,47,39,30,22,77,77,139,128,17,9,7,7,0.5,0.5
2026-07-09T0000,4305A,106.067,30.7616,南充市,同庆路1号,,42,37,29,29,20,73,73,143,124,17,10,7,7,0.4,0.4
2026-07-09T0000,1151A,118.8033,32.1085,南京市,迈皋桥,,14,9,14,3,5,43,43,105,73,9,9,7,8,0.4,0.4
2026-07-09T0000,1152A,118.7487,32.057,南京市,草场门,,12,9,13,3,6,36,36,92,63,10,12,6,7,0.6,0.6
2026-07-09T0000,1154A,118.770105,32.004342,南京市,中华门,,12,9,12,3,5,37,37,91,66,6,9,6,7,0.3,0.3
2026-07-09T0000,1155A,118.8059,32.0329,南京市,瑞金路,,11,6,12,3,4,35,35,90,59,10,13,4,4,0.3,0.6
2026-07-09T0000,1156A,118.7946,32.0774,南京市,玄武湖,,11,9,19,3,4,34,34,91,62,7,10,5,8,0.4,0.5
2026-07-09T0000,1157A,118.6415,32.0964,南京市,浦口,,24,24,14,3,3,13,13,78,49,32,12,4,3,0.5,0.4
2026-07-09T0000,1158A,118.730129,32.000956,南京市,奥体中心,,12,12,18,3,5,36,36,98,64,9,13,4,9,0.5,1
2026-07-09T0000,1159A,118.9072,32.1047,南京市,仙林大学城,,12,9,22,3,5,37,37,111,71,12,13,7,9,0.6,0.8
2026-07-09T0000,3422A,118.8443,31.919,南京市,江宁彩虹桥,,13,13,18,3,5,31,31,104,61,8,11,3,4,0.4,0.6
2026-07-09T0000,3427A,118.8497,32.3599,南京市,六合雄州,,23,18,18,3,4,8,8,81,52,46,18,3,4,0.6,0.5
2026-07-09T0000,4086A,118.7641,32.0841,南京市,新模范马路66号,,14,9,20,3,3,42,42,100,70,6,9,4,4,0.4,0.4
2026-07-09T0000,4249A,118.8707617,31.34017673,南京市,汶溪路181号,,15,15,10,3,2,39,39,61,47,10,10,1,10,0.4,0.5
2026-07-09T0000,4312A,119.019,31.6512,南京市,中山西路1号,,10,9,9,3,2,29,29,75,48,9,6,4,4,0.4,0.5
2026-07-09T0000,1401A,108.3098,22.788,南宁市,二十一中,,19,NA,12,13,8,54,54,54,54,8,7,1,2,0.7,0.6
2026-07-09T0000,1402A,108.3135,22.8529,南宁市,北湖,,22,NA,15,15,10,53,53,47,47,8,9,3,3,0.8,0.8
2026-07-09T0000,1403A,108.3205,22.8222,南宁市,市监测站,,19,NA,13,11,9,59,59,54,54,6,8,2,2,0.5,0.7
2026-07-09T0000,1404A,108.3828,22.8038,南宁市,大自然花园,,17,11,11,11,6,53,53,52,52,8,8,3,3,0.7,0.6
2026-07-09T0000,1406A,108.2397,22.8462,南宁市,区农职院,,22,NA,18,15,12,50,50,48,47,4,7,2,2,0.5,0.5
2026-07-09T0000,1407A,108.3285,22.7356,南宁市,英华嘉园,,23,NA,14,16,7,44,44,43,43,15,8,4,4,0.7,0.5
2026-07-09T0000,3401A,108.4829,22.762,南宁市,红星社区,,19,NA,16,13,8,58,58,59,59,8,5,4,4,0.5,0.5
2026-07-09T0000,4132A,108.2927,23.1477,南宁市,起凤路9号,,16,16,14,10,9,45,45,49,46,8,7,1,3,0.5,0.5
2026-07-09T0000,4221A,108.2177,22.7774,南宁市,乐贤路16号,,20,15,14,14,8,41,41,45,42,15,14,4,4,0.4,0.6
2026-07-09T0000,2332A,118.1682,26.6371,南平市,南平市监测站,,12,12,14,8,8,29,29,63,42,13,10,4,4,0.4,0.4
2026-07-09T0000,2334A,118.1757,26.6276,南平市,南平七中,,12,12,17,6,7,22,22,66,42,17,10,4,4,0.3,0.2
2026-07-09T0000,1168A,120.9056,31.9669,南通市,狼山街道,,23,23,10,13,8,36,36,113,55,32,29,5,5,0.3,0.4
2026-07-09T0000,1170A,120.8635,32.0231,南通市,城中,,27,27,25,15,9,35,35,122,74,35,20,3,5,0.4,0.7
2026-07-09T0000,1171A,120.9376,31.9301,南通市,星湖花园,,16,NA,18,11,9,40,40,117,88,29,23,5,6,0.3,0.5
2026-07-09T0000,1172A,120.8053,32.046,南通市,紫琅学院,,28,20,20,13,9,12,12,118,51,55,30,7,9,0.6,0.9
2026-07-09T0000,3291A,121.0631,32.0644,南通市,通州监测站,,31,31,23,17,9,42,42,132,93,32,17,8,8,0.5,0.7
2026-07-09T0000,3432A,120.9348,31.9874,南通市,环境教育馆,,24,24,21,13,13,34,34,114,74,40,26,6,6,0.5,0.7
2026-07-09T0000,4091A,120.8692,31.9885,南通市,洪江路,,25,20,16,14,11,17,17,101,50,50,32,4,6,0.8,1.1
2026-07-09T0000,2404A,112.5338,33.0086,南阳市,瓦房庄,,22,22,24,10,10,57,57,111,88,7,9,4,4,0.4,0.4
2026-07-09T0000,2405A,112.5002,32.9734,南阳市,汉画馆,,19,19,23,3,10,58,58,116,91,10,11,6,5,0.5,0.5
2026-07-09T0000,2406A,112.5778,33.0144,南阳市,气象站,,21,21,23,3,10,61,61,118,92,4,7,6,6,0.2,0.3
2026-07-09T0000,2407A,112.548,32.9687,南阳市,理工学院,,25,25,23,15,13,52,52,110,81,12,12,6,6,0.4,0.4
2026-07-09T0000,4008A,112.5233,32.9921,南阳市,卧龙区政府,,23,21,22,16,10,56,56,114,88,6,8,4,5,0.5,0.4
2026-07-09T0000,1234A,121.8352,29.9111,宁波市,区环保大楼,,29,29,39,9,14,47,47,100,69,21,24,4,6,0.5,0.5
2026-07-09T0000,1235A,121.5595,29.8208,宁波市,万里学院,,28,28,27,10,12,75,75,112,100,10,11,5,11,0.4,0.7
2026-07-09T0000,1236A,121.713,29.9564,宁波市,龙赛医院,,42,42,38,15,15,60,60,112,59,14,19,6,7,0.2,0.2
2026-07-09T0000,1240A,121.5855,29.8635,宁波市,太古小学,,31,31,29,13,11,72,72,105,88,5,5,4,6,0.5,0.6
2026-07-09T0000,1241A,121.5239,29.8673,宁波市,市环境监测中心,NA,NA,30,22,19,14,NA,NA,104,NA,13,9,8,9,0.3,0.3
2026-07-09T0000,2871A,121.6156,29.9015,宁波市,万里国际学校,,31,31,27,15,14,78,78,118,86,8,11,6,7,0.4,0.4
2026-07-09T0000,3710A,121.5593,29.8976,宁波市,白沙活动中心,,24,23,20,16,14,76,76,108,88,8,10,7,7,0.6,0.6
2026-07-09T0000,4095A,121.8962,29.7529,宁波市,中科路88号,,19,19,23,3,10,55,55,102,88,3,3,6,6,0.4,0.4
2026-07-09T0000,2341A,119.5387,26.6611,宁德市,宁德市监测站,,27,NA,29,12,16,86,86,131,108,18,17,5,7,0.7,0.9
2026-07-09T0000,3209A,119.5231,26.6562,宁德市,宁德一中,,28,28,27,18,16,66,66,129,99,14,10,10,11,0.4,0.4
2026-07-09T0000,2618A,98.859,25.8541,怒江傈僳族自治州,州监测站,,15,10,12,10,10,17,17,45,36,7,5,5,5,0.4,0.4
2026-07-09T0000,2619A,98.8607,25.8168,怒江傈僳族自治州,泸水一中,,16,NA,14,11,9,15,15,42,31,11,9,3,4,0.5,0.5
2026-07-09T0000,1888A,101.6891,26.571,攀枝花市,弄弄坪,颗粒物(PM10),71,79,44,28,17,58,58,137,99,20,18,5,10,0.6,1
2026-07-09T0000,1889A,101.577,26.5914,攀枝花市,河门口,,44,44,28,23,14,52,52,118,93,29,14,58,18,2.8,1.7
2026-07-09T0000,1891A,101.7365,26.4986,攀枝花市,仁和,细颗粒物(PM2.5),54,44,30,37,22,39,39,109,72,9,8,7,6,0.7,0.7
2026-07-09T0000,2835A,101.7222,26.567,攀枝花市,四十中小,,27,27,22,15,16,69,69,139,100,13,10,16,20,0.9,1.1
2026-07-09T0000,1604A,122.0303,41.1489,盘锦市,开发区,,43,NA,22,22,14,137,137,147,147,7,10,8,9,0.5,0.5
2026-07-09T0000,1605A,122.0486,41.0883,盘锦市,兴隆台,,41,NA,21,26,21,129,129,115,112,11,12,4,5,0.6,0.6
2026-07-09T0000,1606A,121.8297,41.1026,盘锦市,新生街道,,49,20,20,12,20,156,156,239,239,8,12,5,6,0.6,0.6
2026-07-09T0000,1832A,113.3257,33.7423,平顶山市,新华旅馆,,31,31,24,20,15,52,52,144,106,27,16,4,5,0.7,0.7
2026-07-09T0000,1833A,113.2917,33.737,平顶山市,规划设计院,,25,25,23,10,14,56,56,124,94,15,14,4,4,0.6,0.6
2026-07-09T0000,1834A,113.182,33.7738,平顶山市,平顶山工学院,,22,17,18,12,17,70,70,143,111,13,13,5,5,0.5,0.4
2026-07-09T0000,3594A,112.8736,33.9068,平顶山市,石龙区,,28,16,25,16,16,88,88,150,132,11,11,8,8,0.5,0.5
2026-07-09T0000,4116A,113.284,33.7139,平顶山市,姚电大道23号,,25,25,30,15,16,56,56,132,95,18,16,7,8,0.5,0.8
2026-07-09T0000,2656A,106.6633,35.5338,平凉市,聚贤嘉苑,,41,41,40,26,22,62,62,140,93,26,22,10,10,0.7,0.7
2026-07-09T0000,2657A,106.7021,35.5307,平凉市,博物馆,,46,46,45,22,21,48,48,145,108,31,18,10,11,0.7,0.6
2026-07-09T0000,2348A,113.8384,27.6436,萍乡市,中医院,,16,16,18,3,6,21,21,49,38,17,13,8,10,1.2,0.8
2026-07-09T0000,2350A,113.8677,27.6438,萍乡市,市环保局,,17,17,17,3,6,24,24,54,42,14,9,12,14,1.1,0.5
2026-07-09T0000,2351A,113.8663,27.6202,萍乡市,安源区政府,,17,17,12,3,6,17,17,51,38,13,8,8,9,0.6,0.3
2026-07-09T0000,4107A,113.8686,27.6668,萍乡市,联洪村委会,,16,16,19,3,7,24,24,54,41,11,9,9,10,0.3,0.3
2026-07-09T0000,2319A,119.0142,25.4324,莆田市,荔城区仓后路,,40,37,32,28,12,29,29,97,52,17,12,/,/,/,/
2026-07-09T0000,2320A,119.0016,25.4553,莆田市,莆田市监测站,,31,31,24,21,11,26,26,90,53,12,9,4,4,0.4,0.4
2026-07-09T0000,2321A,119.112,25.4561,莆田市,涵江区六中,,29,29,27,20,11,26,26,101,47,22,13,/,/,0.6,0.5
2026-07-09T0000,2322A,119.1014,25.3215,莆田市,秀屿区政府,,27,27,24,9,12,36,36,92,54,15,11,6,7,0.6,0.6
2026-07-09T0000,2392A,115.0312,35.7636,濮阳市,环保局,,28,18,28,18,11,88,88,130,112,9,7,3,4,0.5,0.5
2026-07-09T0000,3021A,115,35.7667,濮阳市,濮水河管理处,,34,28,18,19,10,108,108,131,116,9,5,4,3,0.7,0.6
2026-07-09T0000,4118A,115.0552,35.7816,濮阳市,中原东路68号,,46,46,34,16,10,97,97,130,116,10,7,4,5,0.8,0.8
2026-07-09T0000,4216A,115.0923632,35.76857718,濮阳市,任丘路479号,,37,37,27,21,12,101,101,144,123,9,6,1,2,0.7,0.6
2026-07-09T0000,2601A,100.9801,22.7634,普洱市,市环保局,NA,NA,25,21,10,8,NA,NA,34,28,4,6,5,5,0.8,0.7
2026-07-09T0000,2602A,100.9763,22.8237,普洱市,普洱第二中学,,15,15,21,7,7,21,21,38,32,4,5,5,5,0.7,0.8
2026-07-09T0000,3345A,131.0413,45.7795,七台河市,中波台,,15,6,7,3,5,47,47,48,41,3,6,5,5,0.4,0.4
2026-07-09T0000,3637A,131.0136,45.7688,七台河市,人民广场,,15,10,8,3,3,47,47,48,42,3,7,5,5,0.4,0.5
2026-07-09T0000,3684A,130.8639,45.8144,七台河市,新建矿广场,NA,NA,NA,9,2,4,38,38,45,41,11,11,2,4,0.3,0.3
2026-07-09T0000,1779A,123.9307,47.3641,齐齐哈尔市,安居小区,,12,9,22,3,6,38,38,65,50,3,7,3,4,0.5,0.6
2026-07-09T0000,1780A,123.9497,47.3389,齐齐哈尔市,中心广场,,17,17,19,10,8,43,43,67,55,8,12,4,5,0.5,0.5
2026-07-09T0000,1781A,123.9483,47.3229,齐齐哈尔市,农牧车辆厂,NA,NA,NA,NA,NA,NA,NA,NA,NA,NA,NA,NA,NA,NA,NA,NA
2026-07-09T0000,1783A,123.9442,47.2994,齐齐哈尔市,市环境监测站,,12,12,14,7,12,34,34,58,48,8,9,2,2,0.3,0.3
2026-07-09T0000,3662A,123.6341,47.2079,齐齐哈尔市,富区青少年活动中心,NA,NA,4,15,NA,NA,51,51,74,65,6,10,6,6,0.4,0.4
2026-07-09T0000,2591A,107.9765,26.5724,黔东南苗族侗族自治州,市环境监测站,,13,10,9,3,6,41,41,57,45,1,3,2,2,0.3,0.3
2026-07-09T0000,2881A,107.8909,26.531,黔东南苗族侗族自治州,凯里学院,,11,NA,2,6,7,35,35,57,47,4,2,5,5,0.5,0.5
2026-07-09T0000,2593A,107.5223,26.2371,黔南布依族苗族自治州,小围寨,,12,NA,5,8,5,34,34,56,48,6,5,8,6,0.5,0.5
2026-07-09T0000,3538A,107.5175,26.2977,黔南布依族苗族自治州,沙坝,,9,6,6,3,4,28,28,54,41,5,3,4,3,0.6,0.6
2026-07-09T0000,2589A,104.9022,25.0943,黔西南布依族苗族自治州,场坝街,,18,18,13,6,6,42,42,82,68,12,6,2,5,0.3,0.3
2026-07-09T0000,2590A,104.8812,25.0994,黔西南布依族苗族自治州,坪东大道,,25,25,17,8,8,24,24,79,55,10,6,5,6,0.4,0.3
2026-07-09T0000,2502A,108.6238,21.9667,钦州市,市环保站,,23,7,7,3,5,72,72,66,61,7,11,6,9,0.5,0.5
2026-07-09T0000,2503A,108.655,21.9481,钦州市,沙埠小学,NA,NA,NA,NA,0,0,NA,NA,NA,NA,NA,NA,NA,NA,3.6,3.6
2026-07-09T0000,2504A,108.5989,21.7435,钦州市,港区一小,,23,23,16,3,4,53,53,80,68,27,22,3,3,0.6,0.6
2026-07-09T0000,3404A,108.5959,21.9634,钦州市,北职校,,26,21,11,18,10,70,70,74,69,13,12,4,3,0.6,0.6
2026-07-09T0000,1046A,119.5247,39.9346,秦皇岛市,建设大厦,颗粒物(PM10),55,56,44,24,21,137,137,173,166,12,13,7,7,0.7,0.6
2026-07-09T0000,3132A,119.5979,39.938,秦皇岛市,文明里,颗粒物(PM10),60,63,50,31,22,160,160,175,173,8,9,8,8,0.5,0.4
2026-07-09T0000,4066A,119.7458,39.9952,秦皇岛市,南园路157号,,49,49,33,33,21,149,149,167,163,10,10,10,10,0.5,0.4
2026-07-09T0000,4067A,119.5131,39.8858,秦皇岛市,翠岛大街1号,,46,30,26,28,20,147,147,168,162,7,9,5,5,0.6,0.5
2026-07-09T0000,4198A,119.509013,39.825305,秦皇岛市,北戴河轮滑馆,臭氧1小时(O3_1h),57,54,41,30,19,165,165,182,182,6,8,10,11,0.4,0.4
2026-07-09T0000,1310A,120.404,36.0625,青岛市,市南区东部子站,,21,9,23,6,22,67,67,133,88,5,16,6,7,0.3,0.5
2026-07-09T0000,1311A,120.362344,36.10282,青岛市,四方区子站,,26,12,24,10,24,83,83,136,100,2,11,9,11,0.7,0.9
2026-07-09T0000,1312A,120.294373,36.054183,青岛市,市南区西部子站,,25,9,23,3,24,78,78,126,96,2,20,5,8,0.6,0.8
2026-07-09T0000,1313A,120.4581,36.0858,青岛市,崂山区子站,,24,12,26,6,22,76,76,146,106,1,9,6,8,0.3,0.3
2026-07-09T0000,1315A,120.3945,36.3083,青岛市,城阳区子站,,27,14,24,13,19,85,85,133,104,6,15,8,9,0.3,0.4
2026-07-09T0000,3642A,120.3454,36.0735,青岛市,市北区南部,,26,10,20,6,20,83,83,133,98,6,14,5,7,0.8,0.9
2026-07-09T0000,3643A,120.3897,36.18,青岛市,李沧区北部,,29,NA,15,20,40,76,76,96,93,7,12,3,3,0.6,0.7
2026-07-09T0000,4110A,120.5222,36.4089,青岛市,盟旺路653号,,29,19,22,12,16,92,92,134,109,6,11,6,7,0.7,0.8
2026-07-09T0000,4290A,120.196923,35.954556,青岛市,珠江路669号,,22,9,23,7,24,69,69,130,92,5,12,4,5,0.3,0.5
2026-07-09T0000,4291A,120.0424,35.8656,青岛市,黄岛区人民政府广场,,24,7,23,6,20,74,74,132,90,7,14,5,5,0.6,0.8
2026-07-09T0000,1703A,113.0218,23.7086,清远市,凤城街办,,22,22,15,12,10,24,24,47,36,18,16,/,/,/,/
2026-07-09T0000,3025A,113.0479,23.6343,清远市,技师学院,,28,28,16,15,9,13,13,49,32,29,21,8,5,0.5,0.5
2026-07-09T0000,3318A,112.9898,23.7403,清远市,清新太和,,19,19,12,13,9,34,34,56,46,15,13,9,9,0.4,0.4
2026-07-09T0000,3455A,113.076,23.72,清远市,清城东城,,19,19,15,10,8,28,28,49,39,15,14,/,/,/,/
2026-07-09T0000,2661A,107.6325,35.7357,庆阳市,庆阳五中,,48,31,33,19,19,152,152,146,145,8,10,6,6,0.4,0.4
2026-07-09T0000,2662A,107.6361,35.7067,庆阳市,市环保局,,47,35,35,21,19,148,148,147,144,9,10,6,6,0.4,0.5
2026-07-09T0000,1916A,103.7897,25.5036,曲靖市,环境监测站,,20,20,26,12,16,46,46,99,74,14,11,3,2,0.6,0.5
2026-07-09T0000,1917A,103.8013,25.5357,曲靖市,烟厂办公区,,27,27,22,12,14,44,44,88,66,11,10,3,3,0.6,0.6
2026-07-09T0000,3376A,103.7926,25.4651,曲靖市,南苑二区,,18,17,20,12,14,50,50,96,74,14,12,4,4,0.6,0.6
2026-07-09T0000,3377A,103.7442,25.5259,曲靖市,曲靖师范学院,,27,27,24,3,18,44,44,97,73,14,19,4,8,0.4,0.4
2026-07-09T0000,1264A,118.8694,28.94,衢州市,环保大楼,,21,21,19,10,10,8,8,62,25,17,13,/,/,/,/
2026-07-09T0000,1266A,118.8622,28.9809,衢州市,衢州学院,,23,19,17,16,10,15,15,71,42,17,15,4,4,0.4,0.4
2026-07-09T0000,4097A,118.9646,28.9832,衢州市,衢州三中,,20,20,18,11,10,7,7,66,26,20,14,4,5,0.7,0.7
2026-07-09T0000,1611A,118.5818,24.9116,泉州市,涂山街,NA,NA,24,29,NA,12,33,33,89,56,19,14,4,6,0.6,0.6
2026-07-09T0000,1612A,118.597,24.8976,泉州市,津头埔,NA,NA,NA,27,9,12,NA,NA,88,NA,22,17,3,5,0.5,0.4
2026-07-09T0000,1613A,118.6669,24.9422,泉州市,万安,,20,20,25,8,10,30,30,90,52,19,14,3,4,0.4,0.4
2026-07-09T0000,4105A,118.6355,24.9148,泉州市,霞新路6号,,19,19,23,11,11,29,29,94,51,20,15,/,/,0.4,0.4
2026-07-09T0000,2626A,88.8873,29.2723,日喀则市,日喀则监测站,,30,30,12,7,2,93,93,86,86,3,5,9,9,0.3,0.3
2026-07-09T0000,3726A,88.8775,29.2425,日喀则市,林业技术推广中心,,28,27,11,3,0,88,88,87,87,2,2,10,10,0.3,0.3
2026-07-09T0000,1659A,119.4711,35.421,日照市,监测站,,23,19,27,16,26,31,31,118,76,21,20,6,10,0.4,0.7
2026-07-09T0000,1660A,119.523,35.4216,日照市,市政府广场,,23,17,32,16,24,51,51,114,86,22,19,11,13,0.6,0.9
2026-07-09T0000,1661A,119.5511,35.4113,日照市,港务局,,22,22,38,14,24,53,53,118,89,28,24,5,9,0.9,1
2026-07-09T0000,3507A,119.5326,35.4627,日照市,职业技术学院,,22,NA,31,14,25,69,69,135,100,7,13,8,11,0.5,0.8
2026-07-09T0000,3604A,119.3267,35.1043,日照市,岚山环保分局,,32,24,26,22,20,66,66,122,94,20,15,10,14,0.8,0.8
2026-07-09T0000,1835A,111.1922,34.7752,三门峡市,市政府,,36,36,35,18,19,107,107,147,133,12,5,6,6,0.8,0.8
2026-07-09T0000,1836A,111.1588,34.794,三门峡市,开发区,,36,35,35,25,22,109,109,150,136,16,11,5,6,0.5,0.5
2026-07-09T0000,3039A,111.1911,34.7829,三门峡市,三门峡市第一小学,,38,32,34,22,21,120,120,152,138,8,5,7,15,0.6,0.6
2026-07-09T0000,3598A,111.1031,34.719,三门峡市,富达温泉假日酒店,,43,43,39,18,19,102,102,143,121,15,13,8,10,0.5,0.5
2026-07-09T0000,2324A,117.621,26.2626,三明市,三钢,,18,NA,15,12,11,19,19,66,40,15,12,9,9,0.4,0.8
2026-07-09T0000,2325A,117.6352,26.2714,三明市,三明二中,,9,6,17,3,8,28,28,72,45,9,10,3,4,0.4,0.7
2026-07-09T0000,2326A,117.6028,26.2377,三明市,三元区政府,,12,12,14,6,8,14,14,65,38,14,8,13,9,0.5,0.5
2026-07-09T0000,1877A,109.4962,18.2682,三亚市,河西子站,,24,24,18,11,9,45,45,56,56,9,6,3,2,0.2,0.2
2026-07-09T0000,3540A,109.7348,18.3443,三亚市,君悦子站,,26,21,19,18,8,16,16,57,44,23,8,2,3,0.2,0.2
2026-07-09T0000,4135A,109.1714,18.3739,三亚市,城东小学站,,31,31,22,12,8,21,21,58,46,6,6,/,/,/,/
2026-07-09T0000,2624A,91.7592,29.234,山南市,山南监测站,,19,6,9,3,3,60,60,90,77,5,4,9,8,0.1,0.1
2026-07-09T0000,2625A,91.7701,29.2436,山南市,山南人民医院,,19,9,12,3,4,60,60,87,76,3,3,6,8,0.2,0.2
2026-07-09T0000,1674A,116.6795,23.3666,汕头市,金平子站,,14,12,14,3,8,43,43,64,49,5,8,2,3,0.5,0.6
2026-07-09T0000,1675A,116.7248,23.3632,汕头市,龙湖子站,,19,19,16,11,8,37,37,53,45,3,4,6,17,/,/
2026-07-09T0000,1676A,116.7257,23.2774,汕头市,濠江子站,,20,20,20,8,7,28,28,55,46,16,7,9,8,/,/
2026-07-09T0000,1677A,116.7518,23.4712,汕头市,澄海子站,,22,22,21,9,9,30,30,59,40,11,11,3,4,0.5,0.5
2026-07-09T0000,1678A,116.6088,23.2539,汕头市,潮阳子站,,23,23,16,7,7,35,35,52,45,6,5,6,6,0.8,0.8
2026-07-09T0000,3444A,116.4539,23.2684,汕头市,潮南峡山,,25,25,18,11,8,34,34,57,46,4,3,6,6,0.6,0.6
2026-07-09T0000,3624A,116.4069,23.2533,汕头市,潮南子站,,16,16,15,7,7,35,35,50,42,2,4,6,6,/,/
2026-07-09T0000,1693A,115.3653,22.7751,汕尾市,市环保局,,18,18,21,8,8,36,36,60,49,2,3,5,5,0.5,0.5
2026-07-09T0000,1695A,115.362,22.7926,汕尾市,新城中学,,18,18,19,8,8,41,41,68,55,2,2,6,6,0.6,0.6
2026-07-09T0000,2645A,109.9155,33.8714,商洛市,监测站,,30,30,26,16,15,70,70,126,96,15,10,6,9,0.5,0.4
2026-07-09T0000,3045A,109.9647,33.8486,商洛市,商州区中学,,29,29,27,18,16,54,54,113,79,24,12,5,9,0.7,0.7
2026-07-09T0000,2408A,115.6701,34.4283,商丘市,环境监测站,,26,26,24,16,16,76,76,119,109,7,5,5,5,0.6,0.6
2026-07-09T0000,2409A,115.6458,34.4047,商丘市,粮食局,,28,28,26,12,10,81,81,129,114,5,5,3,2,0.5,0.4
2026-07-09T0000,3171A,115.6069,34.4465,商丘市,梁园区档案局,,35,NA,26,24,12,73,73,122,109,5,6,2,2,0.5,0.4
2026-07-09T0000,4119A,115.6701,34.3767,商丘市,北海东路185号,,26,26,29,15,12,67,67,123,102,12,8,4,3,0.5,0.4
2026-07-09T0000,4120A,115.6172,34.3704,商丘市,中山大街3号,,22,21,24,11,12,70,70,117,100,14,11,4,5,0.5,0.5
2026-07-09T0000,1141A,121.401,31.2382,上海市,普陀,,48,48,31,30,19,120,120,124,99,22,20,6,6,0.1,0.1
2026-07-09T0000,1142A,121.4774,31.2043,上海市,十五厂,,46,46,35,29,20,114,114,119,112,19,20,5,6,0.5,0.5
2026-07-09T0000,1143A,121.4673,31.3011,上海市,虹口,,43,41,30,26,19,135,135,122,105,8,12,4,4,0.5,0.5
2026-07-09T0000,1147A,121.4253,31.226,上海市,静安监测站,,46,46,32,25,20,133,133,132,109,22,20,9,8,0.3,0.4
2026-07-09T0000,1148A,121.7029,31.1905,上海市,浦东川沙,颗粒物(PM10),54,55,34,32,20,75,75,123,107,41,18,8,8,0.5,0.4
2026-07-09T0000,1149A,121.5339,31.229,上海市,浦东新区监测站,,46,46,31,30,19,116,116,117,115,10,12,6,7,0.6,0.6
2026-07-09T0000,1150A,121.5776,31.2038,上海市,浦东张江,,41,40,31,28,20,129,129,133,129,11,13,7,7,0.3,0.3
2026-07-09T0000,3265A,121.4242,31.3303,上海市,宝山庙行,,44,44,32,23,18,118,118,114,91,16,16,11,11,0.3,0.3
2026-07-09T0000,3266A,121.8789,31.4662,上海市,崇明上实东滩,,36,36,35,22,20,82,82,146,120,8,26,10,11,0.3,0.3
2026-07-09T0000,3268A,121.316,31.2839,上海市,嘉定南翔,,44,44,29,25,18,116,116,100,86,24,25,6,6,0.3,0.3
2026-07-09T0000,3269A,121.3357,30.7455,上海市,金山新城,颗粒物(PM10),53,54,32,34,21,85,85,146,139,16,12,5,5,0.5,0.7
2026-07-09T0000,3270A,121.4996,31.0741,上海市,闵行浦江,,42,41,32,29,20,91,91,113,111,10,13,6,7,0.4,0.4
2026-07-09T0000,3271A,121.2886,31.1663,上海市,青浦徐泾,细颗粒物(PM2.5),92,80,32,56,21,100,100,114,87,25,16,6,6,0.3,0.3
2026-07-09T0000,3272A,121.2193,31.0382,上海市,松江图书馆,,45,45,32,28,20,129,129,114,100,15,18,8,8,0.4,0.4
2026-07-09T0000,3273A,121.3904,31.206,上海市,长宁仙霞,,46,44,33,32,19,115,115,112,92,21,20,7,7,0.2,0.2
2026-07-09T0000,3274A,121.7964,31.0507,上海市,浦东惠南,,49,49,36,27,20,86,86,153,129,19,21,8,8,0.6,0.7
2026-07-09T0000,3544A,121.4891,30.925,上海市,奉贤南桥新城,,45,45,33,23,18,84,84,144,138,15,16,4,5,0.5,0.6
2026-07-09T0000,4183A,121.417401,31.16637,上海市,冠生园路458号,颗粒物(PM10),54,55,31,30,20,92,92,110,95,30,18,6,6,0.5,0.5
2026-07-09T0000,4205A,121.541914,31.268301,上海市,宁武路151号,颗粒物(PM10),53,53,41,34,21,94,94,115,105,39,27,7,7,0.5,0.5
2026-07-09T0000,2382A,117.9758,28.4439,上饶市,市监测站,,14,14,24,3,8,32,32,68,39,5,7,7,16,/,/
2026-07-09T0000,2383A,117.9521,28.4637,上饶市,凤凰光学,,18,18,16,6,7,21,21,72,42,13,4,6,14,0.5,0.5
2026-07-09T0000,3685A,117.897,28.4316,上饶市,双创科技城,,20,20,19,8,6,32,32,66,41,12,9,5,10,0.4,0.4
2026-07-09T0000,4211A,118.190438,28.444845,上饶市,裕丰大道,,15,15,17,3,5,10,10,60,24,7,7,12,15,0.6,0.6
2026-07-09T0000,1669A,113.5821,24.7733,韶关市,市八中,,20,20,19,6,8,11,11,57,28,21,13,13,21,0.7,0.6
2026-07-09T0000,1671A,113.5916,24.7973,韶关市,园林处,,20,20,18,7,9,16,16,54,27,16,13,13,14,/,/
2026-07-09T0000,1673A,113.5971,24.6864,韶关市,曲江监测站,,29,29,25,7,10,0,0,40,NA,18,14,7,13,0.7,0.7
2026-07-09T0000,2809A,113.6668,24.7756,韶关市,大学路288号,,21,21,18,3,7,4,4,51,21,22,10,10,19,/,/
2026-07-09T0000,3622A,113.5556,24.8082,韶关市,碧湖山庄,,28,28,21,3,7,13,13,55,32,10,11,5,9,0.7,0.7
2026-07-09T0000,2464A,111.5277,27.2442,邵阳市,市化工厂,,12,8,9,7,10,37,37,59,51,4,3,7,7,0.2,0.2
2026-07-09T0000,2466A,111.4327,27.2276,邵阳市,市环保局,,11,NA,12,6,6,33,33,56,50,4,4,4,3,0.3,0.3
2026-07-09T0000,4218A,111.446,27.2472,邵阳市,北塔二期4-26地块,,27,27,17,3,5,31,31,53,47,5,5,5,5,0.4,0.4
2026-07-09T0000,4219A,111.4739,27.2282,邵阳市,邵水西路287号,,13,NA,11,9,7,37,37,58,52,2,2,1,1,0.3,0.3
2026-07-09T0000,1247A,120.6053,29.9927,绍兴市,城东开发委,,27,27,19,16,10,30,30,96,64,24,12,9,9,0.3,0.3
2026-07-09T0000,2921A,120.5482,30.0003,绍兴市,树下王站,,35,30,18,24,11,17,17,98,56,30,14,4,4,0.5,0.4
2026-07-09T0000,3408A,120.5685,29.936,绍兴市,绍兴中专,,28,28,18,12,8,15,15,94,47,33,12,4,5,0.6,0.5
2026-07-09T0000,3409A,120.4905,30.086,绍兴市,柯桥区政府,,23,23,18,11,10,33,33,95,62,16,10,6,6,0.5,0.4
2026-07-09T0000,3410A,120.8751,30.0249,绍兴市,重华小学,,22,18,21,15,13,62,62,90,79,17,13,10,10,0.6,0.6
2026-07-09T0000,3411A,120.837,30.0137,绍兴市,上虞中学,,43,43,23,15,13,23,23,88,75,37,16,8,10,0.4,0.4
2026-07-09T0000,3560A,120.4715,30.0414,绍兴市,柯桥妇保,,29,23,19,20,12,32,32,102,60,14,12,6,6,0.3,0.3
2026-07-09T0000,3658A,120.6156,30.0762,绍兴市,袍江中学,,37,37,22,20,15,33,33,103,69,32,13,6,6,0.5,0.4
2026-07-09T0000,1356A,114.0948,22.5506,深圳市,通心岭子站,,22,22,16,10,8,28,28,59,42,8,8,3,3,0.8,0.8
2026-07-09T0000,1357A,114.1153,22.5713,深圳市,洪湖,,21,21,16,9,6,6,6,60,36,23,10,6,6,0.4,0.4
2026-07-09T0000,1358A,113.9823,22.5398,深圳市,华侨城,,25,25,19,13,9,27,27,52,27,13,11,/,/,/,/
2026-07-09T0000,1359A,113.9181,22.517,深圳市,南海子站,,29,29,20,13,10,28,28,51,28,14,12,5,5,0.7,0.7
2026-07-09T0000,1360A,114.2345,22.565,深圳市,盐田,,24,24,17,8,6,31,31,52,39,4,16,5,6,0.3,0.3
2026-07-09T0000,1363A,114.4911,22.5381,深圳市,南澳,,25,24,15,17,7,42,42,59,47,5,4,/,/,/,/
2026-07-09T0000,1364A,114.41,22.6346,深圳市,葵涌,NA,NA,NA,15,NA,7,NA,NA,60,47,7,8,7,6,0.7,0.7
2026-07-09T0000,1365A,114.2967,22.5978,深圳市,梅沙,,30,30,15,10,5,44,44,65,50,4,6,/,/,/,/
2026-07-09T0000,1366A,114.0563,22.7353,深圳市,观澜,,29,27,20,20,15,26,26,59,34,14,18,5,5,0.7,0.7
2026-07-09T0000,3305A,114.0614,22.556,深圳市,莲花,,25,25,16,11,10,11,11,35,21,9,8,/,/,/,/
2026-07-09T0000,3306A,114.0144,22.6163,深圳市,民治,,24,24,20,12,10,25,25,57,36,19,10,/,/,/,/
2026-07-09T0000,3307A,114.1756,22.6421,深圳市,横岗,,27,27,16,16,9,7,7,65,43,34,17,/,/,/,/
2026-07-09T0000,3447A,114.344,22.7115,深圳市,坪山,,22,22,18,11,11,43,43,57,46,3,8,6,6,0.7,0.7
2026-07-09T0000,3623A,113.8952,22.586,深圳市,西乡,,31,31,21,13,9,22,22,45,20,23,18,2,3,0.6,0.6
2026-07-09T0000,4220A,114.214113,22.713717,深圳市,黄阁路,,21,21,16,10,6,21,21,56,37,14,7,6,6,0.7,0.6
2026-07-09T0000,1099A,123.5058,41.7084,沈阳市,浑南东路,,21,17,14,6,9,66,66,112,92,16,19,5,2,0.6,0.6
2026-07-09T0000,1100A,123.4238,41.6992,沈阳市,新秀街,,30,30,20,14,10,73,73,116,101,17,15,24,5,0.7,0.6
2026-07-09T0000,1102A,123.5903,41.8412,沈阳市,东陵路,,22,19,19,6,8,69,69,110,82,10,10,4,2,0.7,0.6
2026-07-09T0000,1103A,123.4267,41.8466,沈阳市,陵东街,,30,16,16,8,9,96,96,116,112,11,12,4,4,0.6,0.6
2026-07-09T0000,1104A,123.4116,41.7654,沈阳市,文化路,,27,17,16,10,8,86,86,123,114,9,9,11,5,0.7,0.7
2026-07-09T0000,1105A,123.4673,41.787,沈阳市,小河沿,,25,20,15,8,8,79,79,111,103,10,8,5,2,0.6,0.6
2026-07-09T0000,1106A,123.4019,41.7978,沈阳市,太原街,NA,NA,18,21,6,9,97,97,81,NA,7,8,3,2,NA,0.4
2026-07-09T0000,1108A,123.3778,41.9233,沈阳市,京沈街,,30,16,27,8,13,93,93,130,121,11,14,7,5,0.5,0.6
2026-07-09T0000,2897A,123.2429,41.7341,沈阳市,沈辽西路,,29,14,21,6,12,91,91,126,116,10,9,6,9,0.5,0.7
2026-07-09T0000,2900A,123.5951,41.9085,沈阳市,裕农路,,20,16,16,11,10,61,61,104,81,12,10,6,6,0.7,0.6
2026-07-09T0000,2429A,110.78,32.6494,十堰市,滨河新村,,30,26,24,18,14,96,96,125,109,5,10,/,/,0.7,0.8
2026-07-09T0000,2430A,110.7305,32.6408,十堰市,刘家沟,,30,30,25,17,15,92,92,133,109,4,6,/,/,/,/
2026-07-09T0000,2431A,110.8843,32.5712,十堰市,铁二处,,33,33,22,15,16,67,67,105,97,4,5,8,8,0.8,0.7
