timepoint,stationcode,longitude,latitude,area,positionname,primarypollutant,aqi,pm10,pm10_24h,pm2_5,pm2_5_24h,o3,o3_24h,o3_8h,o3_8h_24h,no2,no2_24h,so2,so2_24h,co,co_24h
2026-07-07T1700,2568A,102.2503,31.8896,阿坝藏族羌族自治州,马师校,,31,17,23,7,10,98,98,62,62,4,5,3,3,0.3,0.3
2026-07-07T1700,3994A,102.2174,31.9016,阿坝藏族羌族自治州,马尔康中学西区,,29,10,8,8,9,92,92,65,65,6,6,2,2,0.3,0.3
2026-07-07T1700,2695A,80.2899,41.1684,阿克苏地区,电视台,颗粒物(PM10),122,175,178,71,83,88,88,102,70,11,9,4,4,0.4,0.3
2026-07-07T1700,2696A,80.2592,41.1541,阿克苏地区,艺术中心,细颗粒物(PM2.5),123,97,130,85,85,92,92,111,71,17,18,3,4,0.4,0.3
2026-07-07T1700,2205A,105.699,38.8409,阿拉善盟,蒙二幼,,42,9,16,3,4,134,134,130,130,2,3,11,10,0.2,0.3
2026-07-07T1700,2206A,105.7198,38.8508,阿拉善盟,环保局新楼,,42,24,16,3,3,132,132,128,128,2,3,9,9,0.4,0.4
2026-07-07T1700,2708A,88.1266,47.8515,阿勒泰地区,市站,,35,19,20,7,3,110,110,103,103,18,11,7,7,0.5,0.4
2026-07-07T1700,4166A,88.1198,47.7931,阿勒泰地区,阿勒泰路33号,,35,17,16,3,2,109,109,96,96,4,5,6,6,0.2,0.3
2026-07-07T1700,2630A,80.1171,32.4999,阿里地区,阿里监测站,,35,NA,13,3,4,110,110,109,109,1,6,5,5,0.3,0.3
2026-07-07T1700,3192A,80.0906,32.5029,阿里地区,阿里藏医院,,34,6,12,3,3,108,108,106,106,1,3,9,9,0.2,0.3
2026-07-07T1700,2644A,109.0088,32.6974,安康市,汉滨区检察院,,34,22,21,13,12,108,108,109,109,4,7,3,4,0.4,0.4
2026-07-07T1700,4054A,109.0324,32.6913,安康市,市邮政管理局,,37,21,23,18,10,117,117,112,112,3,9,1,3,0.6,0.6
2026-07-07T1700,2291A,117.0806,30.5181,安庆市,环科院,NA,NA,NA,15,3,7,53,53,47,47,2,15,8,8,0.4,0.5
2026-07-07T1700,2292A,117.0331,30.5118,安庆市,马山宾馆,,17,6,13,3,7,54,54,48,48,3,15,2,2,0.3,0.4
2026-07-07T1700,2294A,116.9897,30.6146,安庆市,安庆大学,,17,10,17,3,5,52,52,45,45,4,10,3,4,0.4,0.4
2026-07-07T1700,3173A,117.0598,30.5351,安庆市,市人大,,18,18,14,3,8,56,56,49,49,2,11,4,5,0.4,0.4
2026-07-07T1700,3123A,105.9408,26.2431,安顺市,凤凰山,,23,17,16,16,12,67,67,63,63,6,5,6,7,0.5,0.5
2026-07-07T1700,3124A,105.9443,26.2567,安顺市,金钟山,,24,16,14,11,13,75,75,68,68,3,4,6,6,0.4,0.4
2026-07-07T1700,3125A,105.8983,26.248,安顺市,娄家坡,,25,NA,13,17,13,73,73,66,66,3,2,5,6,0.4,0.4
2026-07-07T1700,1819A,114.3552,36.1017,安阳市,红庙街,,43,31,20,24,14,137,137,118,118,4,4,4,4,0.5,0.5
2026-07-07T1700,1820A,114.361,36.0681,安阳市,银杏小区,,45,35,22,20,15,141,141,122,122,1,4,1,1,0.2,0.2
2026-07-07T1700,3141A,114.3921,36.0879,安阳市,信访局,,49,36,21,25,16,155,155,132,132,4,4,3,2,0.5,0.5
2026-07-07T1700,3669A,114.4706,36.0634,安阳市,左辅环卫站,,41,31,20,26,16,131,131,108,108,5,7,2,2,0.4,0.3
2026-07-07T1700,4117A,114.2918,36.0769,安阳市,钢三路198号,,41,25,15,22,16,131,131,115,115,6,5,4,3,0.5,0.5
2026-07-07T1700,1748A,123.0441,41.1201,鞍山市,深沟寺,,26,11,16,3,9,82,82,101,94,6,5,6,6,0.5,0.7
2026-07-07T1700,1749A,123.011,41.0931,鞍山市,太阳城,,23,8,18,3,12,71,71,104,92,8,8,6,6,0.7,1
2026-07-07T1700,1750A,123.0483,41.1445,鞍山市,太平,,26,7,18,6,10,82,82,102,93,11,7,6,6,0.9,1
2026-07-07T1700,1751A,122.964,41.0968,鞍山市,铁西三道街,,28,7,19,3,11,89,89,114,106,15,9,4,5,0.8,0.9
2026-07-07T1700,1753A,123.0219,41.0822,鞍山市,明达新区,,29,8,16,3,9,90,90,112,102,6,7,4,4,0.5,0.7
2026-07-07T1700,4201A,122.944647,41.082639,鞍山市,兴盛南路290号,,25,6,21,3,12,78,78,112,99,18,11,5,5,0.7,0.7
2026-07-07T1700,2195A,107.4206,40.7609,巴彦淖尔市,附二中,,41,25,31,12,12,129,129,110,110,7,16,12,15,0.6,0.6
2026-07-07T1700,2196A,107.37,40.7372,巴彦淖尔市,市环保大楼,,44,31,34,3,12,138,138,117,117,5,10,9,13,0.5,0.7
2026-07-07T1700,1956A,86.1476,41.7529,巴音郭楞蒙古自治州,孔雀公园,颗粒物(PM10),53,53,63,31,22,111,111,134,122,6,5,5,6,0.2,0.2
2026-07-07T1700,1957A,86.1971,41.7166,巴音郭楞蒙古自治州,棉纺厂,,50,50,73,21,24,117,117,128,121,8,6,/,/,/,/
2026-07-07T1700,1958A,86.236,41.7172,巴音郭楞蒙古自治州,经济开发区,,47,47,70,18,25,116,116,128,120,6,4,4,4,0.2,0.2
2026-07-07T1700,3181A,106.776805,31.852614,巴中市,市五中,,32,32,32,22,24,95,95,96,96,9,12,8,8,0.6,0.6
2026-07-07T1700,3183A,106.7419,31.8654,巴中市,圣泉水务公司,,32,32,27,21,22,100,100,98,98,11,13,9,8,0.8,0.8
2026-07-07T1700,3616A,106.7617,31.8343,巴中市,市中心医院,,35,35,42,19,22,93,93,86,86,7,15,7,7,0.9,0.9
2026-07-07T1700,2235A,122.7909,45.608,白城市,洮北区环保局,,39,NA,15,27,10,93,93,94,94,2,2,4,5,0.4,0.3
2026-07-07T1700,2236A,122.8741,45.5725,白城市,市环保局,NA,NA,36,11,25,8,100,100,94,94,NA,7,NA,3,0.2,0.1
2026-07-07T1700,2231A,126.4219,41.9172,白山市,喜丰,,28,19,25,3,7,88,88,102,102,15,10,8,9,1.0,0.9
2026-07-07T1700,2232A,126.4082,41.9416,白山市,环保局,,28,17,16,3,4,88,88,100,100,5,5,11,10,0.7,0.7
2026-07-07T1700,2647A,104.1727,36.5448,白银市,第三小学,,39,30,58,9,20,123,123,141,140,5,18,3,35,0.3,0.5
2026-07-07T1700,2648A,104.1467,36.5482,白银市,动力公司,,38,21,38,3,13,121,121,142,142,5,16,3,14,0.1,0.3
2026-07-07T1700,2512A,106.6102,23.901,百色市,市监测站,NA,NA,24,18,NA,6,82,82,61,61,5,7,NA,8,0.4,0.3
2026-07-07T1700,2513A,106.6524,23.8842,百色市,市中心血站,,28,24,18,13,10,87,87,60,60,4,6,11,9,0.5,0.5
2026-07-07T1700,4133A,106.6273,23.8798,百色市,龙景西路,,39,39,29,9,9,89,89,61,61,5,6,16,12,0.5,0.4
2026-07-07T1700,2270A,117.396,32.9389,蚌埠市,工人疗养院,,28,12,15,3,4,87,87,31,NA,9,10,5,5,0.2,0.3
2026-07-07T1700,2271A,117.3606,32.9428,蚌埠市,百货大楼,,29,10,11,7,5,92,92,58,58,10,10,8,8,0.5,0.5
2026-07-07T1700,2273A,117.4183,32.8909,蚌埠市,蚌埠学院,,24,NA,6,3,6,75,75,55,55,22,6,8,5,0.4,0.3
2026-07-07T1700,2274A,117.3534,32.9672,蚌埠市,淮上区政府,,30,9,8,9,4,95,95,58,58,7,8,5,5,0.3,0.3
2026-07-07T1700,2275A,117.3143,32.8977,蚌埠市,高新区,,24,12,8,12,6,75,75,50,50,7,8,9,9,0.3,0.3
2026-07-07T1700,3715A,117.3091,32.9314,蚌埠市,蚌埠田家炳中学,,26,17,14,3,5,83,83,53,53,4,7,6,7,0.4,0.4
2026-07-07T1700,1585A,109.8761,40.6533,包头市,市环境监测站,,34,7,17,3,8,107,107,108,108,4,21,5,9,0.3,0.4
2026-07-07T1700,1587A,109.9992,40.5843,包头市,包头八中,,33,12,28,10,13,104,104,102,102,4,24,9,15,0.3,0.6
2026-07-07T1700,1589A,109.8641,40.6288,包头市,惠龙物流,,33,6,17,3,9,103,103,104,104,4,19,3,10,0.3,0.4
2026-07-07T1700,1590A,110.0376,40.5546,包头市,东河鸿龙湾,,34,6,22,3,11,106,106,104,104,7,24,7,15,0.2,0.4
2026-07-07T1700,3283A,109.9154,40.5684,包头市,滨河大厦,,32,6,15,3,10,100,100,100,100,4,28,8,13,0.3,0.5
2026-07-07T1700,3419A,109.9449,40.6259,包头市,包头市委党校,,33,NA,13,3,7,105,105,105,105,6,28,7,11,0.1,0.2
2026-07-07T1700,3683A,109.8332,40.6577,包头市,昆区政府,,31,6,15,3,9,99,99,100,100,8,19,3,10,0.2,0.3
2026-07-07T1700,1931A,107.0802,34.3129,宝鸡市,竹园沟,臭氧1小时(O3_1h),57,25,21,10,16,165,165,145,145,2,8,8,7,0.2,0.8
2026-07-07T1700,1933A,107.1429,34.3549,宝鸡市,监测站,臭氧1小时(O3_1h),74,33,34,21,21,179,179,150,150,5,8,9,7,0.4,0.5
2026-07-07T1700,1934A,107.1172,34.3759,宝鸡市,技工学校,臭氧1小时(O3_1h),78,57,33,16,21,182,182,154,154,6,5,7,6,0.3,0.5
2026-07-07T1700,1936A,107.2025,34.3518,宝鸡市,文理学院,臭氧1小时(O3_1h),84,35,53,17,23,187,187,157,157,7,17,8,8,0.3,0.4
2026-07-07T1700,1937A,107.2396,34.3626,宝鸡市,三迪小学,臭氧1小时(O3_1h),85,40,39,20,21,188,188,163,163,11,12,8,8,0.5,0.5
2026-07-07T1700,4155A,107.1721,34.3558,宝鸡市,滨河北路,臭氧1小时(O3_1h),64,26,32,14,19,171,171,145,145,5,7,6,6,0.5,0.6
2026-07-07T1700,4308A,107.3898,34.3601,宝鸡市,陈仓区北开路21号,臭氧1小时(O3_1h),82,31,42,17,22,185,185,157,157,4,10,6,6,0.4,0.4
2026-07-07T1700,1051A,115.4803,38.8568,保定市,游泳馆,臭氧1小时(O3_1h),106,34,26,29,16,211,211,182,182,3,11,5,5,0.1,0
2026-07-07T1700,1052A,115.509,38.8895,保定市,华电二区,臭氧1小时(O3_1h),109,26,21,20,14,218,218,194,194,9,12,3,3,0.6,0.5
2026-07-07T1700,1053A,115.4588,38.9037,保定市,接待中心,臭氧1小时(O3_1h),89,43,33,32,18,191,191,180,180,15,10,2,2,0.6,0.5
2026-07-07T1700,1054A,115.4484,38.8344,保定市,地表水厂,臭氧1小时(O3_1h),105,46,38,25,15,209,209,195,195,9,15,2,3,0.4,0.4
2026-07-07T1700,3581A,115.3136,38.9511,保定市,满城区生态环境分局,臭氧1小时(O3_1h),70,24,22,21,13,176,176,192,192,9,12,1,2,0.2,0.1
2026-07-07T1700,3582A,115.4709,38.7628,保定市,清苑区第二中学,臭氧1小时(O3_1h),95,62,49,38,18,196,196,180,180,15,12,6,7,0.4,0.3
2026-07-07T1700,3583A,115.6231,39.0223,保定市,徐水物探局,臭氧1小时(O3_1h),111,35,19,22,14,221,221,192,192,8,15,6,6,0.4,0.4
2026-07-07T1700,4004A,115.4199,38.8665,保定市,双鹰农机,臭氧1小时(O3_1h),88,41,32,34,18,190,190,184,184,29,14,3,3,0.3,0.2
2026-07-07T1700,4034A,115.515,38.8589,保定市,植保所站,臭氧1小时(O3_1h),110,39,30,22,14,219,219,193,193,12,15,3,3,0.3,0.2
2026-07-07T1700,2594A,99.1589,25.1137,保山市,市环境监测站,NA,NA,6,8,3,10,50,50,45,45,NA,6,NA,6,0.3,0.3
2026-07-07T1700,2595A,99.1616,25.1381,保山市,市环保局,,29,NA,10,20,18,51,51,45,45,2,3,5,5,0.3,0.3
2026-07-07T1700,1867A,109.1435,21.4085,北海市,海滩公园,,18,9,37,3,10,55,55,49,49,4,2,1,2,0.3,0.3
2026-07-07T1700,1868A,109.0983,21.466,北海市,新市环保局,,17,NA,18,3,5,54,54,52,52,8,5,1,2,0.3,0.2
2026-07-07T1700,1869A,109.1775,21.5232,北海市,北海工业园,,15,6,15,3,7,45,45,52,52,11,4,1,1,0.2,0.2
2026-07-07T1700,3400A,109.1844,21.4396,北海市,龙潭自来水厂,,15,6,15,3,4,48,48,45,45,4,2,6,6,0.5,0.5
2026-07-07T1700,1001A,116.3611,39.8786,北京市,万寿西宫,,40,23,29,15,16,128,128,154,154,8,15,3,4,0.4,0.3
2026-07-07T1700,1003A,116.4174,39.9289,北京市,东四,,43,11,28,9,15,135,135,161,161,9,17,2,3,0.5,0.4
2026-07-07T1700,1004A,116.4073,39.8858,北京市,天坛,,36,19,30,18,19,113,113,146,146,12,20,1,2,0.6,0.5
2026-07-07T1700,1005A,116.4622,39.9364,北京市,农展馆,,37,17,33,11,18,117,117,145,145,11,20,1,2,0.4,0.4
2026-07-07T1700,1006A,116.3399,39.9293,北京市,官园,,42,NA,28,29,16,122,122,141,141,13,20,5,6,0.5,0.4
2026-07-07T1700,1007A,116.2879,39.9613,北京市,海淀万柳,,39,34,24,24,12,122,122,115,115,14,21,5,5,0.5,0.4
2026-07-07T1700,1008A,116.6635,40.1349,北京市,顺义新城,,44,16,32,7,17,139,139,152,152,8,11,1,2,0.4,0.5
2026-07-07T1700,1009A,116.6275,40.327,北京市,怀柔镇,,40,19,24,14,12,126,126,133,133,8,8,3,2,0.5,0.4
2026-07-07T1700,1010A,116.2295,40.217,北京市,昌平镇,,41,38,23,23,14,131,131,115,115,10,20,3,3,0.6,0.5
2026-07-07T1700,1011A,116.3968,39.982,北京市,奥体中心,,35,26,28,15,15,109,109,109,109,14,22,4,4,0.4,0.3
2026-07-07T1700,3418A,116.8336,40.4095,北京市,密云新城,NA,NA,12,27,NA,14,105,105,131,131,4,7,1,1,0.4,0.4
2026-07-07T1700,3671A,116.0879,39.9725,北京市,门头沟三家店,,45,29,19,25,11,144,144,116,116,10,10,2,2,0.6,0.4
2026-07-07T1700,3672A,116.1507,39.8246,北京市,丰台云岗,,41,16,27,13,11,129,129,133,133,8,15,3,4,0.4,0.3
2026-07-07T1700,3674A,115.9578,39.7602,北京市,房山燕山,,43,43,29,15,14,129,129,129,129,12,11,2,2,0.5,0.4
2026-07-07T1700,3675A,116.4669,39.7734,北京市,大兴旧宫,,38,15,34,9,17,120,120,152,152,13,28,1,2,0.4,0.5
2026-07-07T1700,3694A,115.9859,40.4562,北京市,延庆石河营,,32,20,17,12,10,101,101,86,86,8,11,2,2,0.4,0.3
2026-07-07T1700,3695A,116.6151,40.3052,北京市,怀柔新城,,40,18,17,6,4,126,126,132,132,7,7,3,2,0.7,0.7
2026-07-07T1700,3696A,116.2542,39.8764,北京市,丰台小屯,,40,21,24,14,13,127,127,136,136,6,14,2,3,0.5,0.4
2026-07-07T1700,3697A,116.8399,40.3843,北京市,密云镇,,35,23,29,7,14,110,110,132,132,6,15,2,2,0.4,0.5
2026-07-07T1700,4057A,115.9423,40.4431,北京市,延庆百泉,,36,15,16,9,10,113,113,92,92,6,11,1,1,0.3,0.3
2026-07-07T1700,4058A,116.6598,39.9164,北京市,通州新华,,36,12,41,3,19,113,113,140,140,12,24,3,4,0.5,0.6
2026-07-07T1700,4182A,116.1942,39.9158,北京市,石景山八角,,41,37,24,18,10,130,130,122,122,12,17,3,2,0.5,0.3
2026-07-07T1700,4194A,117.078628,40.151726,北京市,平谷新城,,42,10,29,7,15,134,134,137,137,4,5,1,2,0.5,0.5
2026-07-07T1700,1761A,123.8274146,41.31234549,本溪市,大峪,,33,29,17,12,8,104,104,122,115,6,5,6,6,0.4,0.4
2026-07-07T1700,1763A,123.7169,41.3094,本溪市,彩屯,,35,11,24,3,12,111,111,104,100,8,17,7,7,0.5,1.9
2026-07-07T1700,1764A,123.7672166,41.28649327,本溪市,东明,,35,18,19,7,7,109,109,129,118,13,4,6,6,0.6,0.4
2026-07-07T1700,1765A,123.799345,41.266614,本溪市,新立屯,,34,16,16,13,9,106,106,130,113,5,6,8,8,0.5,0.5
2026-07-07T1700,1766A,123.829144,41.336777,本溪市,威宁,,34,16,19,13,9,106,106,113,109,2,6,9,8,0.3,0.4
2026-07-07T1700,2587A,105.287,27.3133,毕节市,八中,,28,28,26,19,17,83,83,88,88,6,13,6,8,0.7,0.6
2026-07-07T1700,2588A,105.3079,27.2987,毕节市,师专,,30,26,29,21,18,73,73,78,78,10,14,6,8,0.6,0.6
2026-07-07T1700,4263A,105.3688,27.3598,毕节市,工业大道,,25,25,34,16,17,70,70,82,82,21,18,7,8,/,/
2026-07-07T1700,1629A,117.9961,37.3604,滨州市,第二水厂,臭氧1小时(O3_1h),65,12,21,3,12,172,172,142,142,3,10,5,6,0.4,0.6
2026-07-07T1700,1630A,117.9789,37.3931,滨州市,北中新校,臭氧1小时(O3_1h),82,14,26,3,13,185,185,151,151,6,12,11,12,0.4,0.6
2026-07-07T1700,3514A,117.9379,37.3959,滨州市,中海酒店,臭氧1小时(O3_1h),82,14,19,3,13,185,185,152,152,9,15,9,10,0.3,0.6
2026-07-07T1700,3515A,117.9381509,37.35547456,滨州市,开发区一中,臭氧1小时(O3_1h),64,14,24,3,13,171,171,144,144,4,11,9,9,0.5,0.9
2026-07-07T1700,3516A,118.0914,37.6938,滨州市,金海六路,臭氧1小时(O3_1h),67,17,27,3,19,173,173,145,145,7,14,8,7,0.5,0.7
2026-07-07T1700,4028A,117.9955,37.3752,滨州市,滨州市西街道办事处,臭氧1小时(O3_1h),73,17,19,3,12,178,178,147,147,3,9,5,5,0.4,0.5
2026-07-07T1700,2311A,115.8071,33.8399,亳州市,污水处理厂,,36,9,7,3,4,115,115,91,91,4,7,4,4,0.3,0.3
2026-07-07T1700,2312A,115.7789,33.8519,亳州市,三国揽胜宫,,38,NA,13,26,4,111,111,88,88,2,5,4,4,0.2,0.2
2026-07-07T1700,3332A,115.7631,33.803,亳州市,亳州学院,,37,NA,12,13,4,116,116,93,93,3,6,2,2,0.3,0.3
2026-07-07T1700,2693A,82.0482,44.8553,博尔塔拉蒙古自治州,市党校,,36,13,36,12,8,115,115,102,102,3,5,3,3,0.2,0.2
2026-07-07T1700,2694A,82.0805,44.8966,博尔塔拉蒙古自治州,市环保局,,36,34,27,3,6,115,115,102,102,10,9,6,6,0.2,0.2
2026-07-07T1700,1071A,116.8733,38.2922,沧州市,沧县城建局,NA,NA,20,25,19,23,73,73,115,115,3,8,5,4,NA,0.1
2026-07-07T1700,1072A,116.8462,38.3189,沧州市,电视转播站,,45,45,42,19,20,130,130,144,144,9,11,7,8,0.3,0.3
2026-07-07T1700,1073A,116.8588,38.3161,沧州市,市环保局,,36,36,42,19,23,106,106,119,119,17,9,3,2,0.2,0.4
2026-07-07T1700,3324A,116.8011,38.294,沧州市,河北水利电力学院,,43,NA,23,18,24,137,137,148,148,4,9,10,10,0.3,0.4
2026-07-07T1700,2622A,97.1813,31.1289,昌都市,昌都监测站,,32,14,11,3,3,101,101,93,93,5,7,5,5,0.3,0.3
2026-07-07T1700,3719A,97.1707,31.1428,昌都市,昌都会议中心,,35,6,7,3,4,109,109,99,99,4,4,5,5,0.4,0.4
2026-07-07T1700,2692A,87.2722,44.0298,昌吉回族自治州,新区政务中心,,36,17,28,6,13,113,113,80,80,4,17,10,10,0.3,0.6
2026-07-07T1700,3613A,87.3069,44.0093,昌吉回族自治州,亚心广场,,38,14,34,11,19,121,121,98,98,4,21,8,9,0.1,0.3
2026-07-07T1700,4164A,87.2057,43.9289,昌吉回族自治州,财政所,,39,24,28,3,8,124,124,98,98,8,10,7,8,0.1,0.2
2026-07-07T1700,1120A,125.2874,43.9024,长春市,客车厂,,30,17,12,9,8,96,96,101,101,6,7,4,4,0.4,0.4
2026-07-07T1700,1121A,125.2943,43.8508,长春市,邮电学院,,30,15,9,11,8,96,96,102,102,3,4,6,6,0.4,0.4
2026-07-07T1700,1122A,125.3648,43.8745,长春市,劳动公园,,31,NA,12,12,9,97,97,102,102,8,8,5,6,0.4,0.4
2026-07-07T1700,1123A,125.3233,43.8781,长春市,园林处,,31,15,13,9,7,99,99,102,102,6,6,3,3,0.4,0.4
2026-07-07T1700,1124A,125.4604,43.7904,长春市,净月潭,,20,15,11,11,7,61,61,83,82,3,3,6,6,0.2,0.2
2026-07-07T1700,1126A,125.38,43.8422,长春市,经开区环卫处,,32,32,13,9,7,93,93,97,97,5,7,4,4,0.3,0.3
2026-07-07T1700,1127A,125.234,43.7761,长春市,高新区管委会,,25,NA,14,10,7,80,80,94,92,7,5,4,5,0.4,0.4
2026-07-07T1700,1128A,125.1695,43.83,长春市,岱山公园,,28,17,18,10,9,87,87,101,101,11,9,2,2,0.4,0.3
2026-07-07T1700,4281A,125.334645,43.916281,长春市,北亚泰大街1068号,,29,17,12,11,8,90,90,97,97,9,10,3,4,0.5,0.5
2026-07-07T1700,1335A,113.082,28.2421,长沙市,经开区环保局,,24,15,14,8,7,76,76,65,65,3,4,4,4,0.6,0.5
2026-07-07T1700,1336A,112.8873,28.2202,长沙市,高开区环保局,,20,14,13,7,7,62,62,54,54,2,2,3,3,0.5,0.6
2026-07-07T1700,1337A,113.0785,28.2012,长沙市,马坡岭,,25,18,14,8,7,80,80,70,70,4,6,7,7,0.7,0.5
2026-07-07T1700,1338A,112.9448,28.1894,长沙市,湖南师范大学,,22,17,17,3,6,70,70,62,62,2,3,7,7,0,0.2
2026-07-07T1700,1339A,113.0177,28.1322,长沙市,雨花区环保局,,24,9,15,3,6,74,74,62,62,3,2,5,5,0.6,0.8
2026-07-07T1700,1340A,112.9795,28.2593,长沙市,伍家岭,,22,15,15,6,7,68,68,64,64,2,5,3,4,0.3,0.4
2026-07-07T1700,1341A,113.002,28.1944,长沙市,火车新站,,21,16,16,9,8,67,67,58,58,3,6,5,5,0.4,0.4
2026-07-07T1700,1342A,112.9846,28.1177,长沙市,天心区环保局,,25,14,14,6,7,77,77,66,66,3,6,4,3,0,0
2026-07-07T1700,1343A,112.8906,28.1307,长沙市,湖南中医药大学,,21,21,18,7,12,65,65,59,59,3,4,6,6,0.4,0.4
2026-07-07T1700,1727A,113.1146,36.1547,长治市,清华站,臭氧1小时(O3_1h),59,27,27,11,16,167,167,163,163,4,11,10,9,0.4,0.6
2026-07-07T1700,1730A,113.0887,36.2126,长治市,审计局,,48,18,27,8,16,153,153,156,156,3,10,11,10,0.5,0.7
2026-07-07T1700,1731A,113.0845,36.1856,长治市,长治八中,臭氧1小时(O3_1h),53,24,31,15,17,162,162,157,157,9,15,16,13,0.5,0.7
2026-07-07T1700,2845A,113.1561,36.1912,长治市,德盛苑,臭氧1小时(O3_1h),59,20,25,12,17,167,167,161,161,8,10,12,12,0.5,0.6
2026-07-07T1700,3568A,113.0603,36.0464,长治市,向阳小学,臭氧1小时(O3_1h),55,31,34,10,16,164,164,151,151,15,6,17,7,0.1,0.5
2026-07-07T1700,3569A,112.8788,36.315,长治市,屯留一中,,44,18,27,8,17,138,138,130,130,6,12,11,12,1.2,1.4
2026-07-07T1700,4189A,113.113092,36.199482,长治市,英华南巷50号,臭氧1小时(O3_1h),57,27,32,13,15,165,165,160,160,5,11,12,11,0.8,0.9
2026-07-07T1700,4190A,113.23666,36.33435,长治市,学府街1号,臭氧1小时(O3_1h),64,38,38,14,23,171,171,169,169,6,14,11,13,0.7,0.8
2026-07-07T1700,1854A,111.696,28.9725,常德市,市二中,,18,17,12,7,2,55,55,52,52,2,3,6,6,0.9,0.9
2026-07-07T1700,3138A,111.7152,29.0288,常德市,武陵区永安,,18,12,12,6,3,57,57,54,54,2,2,6,6,0.5,0.5
2026-07-07T1700,3139A,111.6891,28.9881,常德市,鼎城区玉霞,,19,19,10,6,3,52,52,52,52,6,3,8,8,0.8,0.8
2026-07-07T1700,3140A,111.6651,29.0526,常德市,武陵区长庚,,24,24,10,15,5,64,64,35,NA,2,2,7,7,0.5,0.5
2026-07-07T1700,1196A,119.9524,31.7586,常州市,市监测站,,21,9,39,3,13,67,67,113,110,9,32,12,14,0.2,0.6
2026-07-07T1700,1200A,119.9351,31.703,常州市,武进监测站,,20,13,28,3,20,62,62,108,105,7,22,3,3,0.3,0.5
2026-07-07T1700,3002A,119.9701,31.813,常州市,行政中心,,20,16,32,3,15,63,63,100,96,5,24,6,6,0.2,0.4
2026-07-07T1700,3003A,120.0434,31.7726,常州市,经开区,,21,15,39,3,21,67,67,110,108,8,31,5,7,0.7,1.1
2026-07-07T1700,3010A,119.8919,31.7892,常州市,钟楼,,19,18,30,3,15,58,58,100,97,9,22,7,8,0.1,0.4
2026-07-07T1700,3429A,119.8595,31.706,常州市,武进经发区,,17,9,40,3,18,53,53,99,96,1,20,7,10,0.7,0.8
2026-07-07T1700,3430A,119.5812,31.7256,常州市,金坛城区,,18,6,27,3,18,55,55,78,74,2,11,6,7,0.4,0.6
2026-07-07T1700,4089A,119.9551,31.863,常州市,崇义南街5-H号,,17,12,30,3,16,53,53,96,91,6,22,7,7,0.7,0.8
2026-07-07T1700,2220A,120.4318,41.588,朝阳市,西梁,,37,22,29,20,14,116,116,120,119,5,12,6,7,0.6,0.8
2026-07-07T1700,2221A,120.452,41.565,朝阳市,河畔小区,,36,25,21,8,15,114,114,122,122,6,9,8,9,0.8,0.9
2026-07-07T1700,2222A,120.4176,41.5648,朝阳市,八里堡,,40,30,26,21,19,126,126,126,126,7,12,5,5,0.6,0.8
2026-07-07T1700,3026A,116.6179,23.6608,潮州市,市政府,,26,26,18,12,7,58,58,44,44,10,8,11,7,0.6,0.6
2026-07-07T1700,4036A,116.646,23.676,潮州市,金山,,30,30,15,8,8,63,63,46,46,8,6,7,3,0.3,0.3
2026-07-07T1700,2473A,113.0116,25.8228,郴州市,市职中,,18,6,7,3,4,56,56,48,48,4,5,6,7,0.7,0.7
2026-07-07T1700,2475A,113.0381,25.8074,郴州市,市审计局,,20,7,7,3,5,62,62,55,55,2,3,5,4,/,/
2026-07-07T1700,2476A,113.0348,25.7757,郴州市,市环保局,,18,10,9,3,4,56,56,50,50,1,2,5,5,0.5,0.5
2026-07-07T1700,4252A,113.0138,25.8011,郴州市,好美居路49号,,17,NA,9,3,4,54,54,48,48,3,4,6,8,/,/
2026-07-07T1700,1431A,103.9727,30.7242,成都市,金泉两河,臭氧1小时(O3_1h),73,40,58,25,45,178,178,146,146,8,24,4,4,0.2,0.3
2026-07-07T1700,1432A,104.1423,30.6765,成都市,十里店,臭氧1小时(O3_1h),88,42,57,24,34,190,190,153,153,10,17,6,6,0.6,0.7
2026-07-07T1700,1433A,104.0594,30.5765,成都市,三瓦窑,臭氧1小时(O3_1h),80,46,45,24,34,184,184,153,153,13,20,8,7,0.5,0.6
2026-07-07T1700,1434A,104.1122,30.6306,成都市,沙河铺,臭氧1小时(O3_1h),74,45,44,23,34,179,179,145,145,10,22,7,5,0.7,0.8
2026-07-07T1700,2880A,104.0219,30.6561,成都市,大石西路,臭氧1小时(O3_1h),88,51,55,28,42,190,190,135,135,12,22,6,6,0.6,0.7
2026-07-07T1700,3136A,104.2724,30.559,成都市,龙泉驿区区政府,,45,NA,25,25,25,141,141,121,121,5,8,7,7,0.6,0.5
2026-07-07T1700,3357A,104.0028,30.6891,成都市,金博路,臭氧1小时(O3_1h),69,28,48,20,40,175,175,139,139,9,31,8,10,0.6,0.8
2026-07-07T1700,3359A,104.056,30.5228,成都市,华阳,臭氧1小时(O3_1h),87,44,40,28,33,189,189,152,152,6,13,6,3,0.5,0.6
2026-07-07T1700,3488A,104.387954,30.746684,成都市,青白江技师分院,臭氧1小时(O3_1h),52,36,38,24,31,161,161,138,138,5,14,6,6,0.6,0.7
2026-07-07T1700,3489A,104.0788,30.4054,成都市,科学城,NA,NA,NA,32,NA,24,NA,NA,75,NA,NA,12,NA,7,NA,0.3
2026-07-07T1700,4011A,103.8505,30.6946,成都市,光华大道三段,臭氧1小时(O3_1h),69,47,60,27,42,175,175,175,175,6,18,4,6,0.6,0.7
2026-07-07T1700,4144A,104.3257,30.6406,成都市,八角井街185号,臭氧1小时(O3_1h),62,34,38,24,25,169,169,150,150,6,11,6,6,0.2,0.2
2026-07-07T1700,4224A,104.2433276,30.53529463,成都市,鲸龙路1057号,,47,38,36,23,27,149,149,131,131,6,14,7,8,0.8,0.8
2026-07-07T1700,1062A,117.9531,40.908,承德市,铁路,,47,47,25,8,13,128,128,119,119,8,16,5,6,0.3,0.4
2026-07-07T1700,1063A,117.9397,40.9763,承德市,中国银行,,34,32,27,9,13,107,107,125,125,7,9,3,11,0.3,0.4
2026-07-07T1700,4073A,117.9462,40.95,承德市,杏林街1号,,39,NA,26,19,18,122,122,131,131,4,10,3,11,0.3,0.4
2026-07-07T1700,4274A,117.7994,40.9605,承德市,滨河大街98号,颗粒物(PM10),63,68,30,29,11,116,116,118,118,5,8,4,11,0.3,0.3
2026-07-07T1700,2314A,117.4698,30.6617,池州市,池州学院,,12,6,13,3,7,38,38,30,30,7,15,4,4,0.4,0.6
2026-07-07T1700,3237A,117.4918,30.6617,池州市,展览馆,,14,9,15,3,4,44,44,44,44,4,9,3,3,0.2,0.4
2026-07-07T1700,3333A,117.5626,30.695,池州市,第八中学,,15,8,16,3,9,45,45,45,45,2,10,3,4,0.1,0.2
2026-07-07T1700,3334A,117.5037,30.6242,池州市,第十二中学,,15,8,16,3,8,48,48,46,46,3,10,4,5,0.4,0.6
2026-07-07T1700,1744A,118.9229,42.2816,赤峰市,松山一中,,29,NA,19,10,14,91,91,124,119,22,17,7,11,0.6,0.6
2026-07-07T1700,1745A,118.9588,42.2733,赤峰市,哈达街,,26,20,16,7,11,82,82,107,107,20,19,12,13,0.4,0.4
2026-07-07T1700,1746A,118.8792,42.2551,赤峰市,天义路,,25,11,13,3,8,78,78,100,100,22,17,8,13,0.5,0.5
2026-07-07T1700,3058A,119.2656,42.0356,赤峰市,银河街,,39,22,27,10,16,122,122,132,132,16,16,16,16,0.8,0.7
2026-07-07T1700,3286A,118.9359,42.3146,赤峰市,桥北物流园区,,24,NA,16,10,10,76,76,108,108,22,23,4,14,0.4,0.4
2026-07-07T1700,2521A,107.3473,22.4137,崇左市,市环保局江州分局,NA,NA,35,26,3,11,69,69,58,58,3,7,4,3,NA,0.6
2026-07-07T1700,4256A,107.375,22.3736,崇左市,石景林东路7号,,20,7,20,3,9,61,61,54,54,3,9,5,5,0.5,0.5
2026-07-07T1700,3207A,118.31131,32.3033,滁州市,市政府原办公楼,,18,NA,14,9,19,57,57,56,56,2,11,5,5,0.3,0.5
2026-07-07T1700,3331A,118.3268,32.2633,滁州市,图书馆,,18,8,16,3,10,56,56,60,60,2,12,7,8,0.3,0.5
2026-07-07T1700,4101A,118.3196,32.3335,滁州市,银山路666号,,20,6,22,3,17,64,64,63,63,6,17,6,4,0.2,0.4
2026-07-07T1700,4102A,118.3426,32.2979,滁州市,黄山路555号,,16,9,23,3,15,49,49,47,47,2,16,7,9,0.2,0.4
2026-07-07T1700,2606A,101.5379,25.0492,楚雄彝族自治州,市经济开发区,,16,6,14,3,7,49,49,44,44,6,9,1,3,0.5,0.5
2026-07-07T1700,4153A,101.5536,25.0343,楚雄彝族自治州,团结路562号,,17,8,11,3,9,53,53,50,50,3,6,1,5,0.4,0.1
2026-07-07T1700,2549A,107.5087,31.2186,达州市,市环境监测站,,45,38,36,18,17,141,141,111,111,13,22,6,6,0.5,0.5
2026-07-07T1700,2550A,107.4988,31.2132,达州市,凤凰小区,,42,31,39,18,19,132,132,113,113,8,21,5,5,0.4,0.4
2026-07-07T1700,2551A,107.5081,31.1987,达州市,达县机关宾馆,,47,31,39,16,19,148,148,132,132,12,31,6,5,0.3,0.3
2026-07-07T1700,2552A,107.4644,31.2124,达州市,市政中心,,48,34,46,21,19,153,153,135,135,10,23,6,6,0.4,0.5
2026-07-07T1700,2614A,100.2168,25.5818,大理白族自治州,大理市环境监测站,,20,8,7,3,4,61,61,52,52,6,6,5,5,0.4,0.4
2026-07-07T1700,2615A,100.1542,25.7055,大理白族自治州,大理古城,,23,9,10,3,5,73,73,62,62,6,8,6,6,0.3,0.3
2026-07-07T1700,1109A,121.6119,38.974,大连市,甘井子,,45,11,22,3,14,144,144,133,133,6,10,8,8,0.6,0.7
2026-07-07T1700,1110A,121.565,38.9509,大连市,周水子,,42,18,23,6,17,132,132,124,124,13,17,7,7,0.8,0.8
2026-07-07T1700,1111A,121.5637,38.8849,大连市,星海三站,,46,22,29,13,19,147,147,123,123,4,6,8,7,0.8,1
2026-07-07T1700,1112A,121.6301,38.9117,大连市,青泥洼桥,,46,8,20,3,15,146,146,131,131,4,8,7,7,0.7,0.8
2026-07-07T1700,1113A,121.6248,38.8643,大连市,傅家庄,,43,18,18,15,18,136,136,116,110,5,7,5,6,0.6,0.7
2026-07-07T1700,1114A,121.5117,38.8636,大连市,七贤岭,,47,22,25,12,16,148,148,126,126,4,5,4,4,0.7,0.8
2026-07-07T1700,1116A,121.7507,39.1339,大连市,金州,,43,10,26,3,17,137,137,133,133,8,12,7,7,0.6,0.6
2026-07-07T1700,1117A,121.7811,39.0495,大连市,开发区,,41,27,37,6,20,131,131,117,117,11,17,5,7,0.5,0.5
2026-07-07T1700,1118A,121.9762,39.0631,大连市,双D港,,31,27,28,17,22,99,99,96,96,17,9,7,6,0.6,0.7
2026-07-07T1700,4082A,121.2548,38.8188,大连市,旅顺,,40,11,24,8,19,128,128,121,118,5,7,6,6,0.4,0.5
2026-07-07T1700,1789A,124.8085,46.0381,大庆市,大同区,,34,15,19,8,10,108,108,120,120,9,9,4,5,0.7,0.6
2026-07-07T1700,1790A,125.1166,46.5255,大庆市,龙凤区,,27,21,19,8,11,84,84,101,101,11,9,2,3,0.3,0.2
2026-07-07T1700,1791A,124.8894,46.4007,大庆市,红岗区,,31,20,14,8,7,99,99,104,104,3,3,8,8,0.6,0.5
2026-07-07T1700,1792A,125.1391,46.578,大庆市,萨尔图区,,32,29,18,16,10,100,100,107,107,8,8,5,5,0.5,0.4
2026-07-07T1700,1793A,124.9026,46.6217,大庆市,让胡路区,,28,26,23,15,14,87,87,103,103,8,9,4,4,0.7,0.6
2026-07-07T1700,3481A,125.127,46.6277,大庆市,萨区政府监测点,,35,26,21,15,13,112,112,120,120,4,3,5,5,0.4,0.3
2026-07-07T1700,1723A,113.2926,40.0759,大同市,云冈宾馆,,35,14,22,6,6,109,109,111,111,7,14,6,8,0.5,0.7
2026-07-07T1700,1724A,113.3437,40.0921,大同市,大同大学,,33,20,24,3,9,105,105,110,110,6,14,6,8,0.4,0.6
2026-07-07T1700,1725A,113.2637,40.129,大同市,安家小村,,35,12,27,3,8,110,110,116,116,4,15,6,8,0.3,0.5
2026-07-07T1700,3282A,113.3399,40.0586,大同市,大同市卫生学校,NA,NA,NA,21,5,7,120,120,120,120,5,13,6,8,0.5,0.6
2026-07-07T1700,3565A,113.1371,40.1122,大同市,云冈站,,35,14,21,7,10,110,110,106,106,6,17,6,8,0.6,0.7
2026-07-07T1700,3566A,113.1186,40.2556,大同市,图书馆,,33,10,20,7,9,103,103,106,106,5,12,7,8,0.6,0.9
2026-07-07T1700,3567A,113.5931,40.0459,大同市,区一中,,37,NA,26,3,8,117,117,116,116,5,18,6,8,0.4,0.5
2026-07-07T1700,4199A,113.2798248,40.09972476,大同市,魏都大道141号,,34,22,27,12,10,107,107,109,109,6,15,5,7,0.4,0.6
2026-07-07T1700,2269A,124.1068,50.4091,大兴安岭地区,科技局,,22,22,22,8,11,43,43,49,44,4,4,11,11,0.2,0.1
2026-07-07T1700,3663A,124.117,50.4279,大兴安岭地区,红旗社区,,15,NA,5,10,8,48,48,53,50,3,3,6,6,0.2,0.2
2026-07-07T1700,1600A,124.33,40.0625,丹东市,江湾东路,,33,10,17,3,11,103,103,104,99,8,7,1,2,0.4,0.5
2026-07-07T1700,1601A,124.4242,40.1513,丹东市,临江后街,,33,6,13,3,12,103,103,97,97,3,5,3,4,0.5,0.5
2026-07-07T1700,1602A,124.3935,40.1461,丹东市,元宝山,,32,10,16,3,14,101,101,92,92,7,7,3,3,0.5,0.7
2026-07-07T1700,1603A,124.3634,40.1093,丹东市,民主桥,,30,13,19,3,14,95,95,93,90,4,4,6,6,0.7,0.8
2026-07-07T1700,3541A,109.5726195,19.51688767,儋州市,第一中学子站,,10,8,12,3,1,31,31,34,34,5,3,2,2,0.7,0.6
2026-07-07T1700,3542A,109.5567,19.5187,儋州市,东坡学校子站,,25,25,11,3,2,31,31,38,37,3,2,1,2,0.6,0.6
2026-07-07T1700,2616A,98.5611,24.4273,德宏傣族景颇族自治州,德宏州监测站,,13,7,6,3,9,40,40,36,36,4,7,4,7,0.5,0.5
2026-07-07T1700,3677A,98.5887,24.4366,德宏傣族景颇族自治州,芒市人民政府综合楼,,26,26,31,7,5,34,34,28,28,7,7,3,3,0.5,0.5
2026-07-07T1700,1901A,104.424,31.1209,德阳市,东山公园,臭氧1小时(O3_1h),114,NA,35,56,40,227,227,126,126,16,13,7,5,1.0,0.8
2026-07-07T1700,1902A,104.3827,31.1318,德阳市,西小区,臭氧1小时(O3_1h),98,68,53,49,46,198,198,122,122,16,20,11,11,1.3,1.1
2026-07-07T1700,1904A,104.3553,31.1091,德阳市,耐火材料厂,臭氧1小时(O3_1h),115,56,54,48,47,230,230,141,141,11,19,4,7,0.7,0.6
2026-07-07T1700,4145A,104.4144,31.1495,德阳市,市林业局,臭氧1小时(O3_1h),128,61,44,46,42,255,255,153,153,17,24,13,12,1.1,0.9
2026-07-07T1700,1622A,116.3034,37.4675,德州市,儿童乐园,臭氧1小时(O3_1h),55,17,23,3,16,164,164,155,155,4,8,9,10,0.7,0.7
2026-07-07T1700,1624A,116.2992,37.4449,德州市,监理站,,50,22,24,3,15,158,158,150,150,5,9,14,15,0.2,0.3
2026-07-07T1700,3066A,116.2722,37.438,德州市,九衢泉纯净水厂,,50,31,26,3,18,158,158,149,149,10,19,13,10,0.7,0.7
2026-07-07T1700,3371A,116.3693,37.44,德州市,开发区人民医院,,50,19,26,3,16,160,160,149,149,6,11,9,10,0.6,0.6
2026-07-07T1700,3511A,116.5687,37.3331,德州市,陵城艺术中心,臭氧1小时(O3_1h),58,17,20,3,14,166,166,152,152,8,12,7,6,0.2,0.5
2026-07-07T1700,4292A,116.352738,37.420875,德州市,新河东路,,50,9,22,3,16,160,160,150,150,10,16,10,11,0.5,0.6
2026-07-07T1700,2621A,99.7054,27.8319,迪庆藏族自治州,迪庆州站,,28,28,17,6,8,44,44,56,53,7,10,5,5,0.2,0.3
2026-07-07T1700,3180A,99.7122,27.8129,迪庆藏族自治州,质量技术监督局,,17,17,15,10,7,47,47,62,51,10,11,8,8,0.2,0.2
2026-07-07T1700,4257A,104.6092,35.5962,定西市,将台街,,44,18,41,9,12,138,138,135,135,3,13,7,6,0.2,0.3
2026-07-07T1700,4309A,104.6159,35.5701,定西市,正龙路62号,,40,30,35,13,11,125,125,116,116,5,9,6,6,0.4,0.3
2026-07-07T1700,4071A,114.9883,38.5232,定州市,交通局,臭氧1小时(O3_1h),107,67,43,23,17,213,213,200,200,12,20,8,7,0.3,0.5
2026-07-07T1700,4072A,115.0045,38.5136,定州市,第五中学,臭氧1小时(O3_1h),106,54,46,29,20,211,211,186,186,10,19,6,5,0.4,0.4
2026-07-07T1700,1390A,113.7943,23.0132,东莞市,东城石井,,29,24,13,20,8,70,70,36,36,19,14,3,2,0.6,0.5
2026-07-07T1700,1391A,113.7384,22.9659,东莞市,南城西平,,28,20,12,19,5,45,45,30,30,25,19,6,6,0.7,0.7
2026-07-07T1700,3319A,113.7283,23.041,东莞市,万江金泰,,25,20,11,17,9,61,61,38,38,25,17,8,8,0.8,0.7
2026-07-07T1700,4129A,113.8666,23.1062,东莞市,裕兴路,,20,20,15,12,7,52,52,33,33,14,19,4,4,0.6,0.5
2026-07-07T1700,4130A,114.0076,22.9739,东莞市,教育路1号,,25,25,16,12,8,54,54,30,30,23,19,6,6,0.8,0.7
2026-07-07T1700,4131A,113.7981,22.8124,东莞市,长怡路1号,,27,27,15,15,7,40,40,29,29,23,16,4,4,0.7,0.6
2026-07-07T1700,1666A,118.6612,37.4313,东营市,市环保局,臭氧1小时(O3_1h),55,6,12,3,5,164,164,137,137,7,11,4,6,0.5,0.4
2026-07-07T1700,3036A,118.6903,37.4337,东营市,开发区管委会,NA,NA,22,15,3,5,169,169,142,142,NA,16,11,13,0.4,0.4
2026-07-07T1700,3365A,118.5721,37.5654,东营市,垦利区民丰路,臭氧1小时(O3_1h),53,14,16,3,6,162,162,136,136,7,12,3,3,0.3,0.4
2026-07-07T1700,3498A,118.5063,37.8606,东营市,河口城区,臭氧1小时(O3_1h),62,14,19,3,10,169,169,142,142,11,15,9,8,0.5,0.7
2026-07-07T1700,3646A,118.4979,37.4623,东营市,胜利站,臭氧1小时(O3_1h),58,26,22,3,10,166,166,138,138,13,15,6,6,0.5,0.7
2026-07-07T1700,3734A,118.5753,37.4405,东营市,理想之城,臭氧1小时(O3_1h),60,7,14,3,5,168,168,143,143,15,17,9,5,0.5,0.4
2026-07-07T1700,1591A,110.0024,39.8127,鄂尔多斯市,综合楼,,41,19,30,3,9,131,131,119,119,8,23,12,12,0.5,0.6
2026-07-07T1700,1592A,109.9485,39.8259,鄂尔多斯市,巴音孟克林场办事处,,39,31,30,9,8,124,124,116,116,8,21,5,6,0.3,0.4
2026-07-07T1700,1593A,109.7734,39.5987,鄂尔多斯市,康泽苑,,38,22,22,3,9,119,119,116,116,4,11,10,11,0.3,0.3
2026-07-07T1700,1594A,109.8121,39.5987,鄂尔多斯市,华泰汽车城,,36,14,26,7,9,114,114,109,109,4,20,9,10,0.4,0.5
2026-07-07T1700,1595A,109.9734,39.7884,鄂尔多斯市,奥林花园,,40,31,35,8,10,126,126,112,112,6,26,2,3,0.4,0.4
2026-07-07T1700,2436A,114.894,30.3989,鄂州市,市政府,NA,NA,NA,30,NA,10,NA,NA,72,NA,NA,8,NA,1,NA,0.4
2026-07-07T1700,2437A,114.8986,30.3714,鄂州市,赵家坝,,20,15,15,3,4,62,62,51,51,2,8,3,25,0.4,0.2
2026-07-07T1700,3654A,114.8093,30.4091,鄂州市,精准医疗中心,,20,12,11,3,4,62,62,51,51,6,11,5,5,0.3,0.4
2026-07-07T1700,2454A,109.4978,30.2979,恩施土家族苗族自治州,湖北民院,,34,27,20,11,8,106,106,88,88,3,4,4,5,0.4,0.5
2026-07-07T1700,3549A,109.5061,30.3771,恩施土家族苗族自治州,龙凤新区,,30,NA,12,8,8,93,93,79,79,4,5,5,6,0.5,0.5
2026-07-07T1700,2499A,108.3411,21.6159,防城港市,沙万,,16,16,20,3,5,25,25,35,33,14,14,2,2,0.7,0.6
2026-07-07T1700,2500A,108.3515,21.7733,防城港市,防城档案局,,17,17,9,8,4,24,24,29,26,13,8,5,4,0.8,0.5
2026-07-07T1700,2501A,108.3506,21.6414,防城港市,大海花园,NA,NA,NA,16,5,4,35,35,42,41,11,9,6,7,0.6,0.4
2026-07-07T1700,1371A,113.1293,23.0065,佛山市,湾梁,,12,NA,8,8,9,34,34,38,38,20,17,/,/,/,/
2026-07-07T1700,1372A,113.1082,23.0477,佛山市,华材职中,,13,NA,9,9,10,37,37,41,41,15,11,6,7,0.3,0.3
2026-07-07T1700,1373A,113.1439,23.045,佛山市,南海气象局,,13,NA,15,9,10,35,35,38,38,23,19,/,/,/,/
2026-07-07T1700,1374A,113.2879,22.8094,佛山市,顺德苏岗,,15,NA,13,10,8,29,29,34,34,24,17,/,/,0.7,0.7
2026-07-07T1700,1376A,112.8384,22.8678,佛山市,高明孔堂,,15,6,14,3,6,46,46,46,46,8,7,/,/,/,/
2026-07-07T1700,1377A,112.8835,23.1584,佛山市,三水监测站,,18,NA,9,12,10,28,28,35,35,22,15,1,2,0.6,0.6
2026-07-07T1700,1378A,112.8668,23.185,佛山市,三水云东海,,16,13,18,11,11,25,25,33,33,23,15,/,/,/,/
2026-07-07T1700,3625A,113.2568,22.7629,佛山市,容桂街道办,,18,NA,5,12,9,27,27,36,36,24,16,/,/,/,/
2026-07-07T1700,1282A,119.2681,26.0506,福州市,师大,,28,28,25,3,7,83,83,77,77,6,7,4,4,0.3,0.3
2026-07-07T1700,1283A,119.2983,26.1028,福州市,五四北路,,38,38,22,9,7,80,80,78,78,10,9,4,4,0.5,0.5
2026-07-07T1700,1284A,119.2648,26.0769,福州市,杨桥西路,,37,37,22,11,7,84,84,78,78,8,9,4,4,/,/
2026-07-07T1700,3048A,119.5799,26.0937,福州市,九龙,,23,22,19,10,5,72,72,76,76,6,4,6,6,0.2,0.2
2026-07-07T1700,3526A,119.5188,25.9666,福州市,吴航,,22,16,16,7,8,70,70,76,76,5,8,6,6,0.5,0.5
2026-07-07T1700,4104A,119.3106,26.0648,福州市,路通桥巷6号,,32,32,24,11,11,77,77,74,74,5,6,/,/,/,/
2026-07-07T1700,1755A,123.7974,41.8494,抚顺市,望花区,,27,26,26,12,10,86,86,118,115,11,12,9,10,0.5,0.6
2026-07-07T1700,1756A,123.9161,41.8827,抚顺市,顺城区,,27,22,17,14,7,85,85,119,117,17,16,10,9,0.9,0.4
2026-07-07T1700,1757A,124.0437,41.8615,抚顺市,东洲区,,30,24,13,11,5,95,95,117,115,11,7,6,6,0.4,0.4
2026-07-07T1700,1758A,123.9246,41.8638,抚顺市,新抚区,,32,28,18,22,8,71,71,118,114,18,9,5,5,1.3,0.6
2026-07-07T1700,1759A,124.0972,41.8961,抚顺市,大伙房水库,,32,12,11,7,4,101,101,120,120,6,8,10,10,0.3,0.3
2026-07-07T1700,1760A,123.708,41.8386,抚顺市,沈抚新城,,39,39,21,15,8,91,91,125,122,11,12,7,7,0.6,0.8
2026-07-07T1700,2377A,116.3544,27.9833,抚州市,市站,,15,13,16,6,4,47,47,42,42,1,2,2,2,0.6,0.5
2026-07-07T1700,2378A,116.3562,27.9631,抚州市,血防站,,16,16,19,7,3,46,46,43,43,4,4,5,5,0.6,0.6
2026-07-07T1700,2379A,116.3561,28.0007,抚州市,采茶剧团,,17,10,15,3,5,53,53,48,48,8,7,8,8,0.5,0.5
2026-07-07T1700,2380A,116.3854,27.9648,抚州市,医学分院,,16,16,19,3,3,47,47,44,44,2,2,3,4,0.8,0.8
2026-07-07T1700,2207A,121.6095,41.9978,阜新市,工业园区,,43,28,26,8,17,135,135,136,136,8,16,6,7,0.3,0.4
2026-07-07T1700,2208A,121.6567,42.0188,阜新市,长青街,,45,20,24,7,14,142,142,147,147,5,12,7,8,0.4,0.5
2026-07-07T1700,2209A,121.6672,42.07,阜新市,农业园区,,41,35,36,10,17,129,129,135,135,6,8,4,5,0.6,0.7
2026-07-07T1700,2211A,121.6343,42.0455,阜新市,玉龙新城,,39,19,24,3,11,122,122,119,119,8,16,3,3,0.6,0.7
2026-07-07T1700,2301A,115.8276,32.8929,阜阳市,市监测站,,22,11,13,3,7,69,69,59,59,6,11,5,5,0.3,0.3
2026-07-07T1700,2303A,115.8551,32.8606,阜阳市,开发区,,20,6,8,3,4,62,62,50,50,4,10,4,4,0.1,0.2
2026-07-07T1700,2875A,115.783962,32.889217,阜阳市,阜阳职业技术学院,,23,12,12,3,4,71,71,60,60,2,6,3,3,0.3,0.3
2026-07-07T1700,3468A,115.79,32.8614,阜阳市,市规划展馆,,21,16,13,3,4,66,66,52,52,4,13,2,2,0.5,0.5
2026-07-07T1700,3469A,115.835101,32.918568,阜阳市,枣园社区,,22,10,12,3,9,68,68,56,56,5,9,1,1,0.4,0.5
2026-07-07T1700,2669A,102.9097,34.9841,甘南藏族自治州,州政府,,50,49,29,35,13,114,114,122,122,3,9,4,4,0.2,0.2
2026-07-07T1700,3380A,102.8915,34.9618,甘南藏族自治州,甘肃民族师范学院,,39,37,30,27,14,120,120,128,128,13,18,4,4,0.3,0.3
2026-07-07T1700,2570A,101.96,30.048,甘孜藏族自治州,水桥子,,37,NA,23,7,12,117,117,96,96,3,16,3,3,0.2,0.2
2026-07-07T1700,3065A,101.9534,29.9976,甘孜藏族自治州,州环保局,,34,17,21,12,12,108,108,89,89,7,16,3,3,0.4,0.3
2026-07-07T1700,2363A,114.9368,25.8663,赣州市,地委,,14,10,15,3,3,42,42,51,51,6,4,3,3,0.7,0.6
2026-07-07T1700,2364A,114.946,25.8483,赣州市,气象台,,24,24,15,3,4,44,44,49,49,6,5,4,4,0.4,0.4
2026-07-07T1700,2365A,114.932,25.8332,赣州市,市图书馆,,20,20,11,3,4,47,47,54,54,6,4,4,3,0.8,0.8
2026-07-07T1700,2366A,114.8905,25.8472,赣州市,华坚鞋城,,23,23,19,3,4,40,40,48,48,12,6,1,1,0.3,0.3
2026-07-07T1700,3109A,115.0094,25.8614,赣州市,赣县区卫计委,,16,12,10,3,4,50,50,50,50,4,2,3,3,0.4,0.4
2026-07-07T1700,2684A,106.2753,36.0057,固原市,监测站,臭氧1小时(O3_1h),53,20,32,6,9,162,162,146,146,4,19,6,7,0.2,0.4
2026-07-07T1700,2685A,106.2384,36.0189,固原市,新区,臭氧1小时(O3_1h),57,29,27,9,7,165,165,147,147,4,18,8,8,0.2,0.3
2026-07-07T1700,2544A,106.6307,30.4577,广安市,市委,,45,22,29,13,21,142,142,132,132,7,13,10,8,0.4,0.5
2026-07-07T1700,2545A,106.6266,30.4662,广安市,友谊中学,,46,26,25,9,20,145,145,137,137,9,14,10,10,0.6,0.5
2026-07-07T1700,2547A,106.6386,30.4551,广安市,广电花园,,48,22,26,15,22,152,152,143,143,6,13,9,9,0.5,0.6
2026-07-07T1700,2902A,106.6347,30.4868,广安市,北辰小学,,45,24,30,14,20,141,141,140,140,5,14,5,6,0.3,0.5
2026-07-07T1700,2524A,105.8211,32.4444,广元市,老城,,41,35,28,17,20,131,131,129,129,4,12,7,9,0.5,0.6
2026-07-07T1700,2526A,105.8629,32.429,广元市,监测站,颗粒物(PM10),52,52,46,17,20,146,146,148,148,5,13,6,5,0.4,0.6
2026-07-07T1700,3617A,105.8047,32.4167,广元市,经开区,,41,35,36,26,21,129,129,125,125,6,12,5,6,0.5,0.7
2026-07-07T1700,1345A,113.2346,23.1423,广州市,广雅中学,,13,12,13,8,8,39,39,39,39,22,17,4,4,0.6,0.5
2026-07-07T1700,1346A,113.2611,23.105,广州市,市五中,,15,12,12,10,9,48,48,48,48,20,16,3,3,/,/
2026-07-07T1700,1348A,113.3477,23.0916,广州市,广东商学院,,18,14,13,8,7,57,57,40,40,17,16,4,4,0.5,0.5
2026-07-07T1700,1349A,113.4332,23.105,广州市,市八十六中,,20,14,11,10,8,61,61,36,36,33,25,6,6,/,/
2026-07-07T1700,1350A,113.3506,22.9488,广州市,番禺中学,,13,9,10,9,7,36,36,37,37,17,14,5,5,0.3,0.3
2026-07-07T1700,1351A,113.2147,23.3918,广州市,花都师范,,20,18,14,14,9,55,55,52,52,19,18,3,3,0.6,0.6
2026-07-07T1700,1352A,113.2599,23.1329,广州市,市监测站,,17,13,13,7,8,52,52,47,47,17,13,2,2,/,/
2026-07-07T1700,1353A,113.5618,23.3119,广州市,九龙镇镇龙,,16,13,12,11,9,51,51,38,38,16,18,6,6,0.6,0.6
2026-07-07T1700,1354A,113.2764,23.1544,广州市,麓湖,,17,14,12,10,8,52,52,43,43,17,14,5,5,0.4,0.4
2026-07-07T1700,2846A,113.3209,23.1323,广州市,体育西,,19,12,14,9,8,60,60,42,42,28,23,5,5,0.5,0.4
2026-07-07T1700,3298A,113.5718,23.5493,广州市,从化街口,,17,6,11,3,7,54,54,48,48,7,10,7,7,0.4,0.5
2026-07-07T1700,3299A,113.3463,23.369,广州市,白云竹料,,20,17,16,10,10,62,62,49,49,15,16,3,3,0.6,0.6
2026-07-07T1700,3300A,113.2981,23.2365,广州市,白云嘉禾,,16,15,15,10,9,50,50,43,43,27,20,6,5,/,/
2026-07-07T1700,3301A,113.4256,23.1716,广州市,黄埔科学城,,22,22,14,15,9,30,30,21,21,26,20,7,7,0.3,0.3
2026-07-07T1700,3302A,113.3942,23.0485,广州市,番禺大学城,,36,36,15,8,4,58,58,48,48,23,18,2,1,0.5,0.5
2026-07-07T1700,3303A,113.4923,22.8169,广州市,南沙黄阁,,18,12,9,12,6,33,33,42,41,19,11,6,6,/,/
2026-07-07T1700,3304A,113.534,22.7893,广州市,南沙街,,13,NA,8,9,5,30,30,40,39,22,12,8,8,0.5,0.4
2026-07-07T1700,3443A,113.2905,23.5541,广州市,花都梯面,,22,13,17,7,9,69,69,54,54,12,14,9,9,/,/
2026-07-07T1700,3445A,113.786,23.7479,广州市,从化良口,,15,7,9,3,5,45,45,40,40,6,8,4,4,/,/
2026-07-07T1700,3446A,113.805,23.2614,广州市,增城荔城,,17,9,11,7,6,52,52,36,36,10,15,8,7,0.5,0.5
2026-07-07T1700,2506A,109.604387,23.066791,贵港市,江南子站,NA,NA,NA,NA,NA,NA,NA,NA,NA,NA,NA,NA,NA,NA,NA,NA
2026-07-07T1700,2508A,109.5669,23.1065,贵港市,荷城子站,NA,NA,NA,NA,NA,NA,NA,NA,NA,NA,NA,NA,NA,NA,NA,NA
2026-07-07T1700,3405A,109.5886,23.1172,贵港市,新世纪学校,NA,NA,NA,NA,NA,NA,NA,NA,NA,NA,NA,NA,NA,NA,NA,NA
2026-07-07T1700,4260A,109.5933,23.095,贵港市,中山路155-3号,,18,6,12,3,6,56,56,32,32,10,10,/,/,0.5,0.6
2026-07-07T1700,1439A,106.6863,26.6035,贵阳市,马鞍山,,29,12,12,8,9,90,90,71,71,4,7,4,2,/,/
2026-07-07T1700,1441A,106.6241,26.6266,贵阳市,鉴湖路,,31,31,27,13,7,96,96,71,71,6,7,8,8,0.3,0.4
2026-07-07T1700,1442A,106.7468,26.6344,贵阳市,燕子冲,,25,24,22,13,9,80,80,69,69,8,9,9,8,0.1,0.3
2026-07-07T1700,1443A,106.6556,26.4362,贵阳市,碧云窝,,27,27,27,9,9,76,76,64,64,3,6,7,5,/,/
2026-07-07T1700,1445A,106.6963,26.6063,贵阳市,红边门,,28,22,18,3,8,88,88,71,71,6,10,16,10,/,/
2026-07-07T1700,1446A,106.7162383,26.56964667,贵阳市,新华路,,31,31,27,8,8,87,87,76,76,8,9,84,23,0.6,0.7
2026-07-07T1700,1447A,106.6742,26.542,贵阳市,太慈桥,,25,17,18,7,9,80,80,70,70,5,10,2,3,/,/
2026-07-07T1700,4230A,106.688212,26.56952,贵阳市,花果园大街66号,,29,14,19,10,9,91,91,74,74,5,8,2,2,/,/
2026-07-07T1700,4231A,106.687268,26.516892,贵阳市,漓江路57号,NA,NA,19,15,11,9,78,78,63,63,5,9,2,2,NA,0.5
2026-07-07T1700,1864A,110.3091,25.2705,桂林市,龙隐路小学,,20,14,12,14,4,45,45,45,45,3,4,4,4,0.5,0.5
2026-07-07T1700,1865A,110.2849361,25.22909545,桂林市,八中,,17,17,10,3,2,43,43,44,44,7,7,4,4,0.7,0.7
2026-07-07T1700,3531A,110.296,25.1254,桂林市,旅游学院,,15,11,19,6,3,48,48,47,47,2,3,6,4,0.3,0.3
2026-07-07T1700,4222A,110.1835,25.2444,桂林市,环湖路276号,,17,6,4,3,4,52,52,48,48,2,2,4,4,0.3,0.3
2026-07-07T1700,4301A,110.2803,25.2773,桂林市,信义路13号,,13,11,11,3,5,41,41,42,42,2,5,4,4,0.5,0.5
2026-07-07T1700,2674A,100.2262,34.4854,果洛藏族自治州,玛沁县大武镇,颗粒物(PM10),51,51,23,15,7,109,109,102,102,1,2,20,17,0.3,0.4
2026-07-07T1700,1130A,126.5557,45.8109,哈尔滨市,松北商大,,32,NA,16,12,14,100,100,108,108,6,10,5,5,0.4,0.4
2026-07-07T1700,1132A,126.6162,45.719,哈尔滨市,南岗学府路,,31,21,28,3,8,97,97,103,103,9,12,6,6,0.3,0.3
2026-07-07T1700,1133A,126.6894,45.7733,哈尔滨市,太平宏伟公园,,31,26,18,3,6,98,98,101,101,6,13,5,7,0.2,0.2
2026-07-07T1700,1134A,126.6361,45.7672,哈尔滨市,道外承德广场,,32,26,33,3,8,101,101,104,104,9,12,5,5,0.4,0.2
2026-07-07T1700,1136A,126.644,45.7261,哈尔滨市,动力和平路,,32,9,18,3,7,100,100,105,105,10,15,7,5,0.2,0.3
2026-07-07T1700,1137A,126.5933,45.7479,哈尔滨市,道里建国路,,32,19,20,10,12,102,102,107,106,5,10,5,5,1.1,1.4
2026-07-07T1700,1138A,126.6127,45.6119,哈尔滨市,平房东轻厂,,30,10,13,3,7,96,96,100,100,14,11,3,6,0.4,0.5
2026-07-07T1700,1139A,126.5875,45.9827,哈尔滨市,呼兰师专,,31,26,14,3,6,99,99,105,105,11,15,8,6,0.4,0.1
2026-07-07T1700,1140A,126.6299,45.6799,哈尔滨市,省农科院,颗粒物(PM10),56,58,33,9,10,73,73,89,88,17,18,5,5,0.5,0.5
2026-07-07T1700,4282A,126.6769,45.7379,哈尔滨市,华山路1号,,35,12,19,3,6,109,109,112,112,4,9,4,3,0.1,0.1
2026-07-07T1700,4283A,126.9717,45.5356,哈尔滨市,解放大街52号,,28,13,17,3,6,88,88,95,95,4,8,7,6,0.5,0.4
2026-07-07T1700,2688A,93.5124,42.8176,哈密市,地区监测站,,38,16,22,10,14,119,119,119,119,2,6,8,6,0.0,0
2026-07-07T1700,2689A,93.5014,42.8312,哈密市,哈密师范学校,,35,26,33,8,15,109,109,110,110,5,10,8,8,0.1,0.2
2026-07-07T1700,2671A,100.9016,36.9464,海北藏族自治州,海晏县西海镇,,43,16,22,12,17,135,135,136,136,1,4,6,7,0.4,0.4
2026-07-07T1700,3867A,102.074,36.5056,海东市,平安区公安局北苑,,43,NA,24,28,22,135,135,136,136,3,9,5,9,0.4,0.5
2026-07-07T1700,4163A,102.0984,36.5119,海东市,滨河路,,46,46,31,21,22,123,123,128,128,10,19,6,8,0.5,0.6
2026-07-07T1700,1410A,110.3189,20.0596,海口市,海南大学,,16,9,14,3,7,50,50,51,51,6,6,5,5,0.4,0.4
2026-07-07T1700,1411A,110.2827,20.0051,海口市,秀英海南医院,,16,8,14,3,8,51,51,49,49,5,8,5,5,0.3,0.3
2026-07-07T1700,1412A,110.3391,19.9979,海口市,海南师范大学,,16,8,16,6,8,50,50,49,49,3,5,3,3,0.4,0.4
2026-07-07T1700,1413A,110.3303,20.0359,海口市,龙华路环保局宿舍,,17,11,17,6,8,54,54,53,53,4,5,/,/,0.3,0.3
2026-07-07T1700,3539A,110.5111,19.9737,海口市,桂林洋子站,,15,10,16,6,8,48,48,44,44,2,4,/,/,/,/
2026-07-07T1700,4134A,110.1952,20.0451,海口市,长滨二路9号,,13,9,13,3,8,41,41,45,45,5,6,/,/,/,/
2026-07-07T1700,2673A,100.6158,36.2985,海南藏族自治州,共和县恰卜恰镇,,43,20,23,15,14,136,136,132,132,4,11,8,10,0.4,0.5
2026-07-07T1700,2676A,97.373,37.376,海西蒙古族藏族自治州,德令哈市,颗粒物(PM10),51,51,26,20,11,130,130,124,124,1,1,11,16,0.4,0.4
2026-07-07T1700,1049A,114.492,36.5712,邯郸市,矿院,,48,NA,18,24,17,153,153,147,147,1,2,1,2,0.4,0.4
2026-07-07T1700,1050A,114.4839,36.6136,邯郸市,丛台公园,,48,33,20,20,15,151,151,148,148,3,6,4,7,0.3,0.4
2026-07-07T1700,3458A,114.7893,36.5592,邯郸市,香泉濮院小区,,44,NA,10,20,16,138,138,124,124,7,9,3,3,0.3,0.3
2026-07-07T1700,3580A,114.1998,36.4439,邯郸市,峰峰矿区临水派出所,NA,NA,31,33,30,26,172,172,165,165,NA,11,5,9,0.5,0.6
2026-07-07T1700,4068A,114.5209,36.7697,邯郸市,建安街268号,臭氧1小时(O3_1h),68,22,24,18,15,174,174,162,162,15,17,3,2,0.4,0.4
2026-07-07T1700,4069A,114.5488,36.6177,邯郸市,丛台东路558号,,43,36,26,22,12,135,135,129,129,2,3,3,3,0.3,0.3
2026-07-07T1700,2635A,107.0155,33.0707,汉中市,市监测站,,46,30,38,12,26,146,146,134,134,8,12,5,5,0.4,0.5
2026-07-07T1700,2636A,107.0083,33.114,汉中市,鑫源开发区,臭氧1小时(O3_1h),57,40,34,16,22,165,165,149,149,8,15,6,6,0.8,0.6
2026-07-07T1700,2637A,107.0072,33.0323,汉中市,南郑大河坎水厂,,43,31,37,12,26,136,136,119,119,6,13,5,3,0.4,0.5
2026-07-07T1700,1223A,120.2073,30.2111,杭州市,滨江,,27,15,26,6,12,86,86,97,97,12,21,5,5,0.4,0.5
2026-07-07T1700,1224A,120.0625,30.2737,杭州市,西溪,,20,NA,13,3,8,64,64,74,74,4,9,4,4,0.7,0.8
2026-07-07T1700,1226A,120.3417,30.315,杭州市,下沙,,26,18,23,9,14,82,82,108,107,13,32,4,4,0.4,0.6
2026-07-07T1700,1227A,120.1252,30.2465,杭州市,卧龙桥,,24,11,15,3,7,74,74,80,80,7,12,5,5,0.2,0.3
2026-07-07T1700,1228A,120.1902,30.2691,杭州市,浙江农大,,24,13,24,6,13,75,75,80,80,8,23,6,6,0.3,0.4
2026-07-07T1700,1230A,120.1195,30.3121,杭州市,和睦小学,,19,14,16,3,11,59,59,68,68,3,11,7,8,0.6,0.7
2026-07-07T1700,1231A,120.3076,30.4146,杭州市,临平镇,,25,15,34,3,16,80,80,99,99,4,26,6,7,0.4,0.6
2026-07-07T1700,1232A,120.2753,30.1839,杭州市,城厢镇,,25,24,26,10,12,79,79,96,96,9,17,5,5,0.4,0.5
2026-07-07T1700,1233A,120.0883,30.1808,杭州市,云栖,,22,16,22,3,8,68,68,76,76,13,14,5,5,0.5,0.6
2026-07-07T1700,3557A,119.9463,30.0496,杭州市,镇二中,,20,20,22,3,10,60,60,76,76,7,20,5,6,0.5,0.7
2026-07-07T1700,3558A,119.7184,30.2367,杭州市,市府大楼,,26,26,17,9,10,41,41,48,48,5,10,8,8,0.3,0.3
2026-07-07T1700,3656A,120.1554,30.2863,杭州市,消防大队,,21,14,18,3,11,67,67,78,78,3,13,8,8,0.8,0.9
2026-07-07T1700,1270A,117.1957,31.7845,合肥市,明珠广场,,14,NA,12,3,7,42,42,45,45,9,9,7,7,0.4,0.4
2026-07-07T1700,1271A,117.307,31.8765,合肥市,三里街,,14,6,14,3,5,43,43,45,45,8,12,8,9,0.5,0.5
2026-07-07T1700,1272A,117.2587,31.8703,合肥市,琥珀山庄,,15,6,13,3,5,46,46,48,48,3,6,6,6,0.5,0.5
2026-07-07T1700,1275A,117.2593,31.9376,合肥市,庐阳区,,17,6,13,3,6,52,52,50,50,8,14,8,9,0.6,0.7
2026-07-07T1700,1276A,117.345251,31.861615,合肥市,瑶海区,,14,9,15,3,6,43,43,45,45,8,12,8,9,0.5,0.5
2026-07-07T1700,1277A,117.3033,31.7967,合肥市,包河区,,15,6,15,3,6,47,47,46,46,9,18,5,8,0.6,0.6
2026-07-07T1700,1278A,117.278,31.7392,合肥市,滨湖新区,,14,6,11,3,5,43,43,42,42,8,7,14,12,0.6,0.6
2026-07-07T1700,1279A,117.1324,31.8395,合肥市,高新区,,15,7,13,3,6,48,48,48,48,6,7,8,8,0.4,0.5
2026-07-07T1700,3464A,117.3802,31.9148,合肥市,高教基地,,13,9,13,3,5,39,39,42,42,4,7,5,5,0.4,0.4
2026-07-07T1700,4098A,117.2518,31.8404,合肥市,中国科学技术大学,,15,6,12,3,6,48,48,52,52,8,9,8,9,0.6,0.6
2026-07-07T1700,3614A,79.9241,37.0878,和田地区,地区环保局,细颗粒物(PM2.5),233,310,313,183,121,70,70,113,91,14,6,1,2,0.5,0.2
2026-07-07T1700,3615A,79.9132,37.1137,和田地区,市环保局,颗粒物(PM10),193,336,335,135,116,77,77,115,97,25,12,1,2,0.6,0.3
2026-07-07T1700,2517A,108.0496,24.6957,河池市,市环保站,,26,26,12,10,5,55,55,45,45,4,4,5,5,0.8,0.8
2026-07-07T1700,4302A,108.0901,24.6945,河池市,上任中路54号,,17,11,15,3,8,53,53,47,47,2,4,5,6,0.7,0.8
2026-07-07T1700,1697A,114.6962,23.7538,河源市,东埔,,15,9,12,3,7,46,46,38,38,5,8,4,4,0.6,0.6
2026-07-07T1700,1698A,114.6895,23.7232,河源市,老城,,16,6,12,6,7,49,49,41,41,6,9,6,7,0.8,0.8
2026-07-07T1700,3374A,115.5562,35.089,菏泽市,定陶老年大学,,43,9,7,3,4,137,137,120,120,5,7,2,2,0.3,0.3
2026-07-07T1700,4114A,115.4239,35.2593,菏泽市,黄河路600号,,26,18,9,3,4,82,82,106,88,2,3,4,5,0.2,0.2
2026-07-07T1700,4115A,115.5025,35.2727,菏泽市,菏泽市人社局,,26,8,6,3,5,81,81,108,88,4,10,3,6,0.2,0.2
2026-07-07T1700,4184A,115.479691,35.244011,菏泽市,永昌路1号,NA,NA,18,9,NA,3,90,90,116,97,2,5,7,5,0.0,0
2026-07-07T1700,4193A,115.471542,35.280012,菏泽市,长城路999号,NA,NA,11,5,NA,6,86,86,111,92,4,6,6,5,0.3,0.3
2026-07-07T1700,2514A,111.5264,24.4178,贺州市,环保小区,,15,13,15,3,8,46,46,44,44,9,8,8,8,0.4,0.3
2026-07-07T1700,2515A,111.561,24.4074,贺州市,政协大楼,,19,8,7,3,7,59,59,61,61,9,10,12,14,0.4,0.4
2026-07-07T1700,3534A,111.4744,24.455,贺州市,西湾,,19,19,16,7,5,44,44,46,46,9,10,12,10,0.3,0.3
2026-07-07T1700,2385A,114.17,35.9019,鹤壁市,市监测站,细颗粒物(PM2.5),88,NA,29,54,29,103,103,99,99,6,7,3,2,0.5,0.6
2026-07-07T1700,2386A,114.2953,35.7512,鹤壁市,市交警支队,,38,32,21,26,16,109,109,88,88,9,11,6,6,0.5,0.4
2026-07-07T1700,2387A,114.2877,35.7302,鹤壁市,迎宾馆,,41,32,20,27,16,129,129,102,102,4,7,6,6,0.6,0.6
2026-07-07T1700,3474A,114.2616,35.6824,鹤壁市,大新区,,48,46,21,33,19,128,128,97,97,6,10,5,5,0.5,0.5
2026-07-07T1700,3596A,114.1573,35.9607,鹤壁市,南山宾馆,细颗粒物(PM2.5),74,NA,23,47,33,111,111,110,110,7,8,9,8,0.3,0.4
2026-07-07T1700,2244A,130.2537,47.3416,鹤岗市,哈啤分公司,,24,24,16,14,9,60,60,69,69,10,9,3,3,0,0
2026-07-07T1700,2245A,130.2683,47.3087,鹤岗市,斯达机电,,18,NA,12,12,9,46,46,57,57,7,7,5,5,0.2,0.2
2026-07-07T1700,2246A,130.3114,47.3388,鹤岗市,东山纸板厂,,15,13,19,8,6,47,47,49,48,10,10,6,6,0.2,0.2
2026-07-07T1700,2263A,127.4832,50.2524,黑河市,交通局,,18,18,17,11,7,51,51,49,49,4,6,5,5,0.1,0.1
2026-07-07T1700,2264A,127.5146,50.2339,黑河市,环保局,,17,16,12,7,6,53,53,49,49,7,7,6,6,0.2,0.2
2026-07-07T1700,1074A,115.6839,37.754,衡水市,电机北厂,臭氧1小时(O3_1h),77,31,33,7,13,181,181,156,156,4,7,5,3,0.4,0.4
2026-07-07T1700,1075A,115.6303,37.7318,衡水市,市监测站,臭氧1小时(O3_1h),77,32,38,12,11,181,181,157,157,7,8,4,10,0.3,0.5
2026-07-07T1700,3188A,115.6684,37.7216,衡水市,市城管局,臭氧1小时(O3_1h),70,27,32,14,15,176,176,154,154,3,7,7,5,0.3,0.3
2026-07-07T1700,3459A,115.599,37.5491,衡水市,地表水厂,臭氧1小时(O3_1h),73,38,33,13,15,178,178,156,156,4,10,2,2,0.2,0.2
2026-07-07T1700,2457A,112.6209,26.9268,衡阳市,衡阳化工总厂,,19,11,11,3,3,60,60,53,53,2,5,5,3,0.6,0.5
2026-07-07T1700,2458A,112.621,26.8957,衡阳市,珠晖区环保局,,20,19,12,3,3,61,61,53,53,2,3,6,6,0.7,0.8
2026-07-07T1700,2459A,112.628,26.8654,衡阳市,市委党校,,19,8,11,3,4,58,58,51,51,2,3,3,4,0.3,0.3
2026-07-07T1700,2460A,112.6007,26.8977,衡阳市,市监测站,NA,NA,10,9,NA,3,64,64,56,56,3,5,1,2,0.5,0.6
2026-07-07T1700,2461A,112.5658,26.9013,衡阳市,真空机电公司,,20,8,13,3,5,64,64,59,59,7,8,7,9,0.9,1.3
2026-07-07T1700,3399A,112.6703,26.8817,衡阳市,师范学院,,19,6,11,3,4,60,60,54,54,1,3,8,8,0.5,0.5
2026-07-07T1700,3038A,103.3757,23.3679,红河哈尼族彝族自治州,州图书馆,,18,18,13,9,9,39,39,46,46,6,4,4,4,0.3,0.2
2026-07-07T1700,4154A,103.401,23.3561,红河哈尼族彝族自治州,蒙自市朝阳路,,12,12,12,8,7,34,34,46,46,10,4,10,8,0.3,0.2
2026-07-07T1700,1090A,111.6506,40.7517,呼和浩特市,呼市一监,,39,9,16,3,9,123,123,116,114,2,14,8,7,0.4,0.5
2026-07-07T1700,1094A,111.7516,40.8369,呼和浩特市,如意水处理厂,,32,6,15,3,8,100,100,111,111,2,15,6,7,0.4,0.5
2026-07-07T1700,1095A,111.727798,40.806187,呼和浩特市,二十九中,,36,NA,18,13,14,115,115,113,113,5,13,10,10,0.4,0.7
2026-07-07T1700,1097A,111.717,40.7617,呼和浩特市,化肥厂生活区,,38,10,19,7,15,121,121,114,114,8,18,12,12,0.6,0.7
2026-07-07T1700,3699A,111.6519,40.8389,呼和浩特市,海东办,,31,7,11,3,4,99,99,107,107,3,18,6,7,0.2,0.2
2026-07-07T1700,4275A,111.591512,40.827312,呼和浩特市,成吉思汗西街8号,,28,12,15,3,4,87,87,100,100,10,24,4,5,0.2,0.3
2026-07-07T1700,4276A,111.6597,40.8077,呼和浩特市,公园东路75号,,36,12,14,3,6,114,114,119,119,7,15,12,12,0.6,0.7
2026-07-07T1700,4277A,111.5427,40.7846,呼和浩特市,金海路35号,,33,20,26,3,11,104,104,92,92,9,24,5,7,0.4,0.5
2026-07-07T1700,3061A,119.7511,49.1576,呼伦贝尔市,国华电力东,,24,10,14,10,10,74,74,76,72,6,6,4,4,0.3,0.3
2026-07-07T1700,4279A,119.7569,49.2222,呼伦贝尔市,伊敏大街东7号,,23,NA,13,13,10,73,73,72,68,8,9,6,6,0.7,0.6
2026-07-07T1700,1250A,120.075,30.867,湖州市,城西水厂,,15,11,32,6,17,45,45,79,77,16,22,5,6,0.3,0.4
2026-07-07T1700,2873A,120.083,30.8929,湖州市,仁皇山新区,,17,15,26,11,17,53,53,89,84,17,25,5,5,0.4,0.6
2026-07-07T1700,2907A,120.1846,30.8592,湖州市,吴兴区站,,22,14,29,7,21,69,69,92,92,9,18,4,4,0.4,0.5
2026-07-07T1700,3562A,120.4146,30.8538,湖州市,南浔区站,,26,26,27,7,23,74,74,94,94,5,13,6,6,0.6,0.7
2026-07-07T1700,1607A,120.904878,40.721091,葫芦岛市,龙港区,,47,14,28,12,19,148,148,143,143,4,4,6,6,0.4,0.5
2026-07-07T1700,1608A,120.8382,40.7521,葫芦岛市,化工街,,46,NA,27,19,19,145,145,147,147,10,10,9,9,0.3,0.4
2026-07-07T1700,1609A,120.8339,40.7078,葫芦岛市,新区,,45,NA,28,14,22,141,141,140,140,3,4,2,3,0.4,0.5
2026-07-07T1700,1610A,120.8697,40.7679,葫芦岛市,东城区,,46,NA,29,26,24,145,145,148,148,5,8,3,3,0.5,0.6
2026-07-07T1700,2483A,109.9297,27.5383,怀化市,河西地税局,,18,8,9,3,4,55,55,50,50,3,5,5,5,/,/
2026-07-07T1700,2484A,109.9783,27.5342,怀化市,市四医院,,20,8,15,3,4,62,62,58,58,5,8,6,6,0.1,0.1
2026-07-07T1700,2485A,109.9971,27.5579,怀化市,监测楼,,22,11,17,3,6,68,68,61,61,7,7,9,9,0.2,0.3
2026-07-07T1700,1210A,119.0566,33.5991,淮安市,钵池山,,36,6,12,3,8,115,115,85,85,8,14,6,6,0.3,0.5
2026-07-07T1700,1211A,119.0083,33.578,淮安市,北京南路,,37,9,14,3,8,117,117,84,84,6,10,6,6,0.5,0.7
2026-07-07T1700,1212A,118.9938,33.6083,淮安市,市监测站,,35,NA,5,7,6,111,111,88,88,11,14,6,6,0.5,0.7
2026-07-07T1700,1213A,119.135,33.5038,淮安市,楚州区监测站,,36,NA,8,3,9,114,114,73,73,7,11,5,5,0.5,0.6
2026-07-07T1700,3426A,118.8757,33.2897,淮安市,新华书店,,34,7,15,7,9,107,107,66,66,12,15,7,8,0.8,0.8
2026-07-07T1700,4092A,119.119691,33.550006,淮安市,枚皋中路89号,,37,8,13,3,8,116,116,83,83,10,14,8,8,0.5,0.7
2026-07-07T1700,4206A,119.028838,33.631911,淮安市,承德北路606号,,35,NA,10,3,7,109,109,88,88,4,8,6,7,0.5,0.8
2026-07-07T1700,2282A,116.8005,33.9749,淮北市,监测站,,35,13,13,3,5,110,110,94,94,4,10,6,6,0.3,0.3
2026-07-07T1700,2283A,116.8094,33.9008,淮北市,烈山区政府,,38,NA,12,3,5,119,119,102,102,1,8,4,4,0.3,0.4
2026-07-07T1700,4017A,116.7926,33.9534,淮北市,市博物馆,NA,NA,NA,12,3,8,123,123,103,103,4,9,4,3,NA,0.4
2026-07-07T1700,4100A,116.8322,33.9884,淮北市,杜集区第一实验学校,,30,15,21,3,6,96,96,84,84,4,10,3,5,0.5,0.6
2026-07-07T1700,2277A,116.8304,32.7726,淮南市,潘集区政府,,18,NA,8,6,4,56,56,47,45,1,5,6,5,0.2,0.1
2026-07-07T1700,2279A,116.8569,32.5949,淮南市,谢家集区政府,,17,8,7,3,5,52,52,43,41,3,9,7,7,0.0,0.1
2026-07-07T1700,2280A,116.8279,32.6333,淮南市,八公山区政府,,17,7,9,3,4,52,52,43,43,4,6,5,6,0.1,0.1
2026-07-07T1700,2894A,117.0561,32.6536,淮南市,经济技术开发区消防队,,17,7,6,3,5,54,54,50,50,1,7,7,7,0.3,0.3
2026-07-07T1700,3329A,117.011,32.5891,淮南市,山南新区,NA,NA,5,7,NA,8,43,43,38,37,2,5,10,10,0.4,0.4
2026-07-07T1700,4209A,117.003137,32.644456,淮南市,国庆中路369号,,14,12,11,3,5,43,43,36,34,5,9,8,8,0.1,0.1
2026-07-07T1700,2446A,114.9021,30.474,黄冈市,职工中心,,19,9,9,3,5,60,60,48,48,2,5,8,9,0.3,0.8
2026-07-07T1700,2929A,114.8858,30.4519,黄冈市,红卫路,,20,9,8,9,5,62,62,47,47,2,8,6,6,0.1,0.1
2026-07-07T1700,3398A,114.9134,30.4446,黄冈市,市林业局,,21,11,9,3,5,65,65,52,52,4,7,4,4,0.4,0.4
2026-07-07T1700,2672A,102.02,35.5101,黄南藏族自治州,同仁县隆务镇,,48,20,25,9,12,153,153,132,132,1,1,10,11,0.2,0.2
2026-07-07T1700,2295A,118.2905,29.6965,黄山市,延安路89号,,17,7,14,3,7,52,52,49,49,2,6,2,2,0.3,0.4
2026-07-07T1700,2297A,118.1369,30.2755,黄山市,黄山区政府5号楼,,14,12,18,3,6,44,44,48,47,3,3,3,3,0.7,0.6
2026-07-07T1700,4210A,118.335445,29.720283,黄山市,滨江东路7-2号,,18,18,24,3,4,52,52,51,51,2,4,/,/,/,/
2026-07-07T1700,2423A,115.0547,30.2332,黄石市,沈家营,,21,21,26,3,4,37,37,33,33,1,6,5,5,0.3,0.3
2026-07-07T1700,2426A,114.899,30.211,黄石市,铁山,,17,14,15,3,4,54,54,45,45,1,6,4,4,0.2,0.3
2026-07-07T1700,2427A,115.0259,30.2108,黄石市,团城山,,15,12,19,3,3,46,46,36,36,2,4,4,4,0.6,0.5
2026-07-07T1700,3149A,115.0174,30.1591,黄石市,笔架山北路,,22,22,28,3,5,47,47,36,36,2,3,4,4,0.2,0.2
2026-07-07T1700,4185A,115.078022,30.21118,黄石市,磁湖东路29号,,21,6,17,3,5,67,67,46,46,3,7,5,4,0.6,0.5
2026-07-07T1700,1392A,114.4181,23.0528,惠州市,河南岸金山湖子站,,18,9,10,6,6,57,57,40,40,7,10,10,7,0.5,0.5
2026-07-07T1700,1393A,114.4055,23.0824,惠州市,下埔横江三路子站,,20,17,13,7,7,61,61,44,44,7,8,9,5,0.6,0.6
2026-07-07T1700,1395A,114.4645,22.7832,惠州市,惠阳区承修路船湖子站,,18,17,12,7,5,55,55,40,40,6,9,3,3,0.6,0.6
2026-07-07T1700,1396A,114.5316,22.7423,惠州市,大亚湾管委会子站,,18,14,11,6,3,55,55,45,45,7,12,6,6,0.3,0.2
2026-07-07T1700,3314A,114.4334,22.8134,惠州市,惠阳秋长,,20,12,9,8,9,61,61,42,42,14,15,/,/,/,/
2026-07-07T1700,3452A,114.6521,22.7755,惠州市,大亚湾霞涌,,26,26,12,6,3,52,52,40,NA,2,7,/,/,/,/
2026-07-07T1700,4300A,114.4089,23.1147,惠州市,文华一路1号,,18,9,9,6,5,56,56,41,41,7,9,/,/,/,/
2026-07-07T1700,2240A,130.9618,45.2926,鸡西市,环保局,,18,18,14,10,13,50,50,64,56,12,9,11,10,0.3,0.3
2026-07-07T1700,2243A,130.9294,45.2959,鸡西市,第一中学,,19,14,14,13,12,46,46,57,52,11,8,5,4,0.4,0.3
2026-07-07T1700,3707A,131.0069,45.2988,鸡西市,欧美日汽修厂,,20,20,15,8,8,46,46,60,50,6,5,6,7,0.4,0.4
2026-07-07T1700,2367A,114.9753,27.0803,吉安市,红声器材厂,,22,22,20,3,3,57,57,53,53,4,5,6,6,0.2,0.2
2026-07-07T1700,2369A,114.9903,27.1313,吉安市,市环境监测站,,20,20,17,3,2,52,52,49,49,2,3,12,12,/,/
2026-07-07T1700,2370A,115.009527,27.096792,吉安市,青原区法院,,17,16,19,3,3,54,54,51,51,5,4,6,7,0.3,0.2
2026-07-07T1700,1772A,126.54,43.8622,吉林市,哈达湾,,25,12,14,8,8,80,80,78,78,9,10,5,5,0.4,0.4
2026-07-07T1700,1773A,126.5843,43.8358,吉林市,东局子,,21,12,13,8,8,67,67,71,71,7,6,3,3,0.4,0.4
2026-07-07T1700,1774A,126.5051,43.8243,吉林市,电力学院,,26,NA,7,7,8,82,82,83,83,4,5,5,5,0.3,0.4
2026-07-07T1700,1775A,126.6133,43.8971,吉林市,江北,,24,16,15,8,10,75,75,76,76,3,3,7,7,0.6,0.6
2026-07-07T1700,1776A,126.5549,43.8304,吉林市,江南公园,,23,10,11,8,8,71,71,70,70,4,5,4,4,0.4,0.4
2026-07-07T1700,2868A,126.4737,43.953,吉林市,九站,,27,17,16,9,10,86,86,90,90,5,9,3,3,0.3,0.3
2026-07-07T1700,1299A,116.9866,36.6118,济南市,科干所,,48,9,11,3,4,151,151,134,134,12,12,5,5,0.4,0.5
2026-07-07T1700,1300A,116.9379,36.6652,济南市,农科所,,46,10,13,3,4,147,147,131,131,9,10,4,3,0.1,0.1
2026-07-07T1700,1301A,117.1265,36.6736,济南市,开发区,,43,17,15,3,5,137,137,133,133,8,7,6,6,0.5,0.5
2026-07-07T1700,1303A,117.0616,36.6865,济南市,省种子仓库,,47,17,15,3,4,148,148,143,143,5,8,6,5,0.3,0.3
2026-07-07T1700,1304A,116.9495185,36.644937,济南市,机床二厂,,46,12,13,3,4,145,145,130,130,6,8,6,5,0.2,0.3
2026-07-07T1700,1305A,117.0496,36.6629,济南市,市监测站,,45,15,13,3,3,144,144,140,140,8,8,3,3,0.4,0.3
2026-07-07T1700,1306A,116.7674,36.5458,济南市,长清党校,,44,22,10,3,3,140,140,128,128,5,7,4,4,0.2,0.2
2026-07-07T1700,1961A,117.5323,36.6865,济南市,东山小学,,45,17,15,3,8,141,141,131,131,5,10,4,4,0.2,0.3
2026-07-07T1700,3059A,117.7181,36.205,济南市,泰兴公司,,41,12,17,3,4,129,129,119,119,2,12,13,13,0.1,0.5
2026-07-07T1700,3064A,117.6861,36.2172,济南市,莱芜战役纪念馆,,42,12,14,3,4,133,133,124,124,6,12,8,10,0.1,0.4
2026-07-07T1700,3494A,117.1673,36.9782,济南市,济阳区政府,,50,20,26,3,6,159,159,134,134,9,17,3,4,0.2,0.2
2026-07-07T1700,3495A,117.1168,36.6299,济南市,锦屏中学,NA,NA,NA,13,NA,6,118,118,118,118,NA,5,2,1,0.1,0.2
2026-07-07T1700,4108A,117.7107,36.2385,济南市,山财大街5号,,46,14,11,3,4,147,147,134,134,9,14,11,10,0.9,0.6
2026-07-07T1700,4109A,116.9744,36.6889,济南市,无影山路12号,,45,12,10,3,4,141,141,128,128,8,10,3,2,0.3,0.3
2026-07-07T1700,1653A,116.6229,35.4288,济宁市,火炬城,,25,23,17,3,2,79,79,94,77,6,10,4,4,0.5,0.4
2026-07-07T1700,3500A,116.5808,35.3703,济宁市,北湖一中,,34,23,10,17,4,108,108,107,97,2,3,6,5,0.4,0.2
2026-07-07T1700,3501A,116.8251,35.5592,济宁市,服务中心,,33,21,21,3,1,104,104,113,113,2,3,3,3,0.3,0.3
2026-07-07T1700,3678A,116.5907,35.4054,济宁市,市第七中学,,34,21,14,14,3,107,107,111,103,2,6,4,4,0.3,0.2
2026-07-07T1700,4111A,116.6075,35.4566,济宁市,任和路,,36,16,14,11,2,113,113,106,106,3,6,3,2,0.5,0.5
2026-07-07T1700,4112A,116.5648,35.3921,济宁市,文体南路1号,,33,NA,9,18,6,104,104,95,94,3,6,3,6,0.3,0.3
2026-07-07T1700,4122A,112.6071,35.1015,济源市,市委党校,"颗粒物(PM10),臭氧1小时(O3_1h)",54,55,51,24,23,163,163,134,134,7,14,9,12,0.7,0.7
2026-07-07T1700,4123A,112.596,35.0702,济源市,沁园中路1号,臭氧1小时(O3_1h),62,33,36,15,21,169,169,148,148,9,16,2,7,0.7,0.8
2026-07-07T1700,2255A,130.2749,46.8028,佳木斯市,佳纺,,25,25,34,11,14,40,40,67,60,13,8,3,3,0.3,0.3
2026-07-07T1700,2257A,130.3258,46.7975,佳木斯市,环保局,,22,NA,26,15,17,47,47,69,64,13,13,5,5,0.4,0.4
2026-07-07T1700,4285A,130.363,46.806,佳木斯市,顺和街,,15,15,20,7,15,42,42,66,60,14,10,2,2,0.3,0.3
2026-07-07T1700,4286A,130.3952,46.8268,佳木斯市,长安路196号,,25,25,29,9,12,42,42,72,64,17,11,6,5,0.3,0.2
2026-07-07T1700,1252A,120.7439,30.778,嘉兴市,清河小学,NA,NA,NA,37,0,17,80,80,111,111,9,11,5,6,0.3,0.4
2026-07-07T1700,1253A,120.7261,30.7477,嘉兴市,嘉兴学院,NA,NA,31,44,7,20,88,88,120,120,15,12,NA,4,0.3,0.4
2026-07-07T1700,2872A,120.7845,30.7524,嘉兴市,南湖区残联,,33,27,30,3,19,104,104,128,128,6,11,6,6,0.6,0.7
2026-07-07T1700,3407A,120.6915,30.7741,嘉兴市,秀洲住建,,26,18,30,3,18,81,81,118,118,11,14,6,6,0.3,0.4
2026-07-07T1700,1945A,98.291,39.7705,嘉峪关市,气象局,,41,29,34,15,14,130,130,118,118,2,13,5,8,0.5,0.7
2026-07-07T1700,2884A,98.2672,39.7978,嘉峪关市,酒钢宾馆,,41,39,38,7,12,129,129,120,120,4,18,8,14,0.5,0.7
2026-07-07T1700,3248A,98.2644,39.7723,嘉峪关市,雄关区,,40,38,46,7,12,128,128,115,115,4,17,4,10,0.6,0.9
2026-07-07T1700,1383A,113.1063,22.6058,江门市,北街,,14,13,12,6,8,44,44,45,45,5,8,/,/,/,/
2026-07-07T1700,1384A,113.073,22.5835,江门市,西区,,16,16,12,6,9,42,42,46,46,10,11,/,/,/,/
2026-07-07T1700,1385A,113.0218,22.531,江门市,圭峰西,,13,7,14,6,8,39,39,48,48,9,10,/,/,/,/
2026-07-07T1700,1386A,113.0826,22.5947,江门市,东湖,,15,10,15,3,8,45,45,46,46,9,11,7,7,0.3,0.3
2026-07-07T1700,3311A,113.1077,22.5647,江门市,江海富民,,20,20,23,3,9,45,45,48,48,9,11,/,/,0.4,0.4
2026-07-07T1700,3449A,113.0496,22.4669,江门市,新会银湖,,18,18,15,3,7,43,43,43,42,10,13,2,2,0.3,0.5
2026-07-07T1700,3335A,113.3137,35.2643,焦作市,马村街道办,,46,40,31,32,21,108,108,126,126,8,10,8,8,0.4,0.4
2026-07-07T1700,3336A,113.2464,35.2374,焦作市,焦作技师学院,,43,43,29,30,20,124,124,136,136,5,9,7,9,0.7,0.7
2026-07-07T1700,3477A,113.1656,35.2536,焦作市,中站许衡医院,细颗粒物(PM2.5),52,39,36,36,23,160,160,149,149,6,10,8,9,0.6,0.5
2026-07-07T1700,3981A,113.2456,35.18,焦作市,原李万街道办,细颗粒物(PM2.5),52,37,36,36,21,160,160,152,152,4,7,11,13,0.6,0.6
2026-07-07T1700,4264A,113.234,35.219,焦作市,新安路1731号,NA,NA,NA,34,26,21,156,156,158,158,NA,3,10,10,0.3,0.3
2026-07-07T1700,4295A,113.2722,35.2121,焦作市,人民路3066号,细颗粒物(PM2.5),62,NA,30,41,21,136,136,156,156,9,12,4,5,0.5,0.7
2026-07-07T1700,1708A,116.3701,23.5345,揭阳市,新兴,,17,10,16,7,6,52,52,45,45,7,6,6,6,0.4,0.4
2026-07-07T1700,1709A,116.3261,23.5442,揭阳市,西马,,30,30,17,6,6,49,49,48,48,5,6,4,4,0.4,0.4
2026-07-07T1700,1710A,116.361,23.5627,揭阳市,东兴,,23,23,15,7,7,50,50,45,45,12,10,4,4,/,/
2026-07-07T1700,1711A,116.4151,23.5295,揭阳市,渔湖,,23,23,22,10,5,52,52,44,44,10,6,2,2,/,/
2026-07-07T1700,3320A,116.4028,23.5699,揭阳市,曲溪,颗粒物(PM10),103,127,20,16,8,62,62,47,47,11,6,5,5,0.4,0.4
2026-07-07T1700,1944A,102.1691,38.5166,金昌市,天庆家园,,48,48,38,25,12,115,115,115,115,8,14,9,29,0.4,0.5
2026-07-07T1700,4022A,102.1648,38.5369,金昌市,金川区人防中心,,39,24,24,14,15,124,124,123,123,4,10,5,11,0.2,0.3
2026-07-07T1700,4239A,102.193042,38.531887,金昌市,长春路96号,,38,30,35,14,15,121,121,120,120,2,10,4,17,0.3,0.4
2026-07-07T1700,1262A,119.6478,29.0773,金华市,十五中,,17,15,27,3,10,54,54,75,73,8,10,3,2,0.2,0.3
2026-07-07T1700,1263A,119.6859,29.1032,金华市,监测站,,24,18,23,7,10,76,76,76,76,10,10,2,4,0.4,0.4
2026-07-07T1700,3659A,119.656,29.1132,金华市,气象局,,24,23,25,6,11,76,76,79,79,11,12,3,2,0.3,0.3
2026-07-07T1700,1767A,121.1114,41.0879,锦州市,南山,,46,31,29,8,21,145,145,141,141,6,8,2,3,0.0,0.3
2026-07-07T1700,1768A,121.060361,40.842794,锦州市,开发区,NA,NA,NA,34,6,21,153,153,140,140,5,8,5,5,0.4,0.5
2026-07-07T1700,1769A,121.1836,41.1118,锦州市,百股街道,,49,27,26,14,20,155,155,158,158,7,6,4,4,0.3,0.4
2026-07-07T1700,1770A,121.1176,41.1224,锦州市,天安街道,,47,30,33,10,23,148,148,149,149,6,8,3,4,0.4,0.5
2026-07-07T1700,1771A,121.1303,41.1385,锦州市,北湖公园,,47,26,29,10,21,148,148,147,147,4,6,1,2,0.2,0.3
2026-07-07T1700,2160A,112.8496,35.5051,晋城市,自来水公司,臭氧1小时(O3_1h),70,41,31,24,14,176,176,137,137,10,15,6,5,0.6,0.9
2026-07-07T1700,2162A,112.8509,35.4886,晋城市,市环保局,臭氧1小时(O3_1h),63,39,34,30,18,170,170,135,135,8,15,7,5,0.7,0.9
2026-07-07T1700,3620A,112.8258,35.4804,晋城市,泽州一中,臭氧1小时(O3_1h),53,44,30,32,19,162,162,128,128,5,11,4,3,0.7,1
2026-07-07T1700,4078A,112.8246,35.5152,晋城市,前书院路,臭氧1小时(O3_1h),68,65,30,14,11,174,174,134,134,5,9,5,4,0.9,1
2026-07-07T1700,4079A,112.8864,35.4773,晋城市,祥云街666号,细颗粒物(PM2.5),86,62,37,53,21,154,154,134,134,7,20,3,3,0.8,1
2026-07-07T1700,2174A,112.6992,37.6984,晋中市,榆次区政府,臭氧1小时(O3_1h),100,39,35,22,20,200,200,171,171,8,15,9,10,0.6,0.6
2026-07-07T1700,2865A,112.7195,37.683,晋中市,榆次三中,臭氧1小时(O3_1h),88,34,35,20,20,190,190,165,165,6,14,13,13,0.3,0.3
2026-07-07T1700,4080A,112.7375,37.7215,晋中市,广安街188号,臭氧1小时(O3_1h),98,27,34,12,20,198,198,164,164,9,15,12,13,0.3,0.5
2026-07-07T1700,4200A,112.7478,37.6954,晋中市,迎宾街26号,臭氧1小时(O3_1h),99,29,31,24,20,199,199,173,173,12,15,10,10,0.3,0.2
2026-07-07T1700,2439A,112.2012,31.048,荆门市,竹园小学,,22,19,13,10,7,69,69,67,67,6,5,4,4,0.7,0.6
2026-07-07T1700,2440A,112.1968,30.9892,荆门市,掇刀,,22,NA,11,10,8,70,70,66,66,5,7,13,10,0.6,0.5
2026-07-07T1700,3012A,112.1849,31.0361,荆门市,西山林语,,29,29,18,12,7,71,71,69,69,6,5,11,11,0.2,0.2
2026-07-07T1700,3547A,112.1631,31.0134,荆门市,龙泉中学南校,,25,22,9,7,4,78,78,74,74,5,5,6,6,0.9,0.9
2026-07-07T1700,4124A,112.2213,31.0654,荆门市,新台西路6号,,24,13,13,12,7,75,75,72,72,3,3,5,5,1.0,1
2026-07-07T1700,1844A,112.2493,30.3198,荆州市,市图书馆,,23,NA,10,13,6,71,71,60,60,2,4,4,4,0.4,0.4
2026-07-07T1700,1845A,112.2009,30.3543,荆州市,市委党校,,19,9,9,7,6,60,60,55,55,3,5,4,4,0.4,0.4
2026-07-07T1700,3194A,112.2749,30.3124,荆州市,管委会,,22,14,9,3,5,69,69,64,64,4,5,7,6,0.4,0.4
2026-07-07T1700,4268A,112.1722,30.3366,荆州市,学苑路85号,,28,28,19,3,5,65,65,60,60,7,5,1,2,0.5,0.4
2026-07-07T1700,2343A,117.2114,29.2931,景德镇市,老干部活动中心,,18,16,11,7,5,57,57,49,49,4,4,9,7,0.5,0.5
2026-07-07T1700,2344A,117.1893,29.2789,景德镇市,兽医站,,26,26,20,10,7,43,43,45,45,24,12,4,4,0.6,0.4
2026-07-07T1700,2346A,117.246,29.2958,景德镇市,陶研所,,18,8,11,3,5,57,57,50,50,6,6,3,4,0.4,0.4
2026-07-07T1700,4289A,117.154766,29.256967,景德镇市,青少年活动中心,,16,15,15,3,9,49,49,44,44,10,11,24,22,/,/
2026-07-07T1700,1803A,115.9873,29.6816,九江市,十里,,17,NA,10,3,2,54,54,53,53,8,5,3,3,0.3,0.2
2026-07-07T1700,1804A,115.9583,29.7047,九江市,茅山头,,18,9,9,3,4,55,55,48,48,5,5,4,4,0.4,0.3
2026-07-07T1700,1805A,115.9877,29.7295,九江市,西园,,17,8,11,3,3,53,53,52,52,7,7,3,3,0.3,0.2
2026-07-07T1700,1808A,115.9112,29.6038,九江市,综合工业园,,21,12,10,3,3,67,67,58,58,4,9,3,4,0.2,0.2
2026-07-07T1700,3190A,116.0254,29.6995,九江市,外国语学校,,15,NA,9,6,5,48,48,45,45,5,5,8,8,0.6,0.5
2026-07-07T1700,4253A,116.010205,29.659402,九江市,莲花大道8号,,15,NA,5,6,3,47,47,45,45,2,3,5,4,0.5,0.4
2026-07-07T1700,4240A,98.495752,39.733935,酒泉市,玉门东路5号,,39,22,37,8,16,123,123,116,116,2,11,6,7,0.2,0.2
2026-07-07T1700,4241A,98.5099,39.7506,酒泉市,北大街108号,,39,27,39,7,14,122,122,116,116,3,9,11,11,0.2,0.2
2026-07-07T1700,2698A,76.0071,39.466,喀什地区,巡警大队,,50,22,47,3,11,158,158,143,143,7,10,3,3,0.1,0.2
2026-07-07T1700,2699A,75.9756,39.4693,喀什地区,吾办,,46,29,50,6,13,146,146,135,135,6,7,3,4,0.3,0.2
2026-07-07T1700,4027A,75.9485,39.4688,喀什地区,老干局,,46,27,47,3,8,145,145,125,125,3,8,3,3,0.1,0.2
2026-07-07T1700,1824A,114.3389,34.778,开封市,肿瘤医院,,45,NA,21,18,15,144,144,114,114,9,12,6,7,0.4,0.5
2026-07-07T1700,1826A,114.2884,34.7966,开封市,世纪星幼儿园,,41,NA,18,18,14,130,130,104,104,7,10,5,5,0.3,0.4
2026-07-07T1700,3147A,114.3434,34.8101,开封市,龙亭公园,NA,NA,27,27,11,13,132,132,101,101,4,8,NA,5,0.5,0.5
2026-07-07T1700,3210A,114.3645,34.7955,开封市,汴京公园,,47,27,20,16,15,148,148,122,122,4,8,6,6,0.4,0.4
2026-07-07T1700,3473A,114.2485,34.8306,开封市,技师学院,NA,NA,31,21,3,10,139,139,109,109,4,8,NA,4,0.5,0.6
2026-07-07T1700,3592A,114.4518,34.7503,开封市,祥符区生态环境局,,45,17,17,17,15,143,143,110,110,8,12,10,10,0.3,0.3
2026-07-07T1700,1951A,84.886,45.6029,克拉玛依市,长征新村,,41,16,20,10,10,129,129,109,109,2,6,3,4,0.3,0.1
2026-07-07T1700,1952A,84.8894,45.5827,克拉玛依市,南林小区,,38,17,26,3,5,120,120,100,100,9,10,6,6,0.1,0.6
2026-07-07T1700,1954A,84.896,44.3328,克拉玛依市,独山子区,,40,33,31,6,5,125,125,117,117,4,6,7,6,0.5,0.3
2026-07-07T1700,1955A,85.6888,46.0909,克拉玛依市,乌尔禾区商贸楼,,38,18,29,6,14,119,119,101,101,6,15,8,7,0.0,0.1
2026-07-07T1700,3612A,85.1045,45.6895,克拉玛依市,白碱滩区新站,,42,33,27,3,6,133,133,111,111,2,5,9,8,0.1,0.1
2026-07-07T1700,2697A,76.1457,39.7143,克孜勒苏柯尔克孜自治州,市人民政府,,50,16,36,8,14,158,158,135,135,2,7,6,12,0.1,0.1
2026-07-07T1700,3665A,76.1654,39.7157,克孜勒苏柯尔克孜自治州,克州文化中心,,49,27,36,8,14,156,156,139,134,6,5,8,9,0.1,0.1
2026-07-07T1700,1450A,102.8203,24.889,昆明市,呈贡新区,,32,11,20,11,10,100,100,78,78,4,13,3,6,0.6,0.7
2026-07-07T1700,1452A,102.7253,25.0904,昆明市,龙泉镇,,27,11,29,3,13,85,85,61,61,8,18,5,5,0.3,0.4
2026-07-07T1700,1453A,102.7267,25.0378,昆明市,东风东路,,29,10,24,6,13,91,91,63,63,12,27,2,2,0.2,0.4
2026-07-07T1700,1454A,102.6744,25.0671,昆明市,金鼎山,NA,NA,NA,31,10,12,86,86,70,70,9,19,4,5,0.3,0.4
2026-07-07T1700,1455A,102.6643,25.0401,昆明市,碧鸡广场,,26,8,22,6,11,82,82,58,58,9,17,5,6,0.6,0.7
2026-07-07T1700,3179A,102.7491,25.012,昆明市,官渡区博物馆,,29,24,29,8,14,90,90,65,65,9,25,4,4,0.3,0.5
2026-07-07T1700,3375A,102.8016,24.8336,昆明市,青年创业园,,29,NA,18,8,9,91,91,72,72,4,14,6,7,0.1,0.3
2026-07-07T1700,3550A,102.8,24.9787,昆明市,昆明学院,NA,NA,12,30,NA,13,91,91,72,72,NA,22,7,7,0.1,0.4
2026-07-07T1700,3551A,102.5969,24.6738,昆明市,晋宁区生态环境分局,,26,12,17,11,9,83,83,68,68,6,8,6,6,0.6,0.6
2026-07-07T1700,3552A,102.6673,24.9861,昆明市,云天化总部,,29,NA,18,9,9,90,90,68,68,9,17,6,6,0.4,0.4
2026-07-07T1700,1456A,91.132,29.6515,拉萨市,八廓街,,34,8,11,7,6,107,107,97,97,6,8,8,7,0.4,0.3
2026-07-07T1700,1457A,91.1221,29.6748,拉萨市,市环保局,,36,28,12,25,7,100,100,90,90,9,9,13,8,0.7,0.4
2026-07-07T1700,1458A,91.0874,29.6476,拉萨市,区监测站,,33,11,8,6,6,103,103,92,92,8,10,6,6,0.2,0.2
2026-07-07T1700,1459A,91.1774,29.6541,拉萨市,西藏大学,,34,13,10,6,7,107,107,95,95,8,10,5,5,0.3,0.3
2026-07-07T1700,1460A,90.9798,29.6586,拉萨市,区辐射站,,30,9,10,7,7,94,94,90,90,14,11,7,7,0.2,0.2
2026-07-07T1700,1461A,91.0831,29.6292,拉萨市,拉萨火车站,,33,11,10,7,6,103,103,94,94,8,9,4,4,0.3,0.3
2026-07-07T1700,2520A,109.2203,23.7252,来宾市,来宾技工学校,,13,13,11,3,4,39,39,37,37,5,8,8,8,0.6,0.6
2026-07-07T1700,3535A,109.1781,23.7293,来宾市,兴宾区政府,,16,7,11,3,5,49,49,40,40,6,8,5,8,0.8,0.9
2026-07-07T1700,4002A,109.2312,23.7428,来宾市,中南小学,,14,9,8,7,3,42,42,38,38,5,6,6,6,0.5,0.5
2026-07-07T1700,1479A,103.8309,36.0467,兰州市,铁路设计院,臭氧1小时(O3_1h),59,36,45,18,23,167,167,148,148,14,33,10,14,0.4,0.7
2026-07-07T1700,3241A,103.7439,36.0841,兰州市,百合公园,臭氧1小时(O3_1h),67,34,47,18,15,173,173,140,140,7,31,9,10,0.6,0.7
2026-07-07T1700,3242A,103.9613,35.9985,兰州市,和平,臭氧1小时(O3_1h),55,24,34,15,14,164,164,150,150,3,10,10,10,0.2,0.4
2026-07-07T1700,4236A,103.629272,36.093822,兰州市,庄浪东路808号,,43,31,41,11,17,136,136,118,118,7,25,12,19,0.3,0.4
2026-07-07T1700,4237A,103.7251,36.104344,兰州市,安宁西路88号,臭氧1小时(O3_1h),95,NA,42,14,16,196,196,169,169,7,18,13,14,0.5,0.4
2026-07-07T1700,4238A,103.846982,36.067567,兰州市,北滨河东路1号,臭氧1小时(O3_1h),53,24,46,17,18,162,162,138,138,8,40,15,18,0.2,0.6
2026-07-07T1700,1067A,116.6712,39.5109,廊坊市,药材公司,,41,19,37,16,23,131,131,155,155,8,15,1,2,0.3,0.4
2026-07-07T1700,1068A,116.7215,39.5592,廊坊市,开发区,,44,11,37,9,18,138,138,161,161,3,12,3,2,0.4,0.4
2026-07-07T1700,1070A,116.7246,39.5273,廊坊市,北华航天学院,,43,13,35,3,21,135,135,156,156,5,16,3,3,0.3,0.4
2026-07-07T1700,2919A,116.7022,39.5454,廊坊市,河北工业大学,,44,NA,41,12,24,139,139,162,162,10,18,1,2,0.2,0.4
2026-07-07T1700,2536A,103.7629,29.5844,乐山市,牛耳桥,,41,36,43,23,22,131,131,126,126,9,17,5,6,0.8,0.9
2026-07-07T1700,2537A,103.7501,29.6002,乐山市,市第三水厂,,40,32,40,18,28,125,125,118,118,6,20,3,4,0.9,1
2026-07-07T1700,2538A,103.7571,29.5664,乐山市,市监测站,,41,35,38,19,23,130,130,125,125,6,14,4,5,0.9,0.9
2026-07-07T1700,3361A,103.7313,29.563,乐山市,理工大学,,39,39,41,20,24,121,121,128,128,8,15,7,7,0.8,1
2026-07-07T1700,2599A,100.2497,26.8802,丽江市,丽江古城,,19,12,18,3,6,59,59,62,62,7,9,11,9,0.5,0.5
2026-07-07T1700,2600A,100.2203,26.8906,丽江市,市中心,,17,NA,10,10,7,52,52,56,56,6,8,8,7,0.5,0.5
2026-07-07T1700,1267A,119.9141,28.4513,丽水市,监测站大楼,,17,16,20,3,9,54,54,76,74,5,10,4,5,0.3,0.4
2026-07-07T1700,1268A,119.93,28.4589,丽水市,莲都小学,,18,11,25,3,10,55,55,76,75,4,13,/,/,/,/
2026-07-07T1700,1269A,119.8794,28.4232,丽水市,余庄前,,16,9,17,3,7,50,50,72,67,7,9,7,7,0.4,0.4
2026-07-07T1700,1173A,119.1759,34.5885,连云港市,市环境监测站,,32,6,5,3,4,102,102,127,123,14,8,6,6,0.3,0.3
2026-07-07T1700,3000A,119.3577,34.6971,连云港市,德源药业,NA,NA,NA,10,5,4,86,86,114,110,16,14,6,6,0.5,0.6
2026-07-07T1700,3007A,119.178,34.8442,连云港市,新城一中,,32,6,11,6,6,101,101,130,125,13,12,5,2,0.6,0.6
2026-07-07T1700,3008A,119.3607,34.7519,连云港市,胡沟管理处,NA,NA,0,8,NA,3,113,113,137,132,5,14,7,7,0.4,0.5
2026-07-07T1700,3009A,119.1478,34.5913,连云港市,矿山设计院,,30,6,7,3,4,93,93,120,114,17,9,3,3,0.3,0.3
2026-07-07T1700,3434A,119.2414,34.6539,连云港市,工贸学校,,35,6,10,3,6,109,109,129,126,5,3,3,2,0.3,0.4
2026-07-07T1700,3664A,119.4171,34.734,连云港市,连云街道,,27,6,12,3,5,86,86,140,132,18,10,7,7,0.3,0.4
2026-07-07T1700,2573A,102.2629,27.8981,凉山彝族自治州,西昌市政府,,35,17,23,9,15,110,110,103,103,5,6,7,7,0.3,0.5
2026-07-07T1700,2574A,102.2686,27.885,凉山彝族自治州,凉山州政府,,34,14,23,8,15,108,108,96,96,4,7,6,6,0.3,0.5
2026-07-07T1700,4229A,102.2342,27.8859,凉山彝族自治州,凯乐南路30号,,37,16,20,12,15,116,116,96,96,7,9,5,6,0.4,0.4
2026-07-07T1700,2212A,123.1978,41.2036,辽阳市,宏伟区,,29,12,17,3,8,92,92,119,105,5,5,7,7,0.5,0.4
2026-07-07T1700,2213A,123.1684,41.2497,辽阳市,新华园,,33,19,20,3,8,104,104,126,116,8,6,5,4,0.4,0.4
2026-07-07T1700,2214A,123.2355,41.2663,辽阳市,滨河路,,29,12,17,3,7,90,90,110,98,12,9,7,7,0.3,0.3
2026-07-07T1700,4083A,123.153,41.2874,辽阳市,铁西路150号,,31,19,19,3,7,97,97,119,110,8,6,6,6,0.4,0.4
2026-07-07T1700,2227A,125.1359,42.8845,辽源市,环保局,,35,12,18,10,4,111,111,114,113,6,6,4,6,0.5,0.5
2026-07-07T1700,4085A,125.0998,42.9134,辽源市,安宁大街333号,,36,22,15,11,5,113,113,108,108,3,4,6,5,0.4,0.4
2026-07-07T1700,1625A,115.9789,36.4372,聊城市,区政府,,43,19,13,3,4,136,136,129,129,2,4,10,10,0.5,0.4
2026-07-07T1700,3200A,115.9772,36.4986,聊城市,监控中心,,48,9,9,3,5,151,151,139,139,1,4,8,8,0.2,0.2
2026-07-07T1700,3513A,116.0443,36.436,聊城市,九州社区,,49,18,16,3,4,156,156,147,147,2,4,6,6,0.3,0.3
2026-07-07T1700,4018A,116.0564,36.4609,聊城市,星美广场,,45,19,15,3,6,144,144,137,137,3,4,6,5,0.3,0.3
2026-07-07T1700,4113A,116.0091,36.4495,聊城市,利民路,NA,NA,12,12,3,4,145,145,134,134,5,6,12,11,NA,0.2
2026-07-07T1700,2632A,94.3683,29.6373,林芝市,林芝监测站,,18,6,10,3,6,57,57,49,46,6,5,4,4,0.3,0.2
2026-07-07T1700,2633A,94.3616,29.6634,林芝市,林芝人民医院,,19,6,10,3,5,59,59,47,45,6,5,3,4,0.4,0.3
2026-07-07T1700,2603A,100.0779,23.8981,临沧市,市环保局,,12,12,11,3,8,38,38,34,34,7,9,3,4,0.4,0.4
2026-07-07T1700,2604A,100.0894,23.882,临沧市,市气象局,,15,15,15,3,4,45,45,43,43,5,6,8,7,0.3,0.3
2026-07-07T1700,1733A,111.5552,36.0791,临汾市,临钢医院,,42,39,39,22,16,134,134,153,153,11,14,6,5,0.6,0.6
2026-07-07T1700,1734A,111.4984,36.0734,临汾市,技工学校,,44,36,46,18,25,138,138,158,158,7,14,6,8,0.5,0.7
2026-07-07T1700,1736A,111.5017,36.0857,临汾市,市委,,43,38,57,3,18,136,136,154,154,7,14,6,6,0.8,0.9
2026-07-07T1700,3018A,111.5048,36.1015,临汾市,唐尧大酒店,颗粒物(PM10),53,54,66,7,22,142,142,163,163,9,15,5,7,0.7,0.8
2026-07-07T1700,4244A,111.4879,36.053,临汾市,启星学校,,42,26,43,19,24,133,133,159,156,9,15,6,6,0.7,0.9
2026-07-07T1700,4271A,103.2464,35.6123,临夏回族自治州,滨河东路1号,,48,26,51,12,17,151,151,125,125,8,17,11,16,0.4,0.7
2026-07-07T1700,4310A,103.207136,35.599807,临夏回族自治州,新华街21号,臭氧1小时(O3_1h),52,19,46,19,21,161,161,139,139,2,11,12,12,0.4,0.5
2026-07-07T1700,1618A,118.3429,35.0532,临沂市,沂河小区,,41,6,8,3,3,130,130,115,115,6,9,10,9,0.3,0.2
2026-07-07T1700,1619A,118.2962,35.0568,临沂市,鲁南制药厂,,45,6,3,3,4,142,142,124,123,6,10,10,10,0.7,0.5
2026-07-07T1700,1620A,118.2793,34.9976,临沂市,新光毛纺厂,,42,6,4,3,4,132,132,115,114,2,7,5,5,0.3,0.3
2026-07-07T1700,1621A,118.3955,35.0889,临沂市,河东保险公司,,37,6,6,3,4,116,116,100,100,2,7,8,7,0.2,0.1
2026-07-07T1700,3370A,118.3563,35.0215,临沂市,十里堡居委,NA,NA,NA,5,0,3,130,130,117,117,10,14,10,10,0.6,0.5
2026-07-07T1700,3496A,118.359,35.1067,临沂市,南坊新区,,43,6,9,3,5,135,135,115,115,6,10,5,5,0.4,0.3
2026-07-07T1700,3860A,118.3915,35.0297,临沂市,皇山花园小区,,41,6,7,3,4,129,129,114,114,3,8,9,8,0.4,0.4
2026-07-07T1700,1870A,109.4854,24.3898,柳州市,柳东小学,,16,6,7,3,3,49,49,43,43,4,6,3,3,0.5,0.4
2026-07-07T1700,1871A,109.4109,24.3304,柳州市,环保监测站,,15,6,9,3,5,47,47,42,42,6,8,7,7,0.6,0.6
2026-07-07T1700,1872A,109.3886,24.3408,柳州市,河西水厂,,15,12,10,10,6,47,47,45,45,8,8,7,7,0.7,0.7
2026-07-07T1700,1873A,109.4263,24.2951,柳州市,市四中,,15,8,9,8,4,46,46,42,42,5,8,5,5,0.6,0.6
2026-07-07T1700,1874A,109.396,24.3658,柳州市,市九中,,16,12,13,3,4,50,50,47,47,7,8,6,5,0.6,0.6
2026-07-07T1700,1875A,109.4912,24.3164,柳州市,古亭山,,15,6,9,3,5,48,48,41,41,4,6,3,3,0.5,0.5
2026-07-07T1700,3402A,109.5422,24.3994,柳州市,市二中,,18,8,12,3,4,56,56,50,50,4,10,6,6,0.5,0.5
2026-07-07T1700,2307A,116.5078,31.7369,六安市,监测大楼,,13,6,6,3,6,40,40,38,38,6,6,4,4,0.4,0.4
2026-07-07T1700,2308A,116.4738,31.7642,六安市,皖西学院,,15,8,7,3,5,47,47,44,44,1,4,6,6,0.3,0.3
2026-07-07T1700,2309A,116.4997,31.7904,六安市,朝阳厂,,12,8,5,3,7,38,38,36,36,4,9,7,7,0.2,0.2
2026-07-07T1700,2310A,116.5566,31.7885,六安市,开发区,,13,7,5,3,7,40,40,39,39,6,13,5,5,0.1,0.1
2026-07-07T1700,2577A,104.8293,26.592,六盘水市,黄土坡,,42,NA,21,29,15,94,94,82,82,10,8,4,4,0.4,0.4
2026-07-07T1700,2579A,104.8481,26.5898,六盘水市,民中,,32,22,15,22,14,85,85,80,80,13,7,1,1,0.4,0.4
2026-07-07T1700,2580A,104.9541,26.5506,六盘水市,双水,,36,NA,21,25,11,88,88,75,75,8,6,4,4,0.3,0.3
2026-07-07T1700,4151A,104.8899,26.5685,六盘水市,钟山大道中段564号,,41,41,23,22,12,76,76,78,78,19,4,9,6,1.9,0.6
2026-07-07T1700,2336A,117.022,25.1031,龙岩市,龙岩市监测站,,15,NA,10,3,5,48,48,47,47,1,3,4,5,0.1,0.1
2026-07-07T1700,2337A,117.0257,25.0662,龙岩市,闽西职业技术学院,,15,6,10,3,4,48,48,45,45,2,2,5,5,0.2,0.2
2026-07-07T1700,2338A,117.0195,25.0306,龙岩市,龙岩学院,,16,6,9,3,4,49,49,47,47,1,2,1,2,/,/
2026-07-07T1700,2885A,104.9344,33.3827,陇南市,滨江中学,,41,22,31,10,17,130,130,108,108,6,7,9,9,0.4,0.5
2026-07-07T1700,3247A,104.9551,33.3709,陇南市,市总工会,,41,27,39,8,16,129,129,107,107,4,6,9,9,0.4,0.4
2026-07-07T1700,2488A,111.9984,27.7346,娄底市,市监测站,,15,8,13,3,1,46,46,41,41,3,3,2,2,0.3,0.3
2026-07-07T1700,2491A,111.9888,27.7035,娄底市,市政府,,17,6,8,3,1,52,52,45,45,1,2,2,2,0.2,0.2
2026-07-07T1700,4127A,111.9812,27.7591,娄底市,涟钢职大,,18,6,5,3,3,57,57,50,50,1,2,1,1,0.6,0.6
2026-07-07T1700,4128A,112.0303,27.7457,娄底市,娄底体校,,18,15,14,3,2,57,57,48,48,1,2,3,3,0.3,0.3
2026-07-07T1700,1894A,105.4427,28.9063,泸州市,小市上码头,,37,12,20,3,9,117,117,132,132,5,15,6,6,0.4,0.5
2026-07-07T1700,1895A,105.4241,28.8573,泸州市,兰田宪桥,,39,17,30,8,17,122,122,133,133,6,16,5,5,0.4,0.5
2026-07-07T1700,1896A,105.4378,28.8833,泸州市,市环监站,,33,10,17,3,6,104,104,120,120,7,18,5,6,0.6,0.7
2026-07-07T1700,4272A,105.3689,28.7783,泸州市,纳溪中医医院,,43,17,27,14,16,136,136,124,124,8,17,3,3,0.7,0.7
2026-07-07T1700,2183A,111.1447,37.5212,吕梁市,环保局,,44,27,32,3,12,138,138,148,148,3,14,6,7,0.0,0.2
2026-07-07T1700,2185A,111.1285,37.5338,吕梁市,自来水公司,NA,NA,14,55,3,14,133,133,149,147,NA,19,4,7,0.3,0.5
2026-07-07T1700,2867A,111.1225,37.5093,吕梁市,马茂庄小学,,45,17,37,12,12,143,143,151,151,4,17,4,6,0.3,0.1
2026-07-07T1700,1812A,112.3934,34.6517,洛阳市,市委党校,,48,30,33,25,21,153,153,118,118,4,10,8,10,0.5,0.5
2026-07-07T1700,1815A,112.494,34.6883,洛阳市,河南林校,臭氧1小时(O3_1h),63,40,42,22,20,170,170,146,146,9,14,14,15,0.3,0.3
2026-07-07T1700,1816A,112.3843,34.623,洛阳市,开发区管委会,臭氧1小时(O3_1h),55,28,31,25,19,164,164,128,128,3,10,11,12,0.6,0.6
2026-07-07T1700,1817A,112.4263,34.6249,洛阳市,市委新办公区,,48,25,27,24,17,153,153,120,120,5,9,12,13,0.4,0.4
2026-07-07T1700,3340A,112.6005,34.6323,洛阳市,伊滨,臭氧1小时(O3_1h),69,25,31,23,18,175,175,142,142,7,9,6,6,0.4,0.4
2026-07-07T1700,3341A,112.495,34.6338,洛阳市,中移产业园,NA,NA,36,36,32,21,151,151,118,118,NA,7,15,12,0.7,0.8
2026-07-07T1700,3593A,112.5736,34.8993,洛阳市,吉利监测站,臭氧1小时(O3_1h),82,52,42,31,20,185,185,146,146,11,15,9,11,0.3,0.4
2026-07-07T1700,3635A,112.3678,34.6623,洛阳市,河科大西苑校区,,50,33,34,28,20,160,160,135,135,2,11,14,15,0.5,0.8
2026-07-07T1700,3636A,112.4387,34.678,洛阳市,英才小学,,49,NA,33,33,20,155,155,128,128,3,8,11,11,0.6,0.6
2026-07-07T1700,4214A,112.460027,34.694929,洛阳市,春都路1号院,,50,29,30,28,21,160,160,139,139,8,10,5,6,0.4,0.4
2026-07-07T1700,2399A,114.051,33.5721,漯河市,三五一五工厂,,42,NA,17,15,11,134,134,98,98,8,16,5,6,0.2,0.3
2026-07-07T1700,2400A,114.0055,33.5698,漯河市,漯河大学,,42,16,18,11,10,133,133,97,97,8,17,5,6,0.4,0.4
2026-07-07T1700,2401A,114.0134,33.5826,漯河市,市水利局,,42,14,10,14,11,134,134,99,99,11,17,5,6,0.4,0.4
2026-07-07T1700,2402A,114.0261,33.5697,漯河市,市广电局,,43,15,10,8,9,136,136,104,104,8,14,4,5,0.4,0.2
2026-07-07T1700,3478A,113.9691,33.568,漯河市,市图书馆,,41,9,16,7,9,131,131,95,95,6,18,6,7,0.5,0.5
2026-07-07T1700,4250A,114.089259,33.588274,漯河市,韶山路11号,,44,NA,15,11,10,138,138,103,103,6,14,6,7,0.2,0.2
2026-07-07T1700,1798A,118.5084,31.6838,马鞍山市,湖东路四小,NA,NA,22,25,3,11,62,62,62,62,4,10,8,8,NA,0.7
2026-07-07T1700,1799A,118.5019,31.6449,马鞍山市,开发区,,22,20,27,3,12,68,68,66,66,4,10,6,6,0.4,0.6
2026-07-07T1700,3633A,118.4914,31.681,马鞍山市,雨山,,21,8,20,3,12,66,66,66,66,3,10,6,6,0.5,0.7
2026-07-07T1700,4191A,118.527362,31.722269,马鞍山市,慈湖高新区,,20,13,28,3,13,62,62,63,63,7,14,7,8,0.3,0.5
2026-07-07T1700,1686A,111.0285,21.469,茂名市,电白南海,,15,14,22,3,8,47,47,61,59,2,3,6,6,0.4,0.4
2026-07-07T1700,1687A,110.9294,21.6533,茂名市,茂石化七小,,22,22,21,7,8,48,48,57,57,6,8,8,6,0.3,0.4
2026-07-07T1700,1688A,110.9108,21.6688,茂名市,健康路,,15,9,12,7,8,48,48,57,57,4,6,7,5,0.6,0.6
2026-07-07T1700,1689A,110.8592,21.6826,茂名市,高岭,,19,19,22,6,10,45,45,53,53,5,7,4,4,/,/
2026-07-07T1700,3450A,111.0101,21.5165,茂名市,电白水东,,15,9,11,3,8,46,46,59,58,3,4,2,2,/,/
2026-07-07T1700,2540A,103.8414,30.0871,眉山市,气象局,臭氧1小时(O3_1h),83,27,39,16,27,186,186,140,140,13,38,8,12,0.8,0.9
2026-07-07T1700,3148A,103.829,30.0563,眉山市,区人社局,臭氧1小时(O3_1h),72,39,42,10,12,177,177,122,122,16,31,6,8,0.7,0.7
2026-07-07T1700,4148A,103.8836,30.0695,眉山市,眉职院,臭氧1小时(O3_1h),73,37,41,18,20,178,178,123,123,8,24,9,8,0.8,0.8
2026-07-07T1700,1690A,116.1248,24.3307,梅州市,梅江月梅,,14,NA,11,3,8,43,43,40,40,4,6,/,/,/,/
2026-07-07T1700,1691A,116.0798,24.2719,梅州市,梅县新城,,14,6,11,3,7,43,43,43,43,6,8,8,8,0.4,0.4
2026-07-07T1700,3315A,116.1234,24.2994,梅州市,梅龙,,13,7,10,3,5,39,39,38,38,4,6,6,6,0.6,0.6
2026-07-07T1700,1878A,104.7775,31.4741,绵阳市,富乐山,臭氧1小时(O3_1h),79,48,37,33,29,183,183,151,151,6,10,13,11,0.8,0.8
2026-07-07T1700,1880A,104.6698,31.4668,绵阳市,高新区自来水公司,臭氧1小时(O3_1h),75,55,56,36,34,180,180,147,147,6,21,12,11,0.7,0.8
2026-07-07T1700,3491A,104.6899,31.5324,绵阳市,西科大附属小学,细颗粒物(PM2.5),72,50,58,46,35,176,176,143,143,7,22,7,6,0.3,0.4
2026-07-07T1700,3492A,104.5647,31.5343,绵阳市,安州区旅游局,臭氧1小时(O3_1h),74,53,50,35,34,179,179,152,152,2,10,6,5,0.5,0.5
2026-07-07T1700,4146A,104.7092,31.4972,绵阳市,科技城新区公安局,臭氧1小时(O3_1h),68,50,53,32,32,174,174,161,161,12,19,12,12,0.9,0.9
2026-07-07T1700,4226A,104.765114,31.453094,绵阳市,绵阳市气象局,臭氧1小时(O3_1h),54,50,41,32,28,163,163,131,131,7,17,8,8,0.6,0.7
2026-07-07T1700,1784A,129.61,44.561,牡丹江市,环保大楼,,22,22,17,7,6,36,36,49,42,7,8,6,6,0.4,0.3
2026-07-07T1700,1787A,129.6364,44.6075,牡丹江市,机车工厂,,26,26,22,16,10,25,25,36,34,14,13,9,10,0.4,0.4
2026-07-07T1700,1788A,129.6386,44.5462,牡丹江市,第一中学,,10,9,18,3,4,31,31,41,40,7,13,9,8,0.4,0.4
2026-07-07T1700,4287A,129.5992,44.5964,牡丹江市,东晓云街98号,,26,26,22,10,9,27,27,39,38,12,9,7,6,0.3,0.3
2026-07-07T1700,2531A,105.0703,29.61,内江市,市监测站,,41,21,25,13,21,130,130,122,122,6,16,12,12,0.4,0.5
2026-07-07T1700,2533A,105.0657,29.5807,内江市,内江二中,NA,NA,20,27,13,22,138,138,129,129,NA,17,NA,11,0.4,0.4
2026-07-07T1700,2534A,105.0407,29.5828,内江市,内江日报社,,44,NA,23,14,22,140,140,131,131,4,20,5,6,0.5,0.6
2026-07-07T1700,4147A,105.0433,29.6105,内江市,玉峰路西段888号,,38,19,29,12,21,121,121,114,114,6,20,11,10,0.3,0.4
2026-07-07T1700,2628A,92.0653,31.4846,那曲市,那曲监测站,,45,45,21,11,8,124,124,111,111,7,9,4,3,0.3,0.2
2026-07-07T1700,4243A,92.0515,31.4787,那曲市,那曲市委宣传部,,39,13,14,3,6,122,122,111,111,6,8,4,3,0.2,0.2
2026-07-07T1700,1291A,115.8887,28.7006,南昌市,省林业公司,,21,NA,6,6,5,65,65,52,52,2,3,4,4,0.5,0.5
2026-07-07T1700,1292A,115.813,28.7443,南昌市,林科所,,19,9,8,7,6,60,60,50,50,3,4,6,7,0.7,0.7
2026-07-07T1700,1294A,115.8518,28.687,南昌市,建工学校,,20,9,8,8,6,63,63,51,51,3,4,6,6,0.7,0.7
2026-07-07T1700,1295A,115.8926,28.6425,南昌市,象湖,,19,NA,2,3,6,60,60,49,49,6,7,8,9,0.3,0.3
2026-07-07T1700,3046A,115.9084,28.6062,南昌市,机电学校,,19,17,13,8,5,60,60,50,50,5,5,6,7,0.5,0.5
2026-07-07T1700,3690A,115.9718,28.7032,南昌市,外国语学校,,20,15,13,7,7,63,63,54,54,4,4,12,13,0.6,0.7
2026-07-07T1700,4106A,115.7923,28.6873,南昌市,工业二路,,19,16,14,6,6,60,60,51,51,2,2,6,6,0.4,0.4
2026-07-07T1700,4192A,115.931587,28.686774,南昌市,南京东路235号,,22,16,14,3,5,68,68,59,59,6,7,4,4,0.5,0.5
2026-07-07T1700,1906A,106.0791,30.8022,南充市,南充市委,NA,NA,32,33,18,21,NA,NA,122,122,6,13,6,7,0.2,0.3
2026-07-07T1700,1907A,106.1038,30.8215,南充市,南充炼油厂,,46,37,35,18,22,147,147,122,122,5,12,6,8,0.4,0.4
2026-07-07T1700,4227A,106.108336,30.788436,南充市,梨树横街98号,,42,30,34,18,20,133,133,117,117,7,12,7,8,0.1,0.1
2026-07-07T1700,4304A,106.1172,30.843,南充市,清泉寺北路188号,,42,24,38,16,23,132,132,110,110,4,12,7,7,0.4,0.5
2026-07-07T1700,4305A,106.067,30.7616,南充市,同庆路1号,,35,25,33,20,21,111,111,122,122,10,15,7,7,0.4,0.4
2026-07-07T1700,1151A,118.8033,32.1085,南京市,迈皋桥,,17,9,18,3,9,53,53,69,68,3,12,5,7,0.3,0.4
2026-07-07T1700,1152A,118.7487,32.057,南京市,草场门,,15,6,19,3,8,46,46,64,62,9,19,5,6,0.4,0.6
2026-07-07T1700,1154A,118.770105,32.004342,南京市,中华门,,15,9,15,3,9,46,46,59,58,5,12,6,6,0.6,0.5
2026-07-07T1700,1155A,118.8059,32.0329,南京市,瑞金路,,14,9,17,3,9,44,44,59,58,9,20,4,4,0.5,0.4
2026-07-07T1700,1156A,118.7946,32.0774,南京市,玄武湖,,14,7,23,3,6,44,44,60,58,6,13,8,8,0.3,0.4
2026-07-07T1700,1157A,118.6415,32.0964,南京市,浦口,,16,8,19,3,5,50,50,60,60,5,20,3,4,0.2,0.4
2026-07-07T1700,1158A,118.730129,32.000956,南京市,奥体中心,,15,15,21,3,8,40,40,56,54,8,17,10,9,1.2,0.9
2026-07-07T1700,1159A,118.9072,32.1047,南京市,仙林大学城,,22,22,25,3,10,55,55,76,73,6,15,9,9,0.7,0.7
2026-07-07T1700,3422A,118.8443,31.919,南京市,江宁彩虹桥,,20,20,23,3,10,54,54,70,70,6,15,4,3,0.5,0.5
2026-07-07T1700,3427A,118.8497,32.3599,南京市,六合雄州,NA,NA,2,26,NA,11,32,32,52,51,9,24,17,4,0.4,0.6
2026-07-07T1700,4086A,118.7641,32.0841,南京市,新模范马路66号,,17,12,23,3,6,52,52,68,67,1,11,4,4,0.3,0.4
2026-07-07T1700,4249A,118.8707617,31.34017673,南京市,汶溪路181号,,17,12,17,3,7,54,54,64,62,2,3,12,7,0.3,0.5
2026-07-07T1700,4312A,119.019,31.6512,南京市,中山西路1号,,17,7,19,3,8,52,52,65,62,5,17,4,5,0.4,0.7
2026-07-07T1700,1401A,108.3098,22.788,南宁市,二十一中,,15,15,8,3,2,48,48,42,42,5,7,3,2,0.8,0.8
2026-07-07T1700,1402A,108.3135,22.8529,南宁市,北湖,,17,11,10,3,5,52,52,46,46,6,10,3,2,0.7,0.8
2026-07-07T1700,1403A,108.3205,22.8222,南宁市,市监测站,,19,19,9,3,3,56,56,49,49,4,8,2,2,0.7,0.7
2026-07-07T1700,1404A,108.3828,22.8038,南宁市,大自然花园,,17,7,7,3,3,52,52,46,46,4,5,3,3,0.5,0.5
2026-07-07T1700,1406A,108.2397,22.8462,南宁市,区农职院,NA,NA,15,10,3,5,52,52,44,44,3,8,NA,2,0.4,0.4
2026-07-07T1700,1407A,108.3285,22.7356,南宁市,英华嘉园,,16,9,9,3,3,50,50,45,45,4,6,4,4,0.4,0.4
2026-07-07T1700,3401A,108.4829,22.762,南宁市,红星社区,,19,18,6,3,1,60,60,49,49,3,4,4,4,0.4,0.4
2026-07-07T1700,4132A,108.2927,23.1477,南宁市,起凤路9号,,17,10,7,3,3,52,52,42,42,6,6,3,3,0.5,0.5
2026-07-07T1700,4221A,108.2177,22.7774,南宁市,乐贤路16号,,17,17,11,3,3,54,54,46,46,9,16,4,4,0.5,0.5
2026-07-07T1700,2332A,118.1682,26.6371,南平市,南平市监测站,,18,8,14,3,8,55,55,55,55,4,9,4,4,0.3,0.3
2026-07-07T1700,2334A,118.1757,26.6276,南平市,南平七中,NA,NA,NA,13,1,7,50,50,56,56,2,9,3,3,0.1,0.2
2026-07-07T1700,1168A,120.9056,31.9669,南通市,狼山街道,,29,7,22,3,20,90,90,127,126,6,24,4,5,0.1,0.3
2026-07-07T1700,1170A,120.8635,32.0231,南通市,城中,,29,26,34,3,18,91,91,128,128,7,19,3,4,0.3,0.5
2026-07-07T1700,1171A,120.9376,31.9301,南通市,星湖花园,,29,11,30,3,21,90,90,130,130,10,25,4,5,0.3,0.4
2026-07-07T1700,1172A,120.8053,32.046,南通市,紫琅学院,,24,12,27,3,16,75,75,117,116,14,30,5,6,0.6,0.8
2026-07-07T1700,3291A,121.0631,32.0644,南通市,通州监测站,,32,14,32,3,17,102,102,140,140,6,16,7,8,0.4,0.5
2026-07-07T1700,3432A,120.9348,31.9874,南通市,环境教育馆,,27,27,34,3,12,86,86,124,124,9,30,6,6,0.5,0.6
2026-07-07T1700,4091A,120.8692,31.9885,南通市,洪江路,,25,25,27,3,18,75,75,112,110,12,24,4,4,0.8,0.8
2026-07-07T1700,2404A,112.5338,33.0086,南阳市,瓦房庄,,42,19,16,12,5,132,132,96,96,7,9,5,5,0.4,0.3
2026-07-07T1700,2405A,112.5002,32.9734,南阳市,汉画馆,NA,NA,NA,NA,NA,NA,NA,NA,NA,NA,NA,NA,NA,NA,NA,NA
2026-07-07T1700,2406A,112.5778,33.0144,南阳市,气象站,,45,17,10,10,4,142,142,102,102,3,4,6,6,0.2,0.2
2026-07-07T1700,2407A,112.548,32.9687,南阳市,理工学院,,43,21,14,12,7,135,135,98,98,4,10,6,6,0.4,0.4
2026-07-07T1700,4008A,112.5233,32.9921,南阳市,卧龙区政府,,42,20,12,10,5,133,133,98,98,6,6,5,5,0.4,0.5
2026-07-07T1700,1234A,121.8352,29.9111,宁波市,区环保大楼,,41,41,34,12,13,82,82,92,92,17,13,4,4,0.4,0.4
2026-07-07T1700,1235A,121.5595,29.8208,宁波市,万里学院,,34,32,28,12,13,108,108,98,98,6,9,10,8,0.7,0.7
2026-07-07T1700,1236A,121.713,29.9564,宁波市,龙赛医院,,34,24,35,9,15,108,108,102,102,3,9,5,6,0.2,0.2
2026-07-07T1700,1240A,121.5855,29.8635,宁波市,太古小学,,32,24,27,9,14,100,100,92,92,2,4,4,5,0.6,0.6
2026-07-07T1700,1241A,121.5239,29.8673,宁波市,市环境监测中心,,33,21,25,12,12,103,103,92,92,3,7,6,6,0.2,0.3
2026-07-07T1700,2871A,121.6156,29.9015,宁波市,万里国际学校,,36,23,30,13,14,113,113,102,102,2,3,6,6,0.4,0.4
2026-07-07T1700,3710A,121.5593,29.8976,宁波市,白沙活动中心,,33,21,22,13,14,103,103,91,91,5,8,7,6,0.6,0.6
2026-07-07T1700,4095A,121.8962,29.7529,宁波市,中科路88号,,29,23,24,8,9,92,92,95,95,2,4,6,6,0.4,0.4
2026-07-07T1700,2341A,119.5387,26.6611,宁德市,宁德市监测站,,35,35,22,17,10,89,89,74,74,16,16,8,8,1.1,0.8
2026-07-07T1700,3209A,119.5231,26.6562,宁德市,宁德一中,,44,44,22,12,12,89,89,72,72,9,8,12,11,0.7,0.4
2026-07-07T1700,2618A,98.859,25.8541,怒江傈僳族自治州,州监测站,,15,10,13,3,7,48,48,38,38,5,4,5,5,0.5,0.4
2026-07-07T1700,2619A,98.8607,25.8168,怒江傈僳族自治州,泸水一中,,16,11,8,9,10,49,49,33,33,7,8,4,4,0.7,0.6
2026-07-07T1700,1888A,101.6891,26.571,攀枝花市,弄弄坪,,44,44,46,8,11,88,88,93,93,26,19,14,8,0.9,0.9
2026-07-07T1700,1889A,101.577,26.5914,攀枝花市,河门口,,33,33,20,10,8,91,91,101,101,9,10,7,7,0.7,0.8
2026-07-07T1700,1891A,101.7365,26.4986,攀枝花市,仁和,,43,21,26,9,15,135,135,96,96,11,11,13,8,1.4,1.4
2026-07-07T1700,2835A,101.7222,26.567,攀枝花市,四十中小,,36,22,26,8,9,115,115,105,105,13,14,28,22,1.7,1.8
2026-07-07T1700,1604A,122.0303,41.1489,盘锦市,开发区,,50,50,23,3,33,123,123,132,132,10,11,8,8,0.3,0.5
2026-07-07T1700,1605A,122.0486,41.0883,盘锦市,兴隆台,NA,NA,17,22,15,14,100,100,122,119,NA,13,3,4,0.5,0.6
2026-07-07T1700,1606A,121.8297,41.1026,盘锦市,新生街道,,50,NA,15,20,15,160,160,163,163,8,10,5,5,0.5,0.5
2026-07-07T1700,1832A,113.3257,33.7423,平顶山市,新华旅馆,,42,NA,17,16,9,132,132,98,98,10,14,5,5,0.6,0.6
2026-07-07T1700,1833A,113.2917,33.737,平顶山市,规划设计院,,40,23,17,18,8,126,126,100,100,8,14,5,6,0.6,0.4
2026-07-07T1700,1834A,113.182,33.7738,平顶山市,平顶山工学院,,45,NA,14,21,11,144,144,107,107,6,11,6,5,0.4,0.3
2026-07-07T1700,3594A,112.8736,33.9068,平顶山市,石龙区,臭氧1小时(O3_1h),62,NA,22,40,15,169,169,124,124,10,11,9,8,0.6,0.5
2026-07-07T1700,4116A,113.284,33.7139,平顶山市,姚电大道23号,,44,28,21,15,11,139,139,100,100,5,16,8,8,0.8,0.7
2026-07-07T1700,2656A,106.6633,35.5338,平凉市,聚贤嘉苑,,43,24,34,6,12,136,136,138,138,5,19,8,9,0.4,0.6
2026-07-07T1700,2657A,106.7021,35.5307,平凉市,博物馆,,46,24,42,8,14,147,147,145,145,4,18,9,11,0.3,0.5
2026-07-07T1700,2348A,113.8384,27.6436,萍乡市,中医院,,32,32,12,3,4,53,53,42,42,3,9,8,9,0.4,0.6
2026-07-07T1700,2350A,113.8677,27.6438,萍乡市,市环保局,,17,10,9,3,4,53,53,46,46,1,5,13,12,0.2,0.4
2026-07-07T1700,2351A,113.8663,27.6202,萍乡市,安源区政府,,15,NA,10,6,4,48,48,40,40,2,4,11,9,0.2,0.3
2026-07-07T1700,4107A,113.8686,27.6668,萍乡市,联洪村委会,,16,14,10,3,5,51,51,42,42,1,6,8,9,0.2,0.4
2026-07-07T1700,2319A,119.0142,25.4324,莆田市,荔城区仓后路,,29,22,21,20,8,62,62,65,65,6,9,/,/,/,/
2026-07-07T1700,2320A,119.0016,25.4553,莆田市,莆田市监测站,,20,20,19,8,7,64,64,67,67,7,8,4,4,0.3,0.3
2026-07-07T1700,2321A,119.112,25.4561,莆田市,涵江区六中,,26,26,20,6,6,61,61,67,67,5,8,/,/,0.4,0.5
2026-07-07T1700,2322A,119.1014,25.3215,莆田市,秀屿区政府,,20,18,17,11,7,63,63,62,62,4,7,6,6,0.5,0.5
2026-07-07T1700,2392A,115.0312,35.7636,濮阳市,环保局,,30,18,13,7,6,96,96,104,104,3,6,3,3,0.4,0.4
2026-07-07T1700,3021A,115,35.7667,濮阳市,濮水河管理处,,31,11,9,9,5,97,97,102,102,1,3,3,3,0.6,0.6
2026-07-07T1700,4118A,115.0552,35.7816,濮阳市,中原东路68号,,31,8,16,7,5,99,99,103,103,3,6,5,5,0.7,0.7
2026-07-07T1700,4216A,115.0923632,35.76857718,濮阳市,任丘路479号,,33,13,14,3,5,103,103,113,113,3,6,1,1,0.6,0.7
2026-07-07T1700,2601A,100.9801,22.7634,普洱市,市环保局,NA,NA,22,27,7,12,49,49,43,43,NA,6,5,5,0.7,0.8
2026-07-07T1700,2602A,100.9763,22.8237,普洱市,普洱第二中学,,20,20,27,3,8,52,52,43,43,4,7,5,5,0.6,0.7
2026-07-07T1700,3345A,131.0413,45.7795,七台河市,中波台,,20,NA,9,14,9,45,45,64,53,13,10,5,5,0.5,0.5
2026-07-07T1700,3637A,131.0136,45.7688,七台河市,人民广场,,19,19,14,11,6,40,40,64,53,14,7,5,5,0.5,0.4
2026-07-07T1700,3684A,130.8639,45.8144,七台河市,新建矿广场,,22,22,19,12,11,36,36,55,47,21,11,5,5,0.1,0
2026-07-07T1700,1779A,123.9307,47.3641,齐齐哈尔市,安居小区,,29,16,16,6,7,91,91,95,95,6,6,4,4,0.6,0.6
2026-07-07T1700,1780A,123.9497,47.3389,齐齐哈尔市,中心广场,,29,9,16,3,6,92,92,95,95,10,9,5,5,0.5,0.5
2026-07-07T1700,1781A,123.9483,47.3229,齐齐哈尔市,农牧车辆厂,NA,NA,NA,NA,NA,NA,NA,NA,NA,NA,NA,NA,NA,NA,NA,NA
2026-07-07T1700,1783A,123.9442,47.2994,齐齐哈尔市,市环境监测站,,30,13,11,3,10,95,95,92,92,6,6,2,2,0.3,0.3
2026-07-07T1700,3662A,123.6341,47.2079,齐齐哈尔市,富区青少年活动中心,NA,NA,19,13,NA,NA,90,90,97,97,10,8,5,5,0.6,0.4
2026-07-07T1700,2591A,107.9765,26.5724,黔东南苗族侗族自治州,市环境监测站,,20,NA,11,13,7,63,63,57,57,2,4,2,2,1.0,0.6
2026-07-07T1700,2881A,107.8909,26.531,黔东南苗族侗族自治州,凯里学院,NA,NA,NA,6,6,7,62,62,56,56,1,3,5,5,0.4,0.5
2026-07-07T1700,2593A,107.5223,26.2371,黔南布依族苗族自治州,小围寨,,18,NA,6,6,7,55,55,52,52,3,4,5,6,0.5,0.5
2026-07-07T1700,3538A,107.5175,26.2977,黔南布依族苗族自治州,沙坝,,18,6,7,3,6,57,57,53,53,2,3,4,4,0.5,0.5
2026-07-07T1700,2589A,104.9022,25.0943,黔西南布依族苗族自治州,场坝街,NA,NA,15,15,7,10,70,70,61,61,3,3,NA,2,0.3,0.3
2026-07-07T1700,2590A,104.8812,25.0994,黔西南布依族苗族自治州,坪东大道,,21,12,17,10,12,65,65,57,57,5,3,6,5,0.4,0.4
2026-07-07T1700,2502A,108.6238,21.9667,钦州市,市环保站,NA,NA,NA,3,3,3,54,54,61,54,7,8,24,7,NA,0.5
2026-07-07T1700,2503A,108.655,21.9481,钦州市,沙埠小学,NA,NA,NA,NA,NA,NA,NA,NA,NA,NA,NA,NA,NA,NA,NA,NA
2026-07-07T1700,2504A,108.5989,21.7435,钦州市,港区一小,,14,11,17,3,4,43,43,38,37,15,11,3,3,0.5,0.6
2026-07-07T1700,3404A,108.5959,21.9634,钦州市,北职校,NA,NA,NA,10,3,4,59,59,65,57,6,6,3,3,0.5,0.4
2026-07-07T1700,1046A,119.5247,39.9346,秦皇岛市,建设大厦,,40,40,37,3,12,94,94,100,98,30,26,6,7,0.4,0.5
2026-07-07T1700,3132A,119.5979,39.938,秦皇岛市,文明里,,40,31,37,15,14,128,128,108,108,12,17,7,8,0.3,0.5
2026-07-07T1700,4066A,119.7458,39.9952,秦皇岛市,南园路157号,,43,18,29,14,15,135,135,104,104,4,22,9,9,0.3,0.4
2026-07-07T1700,4067A,119.5131,39.8858,秦皇岛市,翠岛大街1号,,36,12,21,10,11,114,114,107,105,18,16,4,5,0.4,0.5
2026-07-07T1700,4198A,119.509013,39.825305,秦皇岛市,北戴河轮滑馆,,39,31,27,8,11,124,124,103,103,11,12,9,10,0.3,0.4
2026-07-07T1700,1310A,120.404,36.0625,青岛市,市南区东部子站,,28,6,11,3,7,87,87,118,116,9,13,6,6,0.3,0.3
2026-07-07T1700,1311A,120.362344,36.10282,青岛市,四方区子站,,30,6,12,3,7,95,95,129,129,3,9,9,9,0.6,0.7
2026-07-07T1700,1312A,120.294373,36.054183,青岛市,市南区西部子站,,31,6,14,3,6,97,97,128,128,4,17,5,5,0.5,0.6
2026-07-07T1700,1313A,120.4581,36.0858,青岛市,崂山区子站,,32,6,12,3,6,102,102,133,133,1,5,7,7,0.3,0.3
2026-07-07T1700,1315A,120.3945,36.3083,青岛市,城阳区子站,,31,12,13,7,7,99,99,106,106,17,16,8,7,0.3,0.3
2026-07-07T1700,3642A,120.3454,36.0735,青岛市,市北区南部,,30,6,13,3,5,95,95,124,124,8,13,5,5,0.7,0.7
2026-07-07T1700,3643A,120.3897,36.18,青岛市,李沧区北部,NA,NA,NA,8,NA,8,NA,NA,167,NA,NA,14,NA,6,NA,0.5
2026-07-07T1700,4110A,120.5222,36.4089,青岛市,盟旺路653号,,30,6,14,3,7,96,96,128,127,6,8,6,6,0.6,0.7
2026-07-07T1700,4290A,120.196923,35.954556,青岛市,珠江路669号,,28,6,10,3,5,88,88,131,123,6,9,4,4,0.2,0.3
2026-07-07T1700,4291A,120.0424,35.8656,青岛市,黄岛区人民政府广场,,29,14,11,3,5,92,92,134,133,6,9,5,5,0.5,0.5
2026-07-07T1700,1703A,113.0218,23.7086,清远市,凤城街办,,17,17,16,10,9,47,47,50,50,16,16,/,/,/,/
2026-07-07T1700,3025A,113.0479,23.6343,清远市,技师学院,,20,18,17,11,9,61,61,52,52,22,19,5,4,0.5,0.4
2026-07-07T1700,3318A,112.9898,23.7403,清远市,清新太和,,18,10,15,8,10,57,57,53,53,12,14,10,9,0.4,0.4
2026-07-07T1700,3455A,113.076,23.72,清远市,清城东城,,14,14,17,8,10,42,42,49,49,20,14,/,/,/,/
2026-07-07T1700,2661A,107.6325,35.7357,庆阳市,庆阳五中,,50,31,32,9,13,160,160,143,143,7,8,6,6,0.3,0.4
2026-07-07T1700,2662A,107.6361,35.7067,庆阳市,市环保局,,46,27,32,12,13,146,146,136,136,8,10,6,8,0.3,0.4
2026-07-07T1700,1916A,103.7897,25.5036,曲靖市,环境监测站,,35,35,26,11,15,106,106,88,88,7,9,3,2,0.5,0.6
2026-07-07T1700,1917A,103.8013,25.5357,曲靖市,烟厂办公区,,32,32,28,12,15,94,94,74,74,7,8,2,3,0.4,0.6
2026-07-07T1700,3376A,103.7926,25.4651,曲靖市,南苑二区,,29,NA,31,15,16,91,91,73,73,8,10,4,4,0.4,0.4
2026-07-07T1700,3377A,103.7442,25.5259,曲靖市,曲靖师范学院,NA,NA,NA,26,18,19,101,101,77,77,6,11,4,6,NA,0.5
2026-07-07T1700,1264A,118.8694,28.94,衢州市,环保大楼,,18,14,21,6,11,56,56,54,54,8,13,/,/,/,/
2026-07-07T1700,1266A,118.8622,28.9809,衢州市,衢州学院,,22,20,19,7,10,70,70,67,67,12,19,4,2,0.4,0.4
2026-07-07T1700,4097A,118.9646,28.9832,衢州市,衢州三中,,22,15,22,6,13,68,68,63,63,8,16,4,4,0.6,0.6
2026-07-07T1700,1611A,118.5818,24.9116,泉州市,涂山街,,29,NA,16,20,9,58,58,58,58,3,5,2,2,0.5,0.5
2026-07-07T1700,1612A,118.597,24.8976,泉州市,津头埔,,19,19,15,10,8,54,54,56,56,8,9,2,2,0.3,0.3
2026-07-07T1700,1613A,118.6669,24.9422,泉州市,万安,,17,17,15,7,9,53,53,55,55,2,2,3,3,0.4,0.4
2026-07-07T1700,4105A,118.6355,24.9148,泉州市,霞新路6号,,19,19,15,8,8,59,59,60,60,6,8,/,/,0.3,0.3
2026-07-07T1700,2626A,88.8873,29.2723,日喀则市,日喀则监测站,,32,6,7,3,2,100,100,86,86,3,4,9,9,0.3,0.3
2026-07-07T1700,3726A,88.8775,29.2425,日喀则市,林业技术推广中心,,30,6,7,3,2,96,96,86,86,2,2,8,8,0.3,0.3
2026-07-07T1700,1659A,119.4711,35.421,日照市,监测站,NA,NA,NA,7,0,6,115,115,131,131,8,13,7,7,0.3,0.5
2026-07-07T1700,1660A,119.523,35.4216,日照市,市政府广场,,34,6,10,3,6,106,106,128,128,5,8,9,10,0.4,0.5
2026-07-07T1700,1661A,119.5511,35.4113,日照市,港务局,NA,NA,6,13,3,5,103,103,133,130,6,10,7,5,NA,0.9
2026-07-07T1700,3507A,119.5326,35.4627,日照市,职业技术学院,NA,NA,NA,11,0,5,110,110,136,134,4,7,8,8,0.4,0.5
2026-07-07T1700,3604A,119.3267,35.1043,日照市,岚山环保分局,,48,NA,11,33,5,86,86,134,125,24,10,26,11,3.1,1
2026-07-07T1700,1835A,111.1922,34.7752,三门峡市,市政府,臭氧1小时(O3_1h),60,34,36,24,24,168,168,134,134,6,7,8,7,0.8,0.8
2026-07-07T1700,1836A,111.1588,34.794,三门峡市,开发区,,50,37,38,27,24,159,159,129,129,10,11,8,7,0.6,0.6
2026-07-07T1700,3039A,111.1911,34.7829,三门峡市,三门峡市第一小学,臭氧1小时(O3_1h),64,41,38,21,24,171,171,132,132,7,6,7,7,0.7,0.7
2026-07-07T1700,3598A,111.1031,34.719,三门峡市,富达温泉假日酒店,,50,30,48,20,23,157,157,130,130,11,14,12,13,0.6,0.6
2026-07-07T1700,2324A,117.621,26.2626,三明市,三钢,NA,NA,20,13,9,7,41,41,48,48,19,10,NA,11,2.0,1.1
2026-07-07T1700,2325A,117.6352,26.2714,三明市,三明二中,,17,17,14,8,7,52,52,55,55,10,8,7,3,0.9,0.5
2026-07-07T1700,2326A,117.6028,26.2377,三明市,三元区政府,,17,13,12,6,6,54,54,53,53,4,6,6,6,0.3,0.3
2026-07-07T1700,1877A,109.4962,18.2682,三亚市,河西子站,NA,NA,12,18,3,7,46,46,43,43,7,8,2,3,NA,0.3
2026-07-07T1700,3540A,109.7348,18.3443,三亚市,君悦子站,,14,8,16,3,5,42,42,41,41,4,7,3,3,0.2,0.2
2026-07-07T1700,4135A,109.1714,18.3739,三亚市,城东小学站,,15,15,16,3,8,45,45,44,44,4,5,/,/,/,/
2026-07-07T1700,2624A,91.7592,29.234,山南市,山南监测站,,29,10,7,3,3,91,91,83,83,4,3,8,8,0.1,0.1
2026-07-07T1700,2625A,91.7701,29.2436,山南市,山南人民医院,,29,29,13,3,3,86,86,84,84,5,2,6,8,0.2,0.1
2026-07-07T1700,1674A,116.6795,23.3666,汕头市,金平子站,,19,15,9,3,5,60,60,48,48,6,5,3,2,0.6,0.5
2026-07-07T1700,1675A,116.7248,23.3632,汕头市,龙湖子站,,17,15,11,8,6,53,53,44,44,2,2,6,6,/,/
2026-07-07T1700,1676A,116.7257,23.2774,汕头市,濠江子站,,15,10,13,8,6,45,45,45,45,8,6,8,8,/,/
2026-07-07T1700,1677A,116.7518,23.4712,汕头市,澄海子站,,23,23,13,10,6,66,66,48,48,11,6,5,3,0.6,0.5
2026-07-07T1700,1678A,116.6088,23.2539,汕头市,潮阳子站,,18,7,12,7,6,55,55,45,45,3,4,6,6,0.7,0.7
2026-07-07T1700,3444A,116.4539,23.2684,汕头市,潮南峡山,,19,19,13,6,4,49,49,44,44,3,3,6,7,0.6,0.5
2026-07-07T1700,3624A,116.4069,23.2533,汕头市,潮南子站,,14,14,7,7,4,43,43,40,40,4,4,6,6,/,/
2026-07-07T1700,1693A,115.3653,22.7751,汕尾市,市环保局,,22,22,14,8,6,51,51,53,53,3,3,5,5,0.6,0.6
2026-07-07T1700,1695A,115.362,22.7926,汕尾市,新城中学,,21,21,14,8,6,57,57,56,56,2,2,6,6,0.6,0.6
2026-07-07T1700,2645A,109.9155,33.8714,商洛市,监测站,臭氧1小时(O3_1h),52,14,21,10,12,161,161,138,138,6,8,9,8,0.9,0.9
2026-07-07T1700,3045A,109.9647,33.8486,商洛市,商州区中学,,50,11,23,9,11,158,158,134,134,6,9,13,8,0.7,0.7
2026-07-07T1700,2408A,115.6701,34.4283,商丘市,环境监测站,,30,NA,11,9,8,93,93,84,78,1,3,5,5,0.5,0.5
2026-07-07T1700,2409A,115.6458,34.4047,商丘市,粮食局,,32,12,14,10,6,101,101,87,85,2,3,2,2,0.4,0.4
2026-07-07T1700,3171A,115.6069,34.4465,商丘市,梁园区档案局,,30,NA,12,16,6,94,94,86,79,1,3,1,1,0.3,0.4
2026-07-07T1700,4119A,115.6701,34.3767,商丘市,北海东路185号,,32,11,13,8,6,100,100,84,82,2,4,4,3,0.3,0.3
2026-07-07T1700,4120A,115.6172,34.3704,商丘市,中山大街3号,,30,15,14,14,5,96,96,83,80,6,8,4,4,0.4,0.3
2026-07-07T1700,1141A,121.401,31.2382,上海市,普陀,臭氧1小时(O3_1h),55,43,37,18,24,164,164,142,142,16,21,6,6,0.2,0.2
2026-07-07T1700,1142A,121.4774,31.2043,上海市,十五厂,,49,42,39,21,24,155,155,140,140,13,22,7,7,0.5,0.6
2026-07-07T1700,1143A,121.4673,31.3011,上海市,虹口,臭氧1小时(O3_1h),58,33,37,22,23,166,166,139,139,6,20,4,4,0.5,0.5
2026-07-07T1700,1147A,121.4253,31.226,上海市,静安监测站,臭氧1小时(O3_1h),65,38,34,35,24,172,172,144,144,16,21,9,8,0.4,0.4
2026-07-07T1700,1148A,121.7029,31.1905,上海市,浦东川沙,臭氧1小时(O3_1h),60,34,37,20,23,168,168,149,149,8,22,8,9,0.4,0.5
2026-07-07T1700,1149A,121.5339,31.229,上海市,浦东新区监测站,,48,32,33,21,22,153,153,134,134,5,21,6,7,0.5,0.6
2026-07-07T1700,1150A,121.5776,31.2038,上海市,浦东张江,臭氧1小时(O3_1h),70,37,34,21,22,176,176,155,155,6,23,7,8,0.3,0.3
2026-07-07T1700,3265A,121.4242,31.3303,上海市,宝山庙行,臭氧1小时(O3_1h),63,31,40,22,24,170,170,141,141,9,22,10,11,0.3,0.3
2026-07-07T1700,3266A,121.8789,31.4662,上海市,崇明上实东滩,,50,38,31,19,21,160,160,139,139,11,18,9,10,0.3,0.3
2026-07-07T1700,3268A,121.316,31.2839,上海市,嘉定南翔,臭氧1小时(O3_1h),59,38,34,20,22,167,167,136,136,12,23,6,6,0.3,0.3
2026-07-07T1700,3269A,121.3357,30.7455,上海市,金山新城,,47,39,35,22,23,149,149,134,134,10,11,4,5,0.7,0.8
2026-07-07T1700,3270A,121.4996,31.0741,上海市,闵行浦江,,44,38,37,19,24,138,138,130,130,7,13,6,6,0.5,0.5
2026-07-07T1700,3271A,121.2886,31.1663,上海市,青浦徐泾,,50,34,35,23,25,157,157,132,132,8,13,6,6,0.3,0.4
2026-07-07T1700,3272A,121.2193,31.0382,上海市,松江图书馆,,50,40,49,22,28,157,157,138,138,16,17,8,8,0.4,0.4
2026-07-07T1700,3273A,121.3904,31.206,上海市,长宁仙霞,,48,46,34,16,23,152,152,128,128,15,21,8,7,0.2,0.3
2026-07-07T1700,3274A,121.7964,31.0507,上海市,浦东惠南,臭氧1小时(O3_1h),85,39,39,24,25,188,188,162,162,14,20,8,8,0.6,0.6
2026-07-07T1700,3544A,121.4891,30.925,上海市,奉贤南桥新城,臭氧1小时(O3_1h),58,38,37,20,21,166,166,149,149,12,17,4,4,0.5,0.6
2026-07-07T1700,4183A,121.417401,31.16637,上海市,冠生园路458号,,46,27,32,21,22,146,146,127,127,12,20,6,5,0.6,0.7
2026-07-07T1700,4205A,121.541914,31.268301,上海市,宁武路151号,颗粒物(PM10),57,59,46,21,24,144,144,126,126,22,38,6,6,0.5,0.5
2026-07-07T1700,2382A,117.9758,28.4439,上饶市,市监测站,,18,18,21,3,9,57,57,61,61,4,6,6,8,/,/
2026-07-07T1700,2383A,117.9521,28.4637,上饶市,凤凰光学,,20,16,22,3,13,62,62,67,67,3,6,4,15,0.5,0.5
2026-07-07T1700,3685A,117.897,28.4316,上饶市,双创科技城,,17,17,22,3,11,51,51,58,56,6,9,5,9,0.4,0.3
2026-07-07T1700,4211A,118.190438,28.444845,上饶市,裕丰大道,,19,NA,16,3,7,60,60,52,52,2,4,16,11,0.6,0.5
2026-07-07T1700,1669A,113.5821,24.7733,韶关市,市八中,,15,12,15,6,6,46,46,51,51,7,12,8,11,0.4,0.5
2026-07-07T1700,1671A,113.5916,24.7973,韶关市,园林处,,15,10,14,7,7,46,46,48,48,7,13,7,9,/,/
2026-07-07T1700,1673A,113.5971,24.6864,韶关市,曲江监测站,,14,8,13,3,5,42,42,47,47,8,11,8,9,0.7,0.7
2026-07-07T1700,2809A,113.6668,24.7756,韶关市,大学路288号,,16,16,16,6,8,44,44,49,49,7,9,9,12,/,/
2026-07-07T1700,3622A,113.5556,24.8082,韶关市,碧湖山庄,,16,10,14,3,5,49,49,49,49,7,11,3,8,0.5,0.6
2026-07-07T1700,2464A,111.5277,27.2442,邵阳市,市化工厂,,18,15,8,7,7,55,55,54,54,2,5,6,6,0.1,0.2
2026-07-07T1700,2466A,111.4327,27.2276,邵阳市,市环保局,,16,14,13,3,5,50,50,48,48,2,5,2,2,0.2,0.3
2026-07-07T1700,4218A,111.446,27.2472,邵阳市,北塔二期4-26地块,,16,16,18,6,4,49,49,47,47,4,6,5,5,0.4,0.5
2026-07-07T1700,4219A,111.4739,27.2282,邵阳市,邵水西路287号,,17,10,11,3,7,53,53,51,51,1,4,1,1,0.2,0.3
2026-07-07T1700,1247A,120.6053,29.9927,绍兴市,城东开发委,,26,16,18,8,12,82,82,85,85,7,8,8,8,0.2,0.2
2026-07-07T1700,2921A,120.5482,30.0003,绍兴市,树下王站,,27,14,21,6,11,86,86,86,86,8,13,3,3,0.2,0.3
2026-07-07T1700,3408A,120.5685,29.936,绍兴市,绍兴中专,,23,14,24,6,10,73,73,80,80,7,9,5,5,0.5,0.5
2026-07-07T1700,3409A,120.4905,30.086,绍兴市,柯桥区政府,,30,18,19,9,12,96,96,98,98,4,10,5,5,0.4,0.5
2026-07-07T1700,3410A,120.8751,30.0249,绍兴市,重华小学,,23,19,20,6,10,71,71,78,78,13,12,10,10,0.5,0.6
2026-07-07T1700,3411A,120.837,30.0137,绍兴市,上虞中学,,23,12,23,7,12,71,71,83,82,10,16,8,9,0.3,0.4
2026-07-07T1700,3560A,120.4715,30.0414,绍兴市,柯桥妇保,,31,15,18,7,11,99,99,100,100,9,11,6,6,0.3,0.3
2026-07-07T1700,3658A,120.6156,30.0762,绍兴市,袍江中学,,28,16,21,9,15,88,88,87,87,6,8,6,6,0.2,0.3
2026-07-07T1700,1356A,114.0948,22.5506,深圳市,通心岭子站,,15,15,13,8,5,40,40,28,27,8,10,3,2,0.8,0.8
2026-07-07T1700,1357A,114.1153,22.5713,深圳市,洪湖,,17,17,15,7,6,41,41,22,21,7,16,6,6,0.3,0.3
2026-07-07T1700,1358A,113.9823,22.5398,深圳市,华侨城,,20,20,16,10,5,21,21,28,22,18,12,/,/,/,/
2026-07-07T1700,1359A,113.9181,22.517,深圳市,南海子站,,32,24,16,22,9,23,23,31,24,22,12,5,4,0.9,0.9
2026-07-07T1700,1360A,114.2345,22.565,深圳市,盐田,,20,20,12,6,4,21,21,25,14,27,19,7,6,0.3,0.2
2026-07-07T1700,1363A,114.4911,22.5381,深圳市,南澳,,14,12,13,3,1,43,43,43,43,4,6,/,/,/,/
2026-07-07T1700,1364A,114.41,22.6346,深圳市,葵涌,,11,8,9,3,2,30,30,35,33,21,13,6,6,0.7,0.6
2026-07-07T1700,1365A,114.2967,22.5978,深圳市,梅沙,,16,13,10,3,2,50,50,42,42,3,8,/,/,/,/
2026-07-07T1700,1366A,114.0563,22.7353,深圳市,观澜,,28,28,17,12,7,66,66,42,42,18,18,6,6,0.7,0.7
2026-07-07T1700,3305A,114.0614,22.556,深圳市,莲花,,16,16,12,7,6,28,28,20,16,11,12,/,/,/,/
2026-07-07T1700,3306A,114.0144,22.6163,深圳市,民治,,26,26,11,13,6,44,44,32,32,19,16,/,/,/,/
2026-07-07T1700,3307A,114.1756,22.6421,深圳市,横岗,,17,17,12,9,7,39,39,31,30,17,22,/,/,/,/
2026-07-07T1700,3447A,114.344,22.7115,深圳市,坪山,,19,18,12,13,6,38,38,32,32,13,12,6,6,0.8,0.7
2026-07-07T1700,3623A,113.8952,22.586,深圳市,西乡,,26,26,13,12,5,21,21,34,28,24,13,3,3,0.7,0.6
2026-07-07T1700,4220A,114.214113,22.713717,深圳市,黄阁路,,16,16,12,3,4,34,34,30,30,12,13,6,7,0.7,0.6
2026-07-07T1700,1099A,123.5058,41.7084,沈阳市,浑南东路,,24,20,16,14,10,74,74,124,118,19,21,3,4,0.7,0.7
2026-07-07T1700,1100A,123.4238,41.6992,沈阳市,新秀街,,27,15,21,9,9,86,86,127,122,18,12,1,7,0.5,0.6
2026-07-07T1700,1102A,123.5903,41.8412,沈阳市,东陵路,,29,29,21,10,7,83,83,130,126,8,10,3,4,0.5,0.6
2026-07-07T1700,1103A,123.4267,41.8466,沈阳市,陵东街,,32,19,18,12,10,100,100,130,128,17,14,4,4,0.8,0.7
2026-07-07T1700,1104A,123.4116,41.7654,沈阳市,文化路,,30,19,18,12,8,96,96,133,128,14,10,4,8,0.8,0.7
2026-07-07T1700,1105A,123.4673,41.787,沈阳市,小河沿,,25,21,19,13,9,79,79,120,117,12,9,2,3,0.8,0.7
2026-07-07T1700,1106A,123.4019,41.7978,沈阳市,太原街,,32,27,23,10,11,100,100,124,124,10,10,1,4,0.5,0.5
2026-07-07T1700,1108A,123.3778,41.9233,沈阳市,京沈街,,37,29,23,7,11,116,116,140,139,12,12,4,5,0.7,0.7
2026-07-07T1700,2897A,123.2429,41.7341,沈阳市,沈辽西路,,31,23,25,10,14,98,98,122,120,10,10,9,10,0.6,0.7
