timepoint,stationcode,longitude,latitude,area,positionname,primarypollutant,aqi,pm10,pm10_24h,pm2_5,pm2_5_24h,o3,o3_24h,o3_8h,o3_8h_24h,no2,no2_24h,so2,so2_24h,co,co_24h
2026-05-30T1500,2568A,102.2503,31.8896,阿坝藏族羌族自治州,马师校,,23,21,21,8,8,72,72,46,46,7,4,7,7,0.4,0.4
2026-05-30T1500,3994A,102.2174,31.9016,阿坝藏族羌族自治州,马尔康中学西区,,24,8,14,7,7,75,75,43,43,5,5,5,5,0.2,0.3
2026-05-30T1500,2695A,80.2899,41.1684,阿克苏地区,电视台,颗粒物(PM10),85,98,144,37,60,115,115,78,78,3,21,3,3,0.6,0.8
2026-05-30T1500,2696A,80.2592,41.1541,阿克苏地区,艺术中心,颗粒物(PM10),83,95,129,40,56,125,125,79,79,4,24,4,4,0.4,0.6
2026-05-30T1500,2205A,105.699,38.8409,阿拉善盟,蒙二幼,,50,25,23,3,5,160,160,155,155,8,3,8,9,0.2,0.2
2026-05-30T1500,2206A,105.7198,38.8508,阿拉善盟,环保局新楼,,49,19,16,3,3,155,155,154,154,3,4,10,10,0.3,0.3
2026-05-30T1500,2708A,88.1266,47.8515,阿勒泰地区,市站,,33,12,19,3,6,105,105,88,88,6,6,6,6,0.1,0.2
2026-05-30T1500,4166A,88.1198,47.7931,阿勒泰地区,阿勒泰路33号,,33,7,14,3,3,105,105,86,86,3,4,4,4,0.2,0.2
2026-05-30T1500,2630A,80.1171,32.4999,阿里地区,阿里监测站,,47,7,12,3,3,150,150,122,122,2,7,7,7,0.4,0.4
2026-05-30T1500,3192A,80.0906,32.5029,阿里地区,阿里藏医院,,47,6,8,3,4,149,149,117,117,2,4,6,6,0.4,0.4
2026-05-30T1500,2644A,109.0088,32.6974,安康市,汉滨区检察院,,30,19,21,10,8,94,94,57,57,6,7,8,6,0.5,0.4
2026-05-30T1500,4054A,109.0324,32.6913,安康市,市邮政管理局,,33,21,20,12,9,104,104,68,68,5,7,5,3,0.4,0.4
2026-05-30T1500,2291A,117.0806,30.5181,安庆市,环科院,臭氧1小时(O3_1h),92,53,58,34,37,193,193,140,140,12,12,9,9,0.6,0.6
2026-05-30T1500,2292A,117.0331,30.5118,安庆市,马山宾馆,臭氧1小时(O3_1h),88,56,59,37,36,190,190,146,146,13,12,10,9,0.5,0.4
2026-05-30T1500,2294A,116.9897,30.6146,安庆市,安庆大学,,50,41,56,26,35,160,160,133,133,8,8,4,4,0.5,0.5
2026-05-30T1500,3173A,117.0598,30.5351,安庆市,市人大,臭氧1小时(O3_1h),90,61,58,32,37,192,192,147,147,10,11,6,6,0.6,0.6
2026-05-30T1500,3123A,105.9408,26.2431,安顺市,凤凰山,,42,26,30,16,20,133,133,115,115,7,7,9,9,0.6,0.6
2026-05-30T1500,3124A,105.9443,26.2567,安顺市,金钟山,,42,22,28,17,19,134,134,116,116,5,7,10,8,0.5,0.5
2026-05-30T1500,3125A,105.8983,26.248,安顺市,娄家坡,,45,25,23,17,19,142,142,121,121,6,8,8,8,0.5,0.6
2026-05-30T1500,1819A,114.3552,36.1017,安阳市,红庙街,,50,25,56,8,21,160,160,144,144,1,10,4,6,0.2,0.4
2026-05-30T1500,1820A,114.361,36.0681,安阳市,银杏小区,臭氧1小时(O3_1h),63,24,54,10,24,170,170,143,143,3,13,3,11,0.2,0.4
2026-05-30T1500,3141A,114.3921,36.0879,安阳市,信访局,臭氧1小时(O3_1h),65,22,50,17,23,172,172,144,144,2,13,2,6,0.2,0.4
2026-05-30T1500,3669A,114.4706,36.0634,安阳市,左辅环卫站,臭氧1小时(O3_1h),58,25,62,11,24,166,166,131,131,4,18,3,4,0.4,0.5
2026-05-30T1500,4117A,114.2918,36.0769,安阳市,钢三路198号,,47,18,22,3,11,150,150,NA,NA,2,4,3,4,0.3,0.3
2026-05-30T1500,1748A,123.0441,41.1201,鞍山市,深沟寺,臭氧1小时(O3_1h),67,31,33,9,11,173,173,145,145,12,17,13,14,0.6,0.8
2026-05-30T1500,1749A,123.011,41.0931,鞍山市,太阳城,臭氧1小时(O3_1h),69,25,34,10,14,175,175,149,149,13,17,12,13,0.7,0.9
2026-05-30T1500,1750A,123.0483,41.1445,鞍山市,太平,臭氧1小时(O3_1h),98,41,41,11,12,198,198,169,169,18,20,13,13,0.8,1
2026-05-30T1500,1751A,122.964,41.0968,鞍山市,铁西三道街,臭氧1小时(O3_1h),74,34,41,11,16,179,179,152,152,14,20,11,12,0.7,0.8
2026-05-30T1500,1753A,123.0219,41.0822,鞍山市,明达新区,臭氧1小时(O3_1h),59,34,33,10,11,167,167,146,146,12,18,11,13,0.6,0.9
2026-05-30T1500,4201A,122.944647,41.082639,鞍山市,兴盛南路290号,臭氧1小时(O3_1h),62,39,41,12,15,169,169,148,148,18,22,13,13,1.1,0.8
2026-05-30T1500,2195A,107.4206,40.7609,巴彦淖尔市,附二中,,48,31,42,6,16,151,151,138,138,5,15,9,14,0.3,0.6
2026-05-30T1500,2196A,107.37,40.7372,巴彦淖尔市,市环保大楼,,48,36,45,3,13,153,153,142,142,5,13,8,12,0.4,0.6
2026-05-30T1500,1956A,86.1476,41.7529,巴音郭楞蒙古自治州,孔雀公园,颗粒物(PM10),65,71,104,11,31,112,112,104,101,3,15,4,4,0.2,0.3
2026-05-30T1500,1957A,86.1971,41.7166,巴音郭楞蒙古自治州,棉纺厂,颗粒物(PM10),62,66,124,27,49,114,114,96,96,3,16,/,/,/,/
2026-05-30T1500,1958A,86.236,41.7172,巴音郭楞蒙古自治州,经济开发区,颗粒物(PM10),58,61,84,10,29,107,107,92,92,2,5,1,2,0.2,0.3
2026-05-30T1500,3181A,106.776805,31.852614,巴中市,市五中,,36,19,22,8,12,113,113,82,82,6,10,7,6,0.5,0.5
2026-05-30T1500,3183A,106.7419,31.8654,巴中市,圣泉水务公司,,37,22,19,7,7,117,117,88,88,4,14,7,7,0.3,0.4
2026-05-30T1500,3616A,106.7617,31.8343,巴中市,市中心医院,,38,16,19,9,11,121,121,86,86,4,11,8,7,0.6,0.6
2026-05-30T1500,2235A,122.7909,45.608,白城市,洮北区环保局,臭氧1小时(O3_1h),63,15,26,3,11,170,170,124,124,5,13,5,5,0.3,0.3
2026-05-30T1500,2236A,122.8741,45.5725,白城市,市环保局,,42,22,27,3,9,133,133,97,97,10,18,2,4,0.2,0.3
2026-05-30T1500,2231A,126.4219,41.9172,白山市,喜丰,,43,30,41,3,8,135,135,114,114,6,21,10,11,0.6,0.8
2026-05-30T1500,2232A,126.4082,41.9416,白山市,环保局,,43,15,29,3,11,135,135,116,116,7,16,10,11,0.6,0.7
2026-05-30T1500,2647A,104.1727,36.5448,白银市,第三小学,,47,38,57,22,23,149,149,110,110,3,23,7,13,0.4,0.6
2026-05-30T1500,2648A,104.1467,36.5482,白银市,动力公司,,47,36,57,11,20,150,150,113,113,5,18,12,15,0.4,0.4
2026-05-30T1500,2512A,106.6102,23.901,百色市,市监测站,,28,28,18,9,10,67,67,53,53,1,6,7,8,0.7,0.7
2026-05-30T1500,2513A,106.6524,23.8842,百色市,市中心血站,,26,26,21,16,11,73,73,56,56,6,10,8,10,0.5,0.6
2026-05-30T1500,4133A,106.6273,23.8798,百色市,龙景西路,,29,29,25,15,11,69,69,53,53,8,11,9,20,0.5,0.5
2026-05-30T1500,2270A,117.396,32.9389,蚌埠市,工人疗养院,臭氧1小时(O3_1h),103,85,64,37,25,206,206,150,150,13,20,6,7,0.5,0.4
2026-05-30T1500,2271A,117.3606,32.9428,蚌埠市,百货大楼,臭氧1小时(O3_1h),99,66,59,26,23,199,199,154,154,10,16,8,9,0.5,0.4
2026-05-30T1500,2273A,117.4183,32.8909,蚌埠市,蚌埠学院,臭氧1小时(O3_1h),103,78,63,32,27,206,206,146,146,8,16,7,6,0.5,0.4
2026-05-30T1500,2274A,117.3534,32.9672,蚌埠市,淮上区政府,臭氧1小时(O3_1h),95,56,54,23,23,196,196,156,156,9,19,6,7,0.3,0.3
2026-05-30T1500,2275A,117.3143,32.8977,蚌埠市,高新区,臭氧1小时(O3_1h),73,73,73,16,32,178,178,136,136,8,19,6,6,0.3,0.4
2026-05-30T1500,3715A,117.3091,32.9314,蚌埠市,蚌埠田家炳中学,臭氧1小时(O3_1h),82,57,63,12,24,185,185,148,148,7,12,6,7,0.4,0.5
2026-05-30T1500,1585A,109.8761,40.6533,包头市,市环境监测站,臭氧1小时(O3_1h),52,32,39,8,17,161,161,130,130,9,40,8,15,0.4,0.6
2026-05-30T1500,1587A,109.9992,40.5843,包头市,包头八中,,47,17,42,7,18,149,149,121,121,8,35,7,11,0.2,0.4
2026-05-30T1500,1589A,109.8641,40.6288,包头市,惠龙物流,,49,21,33,7,18,156,156,120,120,6,36,10,19,0.2,0.5
2026-05-30T1500,1590A,110.0376,40.5546,包头市,东河鸿龙湾,,50,17,22,6,14,158,158,130,130,6,25,11,12,0.4,0.5
2026-05-30T1500,3283A,109.9154,40.5684,包头市,滨河大厦,,48,19,23,14,15,151,151,114,114,6,35,6,8,0.2,0.3
2026-05-30T1500,3419A,109.9449,40.6259,包头市,包头市委党校,,50,24,24,21,15,158,158,120,120,5,32,7,15,0.3,0.5
2026-05-30T1500,3683A,109.8332,40.6577,包头市,昆区政府,,48,18,36,8,19,151,151,133,133,10,49,9,19,0.6,1.1
2026-05-30T1500,1931A,107.0802,34.3129,宝鸡市,竹园沟,颗粒物(PM10),53,54,27,25,11,153,153,109,109,62,8,69,15,0.8,0.3
2026-05-30T1500,1933A,107.1429,34.3549,宝鸡市,监测站,,50,30,26,6,8,157,157,104,104,8,10,12,9,0.4,0.3
2026-05-30T1500,1934A,107.1172,34.3759,宝鸡市,技工学校,臭氧1小时(O3_1h),53,40,29,10,12,162,162,109,109,10,9,5,5,0.3,0.4
2026-05-30T1500,1936A,107.2025,34.3518,宝鸡市,文理学院,臭氧1小时(O3_1h),52,22,29,10,13,161,161,104,104,8,12,6,6,0.3,0.4
2026-05-30T1500,1937A,107.2396,34.3626,宝鸡市,三迪小学,臭氧1小时(O3_1h),57,41,34,13,15,165,165,106,106,11,15,7,7,0.3,0.4
2026-05-30T1500,4155A,107.1721,34.3558,宝鸡市,滨河北路,,48,21,27,8,12,152,152,98,98,7,10,9,9,0.4,0.5
2026-05-30T1500,4308A,107.3898,34.3601,宝鸡市,陈仓区北开路21号,,47,44,36,11,14,148,148,95,95,11,16,9,27,0.4,0.4
2026-05-30T1500,1051A,115.4803,38.8568,保定市,游泳馆,臭氧1小时(O3_1h),83,40,38,14,17,186,186,126,126,5,12,8,8,0.2,0.3
2026-05-30T1500,1052A,115.509,38.8895,保定市,华电二区,臭氧1小时(O3_1h),75,30,32,10,13,180,180,125,125,7,14,5,4,0.6,0.5
2026-05-30T1500,1053A,115.4588,38.9037,保定市,接待中心,臭氧1小时(O3_1h),79,44,44,16,16,183,183,129,129,5,12,3,3,0.5,0.4
2026-05-30T1500,1054A,115.4484,38.8344,保定市,地表水厂,臭氧1小时(O3_1h),87,44,43,7,14,189,189,121,121,6,15,4,4,0.4,0.4
2026-05-30T1500,3581A,115.3136,38.9511,保定市,满城区生态环境分局,颗粒物(PM10),95,112,53,6,17,179,179,138,138,8,19,4,3,0,0.1
2026-05-30T1500,3582A,115.4709,38.7628,保定市,清苑区第二中学,臭氧1小时(O3_1h),85,44,50,19,15,188,188,120,120,3,13,6,4,0.3,0.4
2026-05-30T1500,3583A,115.6231,39.0223,保定市,徐水物探局,臭氧1小时(O3_1h),62,62,50,6,14,169,169,124,124,7,14,4,4,0.5,0.5
2026-05-30T1500,4004A,115.4199,38.8665,保定市,双鹰农机,臭氧1小时(O3_1h),80,50,52,18,17,184,184,127,127,4,14,5,4,0.2,0.2
2026-05-30T1500,4034A,115.515,38.8589,保定市,植保所站,NA,NA,52,54,8,11,190,190,131,131,6,13,5,5,NA,0.4
2026-05-30T1500,2594A,99.1589,25.1137,保山市,市环境监测站,,20,12,32,6,20,64,64,55,55,6,8,4,5,0.2,0.3
2026-05-30T1500,2595A,99.1616,25.1381,保山市,市环保局,,21,21,36,12,27,65,65,55,55,6,6,4,4,0.5,0.5
2026-05-30T1500,1867A,109.1435,21.4085,北海市,海滩公园,,43,42,34,30,20,115,115,94,94,8,9,1,2,0.5,0.4
2026-05-30T1500,1868A,109.0983,21.466,北海市,新市环保局,,50,44,28,35,28,121,121,98,98,7,9,2,3,0.5,0.5
2026-05-30T1500,1869A,109.1775,21.5232,北海市,北海工业园,,47,47,35,28,22,104,104,85,85,6,9,2,3,0.5,0.5
2026-05-30T1500,3400A,109.1844,21.4396,北海市,龙潭自来水厂,,42,41,29,29,20,102,102,82,82,8,10,4,4,0.8,0.7
2026-05-30T1500,1001A,116.3611,39.8786,北京市,万寿西宫,臭氧1小时(O3_1h),102,40,44,17,14,204,204,142,142,14,30,5,4,0.2,0.3
2026-05-30T1500,1003A,116.4174,39.9289,北京市,东四,臭氧1小时(O3_1h),112,43,41,16,15,224,224,159,159,14,27,5,5,0.4,0.4
2026-05-30T1500,1004A,116.4073,39.8858,北京市,天坛,臭氧1小时(O3_1h),95,40,36,11,11,196,196,134,134,14,25,2,1,0.2,0.2
2026-05-30T1500,1005A,116.4622,39.9364,北京市,农展馆,臭氧1小时(O3_1h),102,44,38,17,14,203,203,144,144,13,26,4,4,0.2,0.3
2026-05-30T1500,1006A,116.3399,39.9293,北京市,官园,臭氧1小时(O3_1h),94,42,43,14,15,195,195,143,143,15,33,6,6,0.1,0.2
2026-05-30T1500,1007A,116.2879,39.9613,北京市,海淀万柳,臭氧1小时(O3_1h),88,47,44,14,13,190,190,122,122,14,35,5,4,0.3,0.3
2026-05-30T1500,1008A,116.6635,40.1349,北京市,顺义新城,臭氧1小时(O3_1h),111,48,38,17,14,222,222,151,151,14,25,5,4,0.3,0.4
2026-05-30T1500,1009A,116.6275,40.327,北京市,怀柔镇,臭氧1小时(O3_1h),116,39,26,14,12,231,231,148,148,15,13,3,2,0.3,0.3
2026-05-30T1500,1010A,116.2295,40.217,北京市,昌平镇,臭氧1小时(O3_1h),103,48,32,14,12,205,205,128,128,21,21,5,4,0.4,0.4
2026-05-30T1500,1011A,116.3968,39.982,北京市,奥体中心,臭氧1小时(O3_1h),60,43,37,17,13,168,168,115,115,22,32,2,2,0.2,0.2
2026-05-30T1500,3418A,116.8336,40.4095,北京市,密云新城,臭氧1小时(O3_1h),124,41,30,14,11,247,247,147,147,16,18,3,2,0.3,0.2
2026-05-30T1500,3671A,116.0879,39.9725,北京市,门头沟三家店,臭氧1小时(O3_1h),106,66,32,20,12,211,211,129,129,13,22,4,4,0.3,0.2
2026-05-30T1500,3672A,116.1507,39.8246,北京市,丰台云岗,臭氧1小时(O3_1h),80,50,49,24,11,184,184,126,126,12,26,4,3,0.3,0.3
2026-05-30T1500,3674A,115.9578,39.7602,北京市,房山燕山,臭氧1小时(O3_1h),54,42,28,15,11,163,163,124,124,9,11,3,3,0.3,0.4
2026-05-30T1500,3675A,116.4669,39.7734,北京市,大兴旧宫,臭氧1小时(O3_1h),88,38,44,12,15,190,190,134,134,7,22,2,2,0.3,0.4
2026-05-30T1500,3694A,115.9859,40.4562,北京市,延庆石河营,,49,14,23,9,12,155,155,114,114,16,25,3,2,0.1,0.2
2026-05-30T1500,3695A,116.6151,40.3052,北京市,怀柔新城,NA,NA,NA,22,NA,15,NA,NA,119,NA,NA,12,NA,3,NA,0.4
2026-05-30T1500,3696A,116.2542,39.8764,北京市,丰台小屯,臭氧1小时(O3_1h),57,41,45,13,13,165,165,116,116,10,32,3,3,0.2,0.3
2026-05-30T1500,3697A,116.8399,40.3843,北京市,密云镇,臭氧1小时(O3_1h),128,28,27,19,12,256,256,149,149,14,21,3,2,0.4,0.4
2026-05-30T1500,4057A,115.9423,40.4431,北京市,延庆百泉,臭氧1小时(O3_1h),52,22,22,8,8,161,161,114,114,5,17,2,2,0.3,0.3
2026-05-30T1500,4058A,116.6598,39.9164,北京市,通州新华,臭氧1小时(O3_1h),84,42,44,13,15,187,187,125,125,14,30,3,3,0.5,0.5
2026-05-30T1500,4182A,116.1942,39.9158,北京市,石景山八角,臭氧1小时(O3_1h),80,55,55,18,16,184,184,123,123,12,34,4,3,0.2,0.2
2026-05-30T1500,4194A,117.078628,40.151726,北京市,平谷新城,臭氧1小时(O3_1h),100,31,32,9,11,200,200,136,136,10,12,5,3,0.4,0.3
2026-05-30T1500,1761A,123.8274146,41.31234549,本溪市,大峪,臭氧1小时(O3_1h),57,22,28,7,11,165,165,126,126,12,21,12,11,0.8,1
2026-05-30T1500,1763A,123.7169,41.3094,本溪市,彩屯,,50,16,32,3,12,158,158,130,130,7,24,7,12,0.6,1.3
2026-05-30T1500,1764A,123.7672166,41.28649327,本溪市,东明,臭氧1小时(O3_1h),65,57,38,8,10,172,172,134,134,20,23,11,13,0.9,1.1
2026-05-30T1500,1765A,123.799345,41.266614,本溪市,新立屯,臭氧1小时(O3_1h),68,29,26,3,5,174,174,141,141,8,23,11,10,0.5,0.5
2026-05-30T1500,1766A,123.829144,41.336777,本溪市,威宁,臭氧1小时(O3_1h),63,34,37,10,11,170,170,124,124,5,20,13,11,0.9,1
2026-05-30T1500,2587A,105.287,27.3133,毕节市,八中,,39,28,38,16,20,123,123,109,109,5,7,7,7,0.4,0.5
2026-05-30T1500,2588A,105.3079,27.2987,毕节市,师专,,40,29,35,14,17,125,125,109,109,4,6,6,6,0.5,0.5
2026-05-30T1500,4263A,105.3688,27.3598,毕节市,工业大道,,41,24,46,3,19,130,130,NA,NA,5,8,7,7,/,/
2026-05-30T1500,1629A,117.9961,37.3604,滨州市,第二水厂,臭氧1小时(O3_1h),84,66,52,7,12,187,187,141,141,5,14,7,8,0.1,0.1
2026-05-30T1500,1630A,117.9789,37.3931,滨州市,北中新校,臭氧1小时(O3_1h),78,44,39,7,9,182,182,137,137,10,18,6,8,0.2,0.3
2026-05-30T1500,3514A,117.9379,37.3959,滨州市,中海酒店,臭氧1小时(O3_1h),97,44,37,10,10,197,197,150,150,13,23,10,10,0.2,0.2
2026-05-30T1500,3515A,117.9381509,37.35547456,滨州市,开发区一中,臭氧1小时(O3_1h),82,44,38,6,13,185,185,143,143,10,21,8,8,0.4,0.4
2026-05-30T1500,3516A,118.0914,37.6938,滨州市,金海六路,颗粒物(PM10),63,68,50,8,11,168,168,130,130,8,25,6,10,0.2,0.3
2026-05-30T1500,4028A,117.9955,37.3752,滨州市,滨州市西街道办事处,臭氧1小时(O3_1h),87,51,41,6,9,189,189,146,146,5,12,6,6,0.4,0.5
2026-05-30T1500,2311A,115.8071,33.8399,亳州市,污水处理厂,NA,NA,32,35,3,15,161,161,141,141,8,18,6,10,NA,0.2
2026-05-30T1500,2312A,115.7789,33.8519,亳州市,三国揽胜宫,臭氧1小时(O3_1h),60,28,42,3,13,168,168,152,152,5,13,4,7,0.0,0.1
2026-05-30T1500,3332A,115.7631,33.803,亳州市,亳州学院,臭氧1小时(O3_1h),57,19,29,3,13,165,165,148,148,4,14,5,6,0.2,0.4
2026-05-30T1500,2693A,82.0482,44.8553,博尔塔拉蒙古自治州,市党校,,35,29,44,3,8,110,110,82,82,2,4,4,3,0.2,0.2
2026-05-30T1500,2694A,82.0805,44.8966,博尔塔拉蒙古自治州,市环保局,,35,35,43,3,7,107,107,80,80,3,9,6,7,0.2,0.2
2026-05-30T1500,1071A,116.8733,38.2922,沧州市,沧县城建局,臭氧1小时(O3_1h),93,47,46,21,17,194,194,152,152,8,15,14,9,0.5,0.4
2026-05-30T1500,1072A,116.8462,38.3189,沧州市,电视转播站,臭氧1小时(O3_1h),84,48,51,15,17,187,187,142,142,10,18,10,7,0.3,0.2
2026-05-30T1500,1073A,116.8588,38.3161,沧州市,市环保局,臭氧1小时(O3_1h),101,41,49,18,18,201,201,157,157,8,12,7,6,0.3,0.3
2026-05-30T1500,3324A,116.8011,38.294,沧州市,河北水利电力学院,臭氧1小时(O3_1h),79,39,35,18,15,183,183,142,142,8,18,8,5,0.5,0.4
2026-05-30T1500,2622A,97.1813,31.1289,昌都市,昌都监测站,,28,9,7,3,3,88,88,74,71,6,6,4,3,0.5,0.5
2026-05-30T1500,3719A,97.1707,31.1428,昌都市,昌都会议中心,,30,6,5,3,3,94,94,80,80,7,4,6,5,0.4,0.4
2026-05-30T1500,2692A,87.2722,44.0298,昌吉回族自治州,新区政务中心,,41,41,30,13,14,107,107,83,83,4,15,7,5,0.1,0.2
2026-05-30T1500,3613A,87.3069,44.0093,昌吉回族自治州,亚心广场,颗粒物(PM10),60,63,41,15,11,115,115,95,95,4,15,6,6,0,0.1
2026-05-30T1500,4164A,87.2057,43.9289,昌吉回族自治州,财政所,颗粒物(PM10),62,66,41,10,8,113,113,86,86,4,7,8,8,0.3,0.3
2026-05-30T1500,1120A,125.2874,43.9024,长春市,客车厂,,35,17,28,6,8,111,111,85,85,14,30,6,6,0.2,0.2
2026-05-30T1500,1121A,125.2943,43.8508,长春市,邮电学院,,35,12,16,6,8,110,110,86,86,8,21,6,6,0.3,0.4
2026-05-30T1500,1122A,125.3648,43.8745,长春市,劳动公园,,38,20,23,3,8,120,120,90,90,10,23,6,7,0.2,0.2
2026-05-30T1500,1123A,125.3233,43.8781,长春市,园林处,,37,14,19,3,8,117,117,88,88,8,19,3,3,0.3,0.4
2026-05-30T1500,1124A,125.4604,43.7904,长春市,净月潭,,35,12,12,7,6,110,110,85,85,6,15,5,6,0.2,0.2
2026-05-30T1500,1126A,125.38,43.8422,长春市,经开区环卫处,,36,12,18,3,7,115,115,87,87,9,30,5,6,0.2,0.3
2026-05-30T1500,1127A,125.234,43.7761,长春市,高新区管委会,,33,7,19,3,8,104,104,84,84,7,20,6,6,0.3,0.4
2026-05-30T1500,1128A,125.1695,43.83,长春市,岱山公园,,35,17,24,3,8,110,110,90,90,8,25,4,4,0.3,0.4
2026-05-30T1500,4281A,125.334645,43.916281,长春市,北亚泰大街1068号,,38,20,25,6,10,119,119,85,85,9,28,5,5,0.2,0.3
2026-05-30T1500,1335A,113.082,28.2421,长沙市,经开区环保局,,46,46,48,25,25,94,94,68,68,9,12,5,4,0.5,0.5
2026-05-30T1500,1336A,112.8873,28.2202,长沙市,高开区环保局,,38,38,43,23,24,97,97,74,74,6,7,9,7,0.5,0.4
2026-05-30T1500,1337A,113.0785,28.2012,长沙市,马坡岭,,50,50,46,19,28,99,99,75,75,12,14,7,7,0.6,0.6
2026-05-30T1500,1338A,112.9448,28.1894,长沙市,湖南师范大学,,43,43,47,24,25,99,99,78,78,6,6,7,6,1.0,0.9
2026-05-30T1500,1339A,113.0177,28.1322,长沙市,雨花区环保局,,50,50,48,26,26,94,94,75,75,8,8,6,5,0.8,0.8
2026-05-30T1500,1340A,112.9795,28.2593,长沙市,伍家岭,颗粒物(PM10),69,76,47,23,25,92,92,74,74,8,9,5,4,0.5,0.5
2026-05-30T1500,1341A,113.002,28.1944,长沙市,火车新站,,48,48,45,29,27,92,92,74,74,12,11,8,8,0.4,0.4
2026-05-30T1500,1342A,112.9846,28.1177,长沙市,天心区环保局,,48,48,49,31,30,98,98,84,84,11,11,5,5,0.5,0.5
2026-05-30T1500,1343A,112.8906,28.1307,长沙市,湖南中医药大学,,38,38,43,20,22,100,100,78,78,9,10,7,7,0.4,0.4
2026-05-30T1500,1727A,113.1146,36.1547,长治市,清华站,臭氧1小时(O3_1h),77,17,34,3,16,181,181,150,150,5,16,10,10,0.4,0.6
2026-05-30T1500,1730A,113.0887,36.2126,长治市,审计局,臭氧1小时(O3_1h),77,17,33,6,16,181,181,144,144,6,11,9,10,0.3,0.5
2026-05-30T1500,1731A,113.0845,36.1856,长治市,长治八中,臭氧1小时(O3_1h),72,18,42,6,17,177,177,147,147,9,15,10,11,0.3,0.5
2026-05-30T1500,2845A,113.1561,36.1912,长治市,德盛苑,臭氧1小时(O3_1h),75,10,31,3,17,180,180,156,156,9,12,10,11,0.2,0.4
2026-05-30T1500,3568A,113.0603,36.0464,长治市,向阳小学,臭氧1小时(O3_1h),78,41,67,3,19,182,182,149,149,6,10,12,12,0.4,0.7
2026-05-30T1500,3569A,112.8788,36.315,长治市,屯留一中,臭氧1小时(O3_1h),52,8,31,3,19,161,161,136,136,4,14,10,10,0.3,0.7
2026-05-30T1500,4189A,113.113092,36.199482,长治市,英华南巷50号,NA,NA,15,35,NA,19,185,185,145,145,6,12,8,10,0.4,0.7
2026-05-30T1500,4190A,113.23666,36.33435,长治市,学府街1号,臭氧1小时(O3_1h),82,20,39,3,18,185,185,150,150,8,16,6,8,0.5,0.7
2026-05-30T1500,1854A,111.696,28.9725,常德市,市二中,,42,42,38,10,14,129,129,82,82,4,8,8,7,0.8,0.9
2026-05-30T1500,3138A,111.7152,29.0288,常德市,武陵区永安,,42,37,38,18,15,133,133,87,87,3,6,7,6,0.7,0.7
2026-05-30T1500,3139A,111.6891,28.9881,常德市,鼎城区玉霞,,40,25,35,10,15,128,128,84,84,3,7,8,7,0.8,0.8
2026-05-30T1500,3140A,111.6651,29.0526,常德市,武陵区长庚,,39,32,37,14,16,124,124,80,80,3,7,9,8,0.6,0.7
2026-05-30T1500,1196A,119.9524,31.7586,常州市,市监测站,臭氧1小时(O3_1h),73,31,30,14,19,178,178,154,154,15,26,3,5,0.1,0.3
2026-05-30T1500,1200A,119.9351,31.703,常州市,武进监测站,,48,43,48,20,18,152,152,140,140,42,21,20,12,0.6,0.7
2026-05-30T1500,3002A,119.9701,31.813,常州市,行政中心,,50,37,52,11,18,157,157,142,142,13,23,6,8,0.3,0.4
2026-05-30T1500,3003A,120.0434,31.7726,常州市,经开区,臭氧1小时(O3_1h),68,41,56,15,20,174,174,152,152,24,35,7,7,0.8,0.7
2026-05-30T1500,3010A,119.8919,31.7892,常州市,钟楼,臭氧1小时(O3_1h),63,34,41,10,16,170,170,154,154,13,22,8,9,0.4,0.6
2026-05-30T1500,3429A,119.8595,31.706,常州市,武进经发区,,50,34,56,20,29,157,157,138,138,14,30,12,9,0.5,0.7
2026-05-30T1500,3430A,119.5812,31.7256,常州市,金坛城区,臭氧1小时(O3_1h),82,46,46,31,28,185,185,151,151,12,19,9,10,0.6,0.7
2026-05-30T1500,4089A,119.9551,31.863,常州市,崇义南街5-H号,臭氧1小时(O3_1h),52,33,54,9,19,161,161,145,145,16,28,8,10,0.5,0.7
2026-05-30T1500,2220A,120.4318,41.588,朝阳市,西梁,,49,17,30,3,8,155,155,142,142,9,22,6,6,0.5,0.6
2026-05-30T1500,2221A,120.452,41.565,朝阳市,河畔小区,,50,19,26,3,8,159,159,143,143,7,17,8,8,0.2,0.3
2026-05-30T1500,2222A,120.4176,41.5648,朝阳市,八里堡,臭氧1小时(O3_1h),55,26,35,3,12,164,164,148,148,10,24,4,5,0.5,0.6
2026-05-30T1500,3026A,116.6179,23.6608,潮州市,市政府,臭氧1小时(O3_1h),80,57,31,26,17,184,184,107,107,7,11,6,10,0.6,0.6
2026-05-30T1500,4036A,116.646,23.676,潮州市,金山,臭氧1小时(O3_1h),69,50,24,23,15,175,175,97,97,5,6,4,3,0.6,0.6
2026-05-30T1500,2473A,113.0116,25.8228,郴州市,市职中,,39,NA,38,27,34,71,71,60,60,8,8,5,5,0.9,1
2026-05-30T1500,2475A,113.0381,25.8074,郴州市,市审计局,,38,28,41,26,29,68,68,61,61,9,8,2,2,/,/
2026-05-30T1500,2476A,113.0348,25.7757,郴州市,市环保局,NA,NA,NA,NA,NA,NA,NA,NA,NA,NA,NA,NA,NA,NA,NA,NA
2026-05-30T1500,4252A,113.0138,25.8011,郴州市,好美居路49号,,26,26,35,17,29,74,74,66,66,8,8,3,4,/,/
2026-05-30T1500,1431A,103.9727,30.7242,成都市,金泉两河,臭氧1小时(O3_1h),64,56,65,22,37,171,171,111,111,10,20,4,3,0.4,0.4
2026-05-30T1500,1432A,104.1423,30.6765,成都市,十里店,,49,47,67,25,31,156,156,114,114,9,16,6,6,0.4,0.4
2026-05-30T1500,1433A,104.0594,30.5765,成都市,三瓦窑,,45,43,60,22,32,141,141,106,106,10,17,7,6,0.6,0.6
2026-05-30T1500,1434A,104.1122,30.6306,成都市,沙河铺,,45,31,60,25,29,143,143,103,103,11,20,6,5,0.5,0.2
2026-05-30T1500,2880A,104.0219,30.6561,成都市,大石西路,,44,39,65,22,35,140,140,102,102,12,20,6,5,0.3,0.4
2026-05-30T1500,3136A,104.2724,30.559,成都市,龙泉驿区区政府,,42,31,42,19,26,134,134,103,103,7,11,8,8,0.6,0.5
2026-05-30T1500,3357A,104.0028,30.6891,成都市,金博路,,50,35,54,23,32,160,160,106,106,11,24,7,7,0.6,0.7
2026-05-30T1500,3359A,104.056,30.5228,成都市,华阳,,48,48,56,24,30,144,144,104,104,6,12,5,3,0.5,0.5
2026-05-30T1500,3488A,104.387954,30.746684,成都市,青石路225号,颗粒物(PM10),54,55,48,25,22,142,142,106,106,5,9,5,4,0.5,0.5
2026-05-30T1500,3489A,104.0788,30.4054,成都市,科学城,,48,NA,52,33,30,133,133,96,96,5,11,8,7,0.7,0.7
2026-05-30T1500,4011A,103.8505,30.6946,成都市,光华大道三段,臭氧1小时(O3_1h),64,60,63,27,35,171,171,109,109,10,19,6,5,0.4,0.4
2026-05-30T1500,4144A,104.3257,30.6406,成都市,八角井街185号,,46,46,51,27,25,136,136,105,105,8,10,8,7,0.5,0.5
2026-05-30T1500,4224A,104.2433276,30.53529463,成都市,鲸龙路1057号,,45,40,52,9,23,142,142,111,111,10,13,9,8,0.4,0.5
2026-05-30T1500,1062A,117.9531,40.908,承德市,铁路,臭氧1小时(O3_1h),52,15,23,3,7,161,161,111,111,5,18,14,8,0.4,0.3
2026-05-30T1500,1063A,117.9397,40.9763,承德市,中国银行,,49,19,20,3,7,154,154,106,106,4,12,20,4,0.7,0.3
2026-05-30T1500,4073A,117.9462,40.95,承德市,杏林街1号,臭氧1小时(O3_1h),64,20,22,6,13,171,171,115,115,8,16,21,5,0.6,0.3
2026-05-30T1500,4274A,117.7994,40.9605,承德市,滨河大街98号,臭氧1小时(O3_1h),58,NA,38,3,9,166,166,116,116,6,12,23,8,0.5,0.5
2026-05-30T1500,2314A,117.4698,30.6617,池州市,池州学院,臭氧1小时(O3_1h),75,41,75,33,44,180,180,126,126,15,26,6,6,0.7,0.6
2026-05-30T1500,3237A,117.4918,30.6617,池州市,展览馆,臭氧1小时(O3_1h),75,41,77,29,42,180,180,125,125,9,24,4,5,0.6,0.6
2026-05-30T1500,3333A,117.5626,30.695,池州市,第八中学,臭氧1小时(O3_1h),69,47,75,25,42,175,175,112,112,10,29,5,6,0.6,0.5
2026-05-30T1500,3334A,117.5037,30.6242,池州市,第十二中学,臭氧1小时(O3_1h),59,38,72,17,43,167,167,118,118,8,25,4,6,0.6,0.8
2026-05-30T1500,1744A,118.9229,42.2816,赤峰市,松山一中,,45,NA,20,18,9,141,141,119,119,12,23,7,8,0.2,0.4
2026-05-30T1500,1745A,118.9588,42.2733,赤峰市,哈达街,,43,6,17,3,8,136,136,113,113,13,19,9,10,0.3,0.4
2026-05-30T1500,1746A,118.8792,42.2551,赤峰市,天义路,,40,6,15,3,7,128,128,105,105,7,18,5,6,0.3,0.4
2026-05-30T1500,3058A,119.2656,42.0356,赤峰市,银河街,,47,23,26,3,11,150,150,123,123,11,15,8,14,0.5,0.6
2026-05-30T1500,3286A,118.9359,42.3146,赤峰市,桥北物流园区,,42,7,20,3,8,134,134,116,116,10,26,4,3,0.1,0.2
2026-05-30T1500,2521A,107.3473,22.4137,崇左市,市环保局江州分局,,26,20,23,8,9,82,82,54,54,3,11,3,2,0.5,0.5
2026-05-30T1500,4256A,107.375,22.3736,崇左市,石景林东路7号,,28,27,24,13,11,87,87,60,60,5,12,2,2,0.6,0.5
2026-05-30T1500,3207A,118.31131,32.3033,滁州市,市政府原办公楼,臭氧1小时(O3_1h),88,39,44,30,34,190,190,153,153,6,15,8,8,0.5,0.5
2026-05-30T1500,3331A,118.3268,32.2633,滁州市,图书馆,臭氧1小时(O3_1h),87,53,52,14,24,189,189,143,143,7,14,9,9,0.4,0.4
2026-05-30T1500,4101A,118.3196,32.3335,滁州市,银山路666号,臭氧1小时(O3_1h),69,38,53,19,29,175,175,140,140,11,23,8,9,0.3,0.3
2026-05-30T1500,4102A,118.3426,32.2979,滁州市,黄山路555号,臭氧1小时(O3_1h),90,57,58,23,30,192,192,143,143,6,15,10,9,0.6,0.5
2026-05-30T1500,2606A,101.5379,25.0492,楚雄彝族自治州,市经济开发区,,24,20,27,11,14,75,75,48,48,6,15,2,4,0.6,0.6
2026-05-30T1500,4153A,101.5536,25.0343,楚雄彝族自治州,团结路562号,,27,25,23,10,16,85,85,54,54,8,15,4,5,0.7,0.7
2026-05-30T1500,2549A,107.5087,31.2186,达州市,市环境监测站,,31,23,22,3,3,98,98,58,58,9,17,5,7,0.3,0.3
2026-05-30T1500,2550A,107.4988,31.2132,达州市,凤凰小区,,31,14,21,12,6,99,99,58,58,6,15,5,6,0.2,0.2
2026-05-30T1500,2551A,107.5081,31.1987,达州市,达县机关宾馆,,34,24,20,10,4,107,107,60,60,15,24,4,5,0.3,0.3
2026-05-30T1500,2552A,107.4644,31.2124,达州市,市政中心,,33,21,26,3,3,104,104,63,63,8,20,3,5,0.3,0.3
2026-05-30T1500,2614A,100.2168,25.5818,大理白族自治州,大理市环境监测站,,27,11,27,3,15,86,86,66,61,6,8,3,4,0.6,0.6
2026-05-30T1500,2615A,100.1542,25.7055,大理白族自治州,大理古城,,29,21,26,15,16,91,91,68,68,6,8,8,8,0.6,0.7
2026-05-30T1500,1109A,121.6119,38.974,大连市,甘井子,臭氧1小时(O3_1h),59,43,46,12,13,167,167,145,145,6,9,9,10,0.4,0.6
2026-05-30T1500,1110A,121.565,38.9509,大连市,周水子,臭氧1小时(O3_1h),78,36,37,12,15,182,182,154,154,14,18,7,9,0.3,0.4
2026-05-30T1500,1111A,121.5637,38.8849,大连市,星海三站,臭氧1小时(O3_1h),127,51,44,33,22,254,254,176,176,14,15,12,9,0.7,0.6
2026-05-30T1500,1112A,121.6301,38.9117,大连市,青泥洼桥,臭氧1小时(O3_1h),120,53,43,27,19,240,240,176,176,14,20,11,9,0.5,0.5
2026-05-30T1500,1113A,121.6248,38.8643,大连市,傅家庄,臭氧1小时(O3_1h),129,69,56,33,25,258,258,177,177,15,14,10,8,0.5,0.4
2026-05-30T1500,1114A,121.5117,38.8636,大连市,七贤岭,臭氧1小时(O3_1h),111,43,45,13,11,222,222,167,167,13,12,7,6,0.4,0.4
2026-05-30T1500,1116A,121.7507,39.1339,大连市,金州,臭氧1小时(O3_1h),68,40,52,10,21,174,174,150,150,12,19,10,11,0.5,0.6
2026-05-30T1500,1117A,121.7811,39.0495,大连市,开发区,臭氧1小时(O3_1h),79,43,48,17,20,183,183,145,145,22,25,10,9,0.4,0.8
2026-05-30T1500,1118A,121.9762,39.0631,大连市,双D港,臭氧1小时(O3_1h),107,63,44,43,19,214,214,163,163,14,12,8,8,0.6,0.6
2026-05-30T1500,4082A,121.2548,38.8188,大连市,旅顺,NA,NA,29,38,11,16,198,198,156,156,10,16,9,9,NA,0.5
2026-05-30T1500,1789A,124.8085,46.0381,大庆市,大同区,,39,21,21,3,8,123,123,98,98,7,13,4,4,0.3,0.3
2026-05-30T1500,1790A,125.1166,46.5255,大庆市,龙凤区,,34,15,27,6,8,107,107,81,81,8,12,2,4,0.2,0.2
2026-05-30T1500,1791A,124.8894,46.4007,大庆市,红岗区,,35,28,36,3,7,111,111,85,85,5,10,9,8,0.1,0.2
2026-05-30T1500,1792A,125.1391,46.578,大庆市,萨尔图区,,32,31,29,7,8,101,101,82,82,9,12,5,5,0.2,0.2
2026-05-30T1500,1793A,124.9026,46.6217,大庆市,让胡路区,,35,29,29,10,7,110,110,89,89,4,10,3,4,0.3,0.3
2026-05-30T1500,3481A,125.127,46.6277,大庆市,萨区政府监测点,,36,20,19,8,7,115,115,90,90,3,6,8,8,0.2,0.2
2026-05-30T1500,1723A,113.2926,40.0759,大同市,云冈宾馆,,47,17,38,3,11,148,148,124,124,5,22,6,8,0.4,0.6
2026-05-30T1500,1724A,113.3437,40.0921,大同市,大同大学,,45,23,26,3,11,143,143,122,122,8,21,6,8,0.2,0.4
2026-05-30T1500,1725A,113.2637,40.129,大同市,安家小村,,46,20,47,3,11,147,147,122,122,5,17,10,13,0.3,0.7
2026-05-30T1500,3282A,113.3399,40.0586,大同市,大同市卫生学校,NA,NA,18,36,8,11,161,161,133,133,NA,24,7,10,0.0,0.3
2026-05-30T1500,3565A,113.1371,40.1122,大同市,云冈站,,45,22,26,3,7,142,142,123,123,4,17,5,7,0.3,0.4
2026-05-30T1500,3566A,113.1186,40.2556,大同市,图书馆,,43,22,20,3,6,137,137,123,123,7,12,6,6,0.2,0.3
2026-05-30T1500,3567A,113.5931,40.0459,大同市,区一中,,50,44,38,7,11,159,159,138,138,9,20,8,10,0.2,0.4
2026-05-30T1500,4199A,113.2798248,40.09972476,大同市,魏都大道141号,,46,26,42,3,12,145,145,121,121,8,24,5,7,0.2,0.6
2026-05-30T1500,2269A,124.1068,50.4091,大兴安岭地区,科技局,,25,20,22,3,7,77,77,61,61,1,3,8,7,0.3,0.3
2026-05-30T1500,3663A,124.117,50.4279,大兴安岭地区,红旗社区,,28,9,11,3,7,89,89,71,71,3,7,8,7,0.2,0.3
2026-05-30T1500,1600A,124.33,40.0625,丹东市,江湾东路,臭氧1小时(O3_1h),60,33,45,14,19,168,168,154,154,10,17,7,5,0.5,0.5
2026-05-30T1500,1601A,124.4242,40.1513,丹东市,临江后街,,50,43,45,18,20,157,157,147,147,10,18,4,5,0.5,0.6
2026-05-30T1500,1602A,124.3935,40.1461,丹东市,元宝山,臭氧1小时(O3_1h),58,41,38,15,18,166,166,154,154,13,16,7,9,0.7,0.7
2026-05-30T1500,1603A,124.3634,40.1093,丹东市,民主桥,NA,NA,40,49,NA,21,157,157,146,146,NA,21,8,8,0.6,0.5
2026-05-30T1500,3541A,109.5726195,19.51688767,儋州市,第一中学子站,,27,27,33,13,17,78,78,66,66,3,5,2,3,0.5,0.5
2026-05-30T1500,3542A,109.5567,19.5187,儋州市,东坡学校子站,,27,16,26,10,17,84,84,69,69,2,5,4,3,0.5,0.6
2026-05-30T1500,2616A,98.5611,24.4273,德宏傣族景颇族自治州,德宏州监测站,,23,7,33,3,28,72,72,48,48,4,8,8,8,0.3,0.4
2026-05-30T1500,3677A,98.5887,24.4366,德宏傣族景颇族自治州,芒市人民政府综合楼,,30,30,64,3,28,72,72,50,50,6,9,6,5,0.4,0.6
2026-05-30T1500,1901A,104.424,31.1209,德阳市,东山公园,颗粒物(PM10),54,55,36,24,24,141,141,102,102,8,8,4,3,0.4,0.4
2026-05-30T1500,1902A,104.3827,31.1318,德阳市,西小区,颗粒物(PM10),61,65,46,25,23,134,134,93,93,11,13,6,6,0.6,0.5
2026-05-30T1500,1904A,104.3553,31.1091,德阳市,耐火材料厂,颗粒物(PM10),54,55,48,25,25,159,159,103,103,10,15,4,3,0.3,0.3
2026-05-30T1500,4145A,104.4144,31.1495,德阳市,市林业局,臭氧1小时(O3_1h),65,61,40,26,24,172,172,115,115,10,12,8,7,0.6,0.5
2026-05-30T1500,1622A,116.3034,37.4675,德州市,儿童乐园,臭氧1小时(O3_1h),105,70,50,15,14,210,210,160,160,10,16,13,11,0.7,0.6
2026-05-30T1500,1624A,116.2992,37.4449,德州市,监理站,臭氧1小时(O3_1h),103,70,52,12,13,206,206,158,158,14,24,9,9,0.4,0.4
2026-05-30T1500,3066A,116.2722,37.438,德州市,九衢泉纯净水厂,臭氧1小时(O3_1h),95,68,52,13,13,196,196,147,147,14,43,14,12,0.7,0.7
2026-05-30T1500,3371A,116.3693,37.44,德州市,开发区人民医院,臭氧1小时(O3_1h),99,61,50,14,13,199,199,152,152,4,13,12,10,0.6,0.5
2026-05-30T1500,3511A,116.5687,37.3331,德州市,陵城艺术中心,臭氧1小时(O3_1h),101,53,47,9,14,201,201,151,151,8,18,16,12,0.5,0.5
2026-05-30T1500,4292A,116.352738,37.420875,德州市,新河东路,臭氧1小时(O3_1h),89,58,45,15,11,191,191,145,145,12,27,13,11,0.8,0.6
2026-05-30T1500,2621A,99.7054,27.8319,迪庆藏族自治州,迪庆州站,,23,13,17,9,8,71,71,68,68,8,8,7,8,0.3,0.6
2026-05-30T1500,3180A,99.7122,27.8129,迪庆藏族自治州,质量技术监督局,,23,13,17,6,9,71,71,70,70,11,9,9,9,0.3,0.3
2026-05-30T1500,4257A,104.6092,35.5962,定西市,将台街,,50,32,48,8,15,158,158,118,118,3,18,5,4,0.2,0.2
2026-05-30T1500,4309A,104.6159,35.5701,定西市,正龙路62号,,49,36,50,10,13,156,156,122,122,5,9,4,4,0.2,0.2
2026-05-30T1500,4071A,114.9883,38.5232,定州市,交通局,臭氧1小时(O3_1h),89,37,45,15,14,191,191,139,139,10,17,10,9,0.4,0.4
2026-05-30T1500,4072A,115.0045,38.5136,定州市,第五中学,臭氧1小时(O3_1h),83,40,56,8,13,186,186,136,136,5,17,6,5,0.4,0.4
2026-05-30T1500,1390A,113.7943,23.0132,东莞市,东城石井,臭氧1小时(O3_1h),74,20,20,10,12,179,179,126,126,14,15,4,3,0.7,0.7
2026-05-30T1500,1391A,113.7384,22.9659,东莞市,南城西平,臭氧1小时(O3_1h),84,20,21,10,10,187,187,120,120,10,20,2,3,0.6,0.6
2026-05-30T1500,3319A,113.7283,23.041,东莞市,万江金泰,臭氧1小时(O3_1h),72,22,20,12,11,177,177,123,123,10,15,9,7,0.5,0.5
2026-05-30T1500,4129A,113.8666,23.1062,东莞市,裕兴路,,42,12,21,3,8,132,132,114,114,4,10,7,7,0.6,0.7
2026-05-30T1500,4130A,114.0076,22.9739,东莞市,教育路1号,臭氧1小时(O3_1h),99,18,27,8,13,199,199,151,151,11,16,6,5,0.6,0.6
2026-05-30T1500,4131A,113.7981,22.8124,东莞市,长怡路1号,臭氧1小时(O3_1h),113,27,29,12,13,225,225,145,145,12,18,5,4,0.6,0.6
2026-05-30T1500,1666A,118.6612,37.4313,东营市,市环保局,臭氧1小时(O3_1h),94,46,46,3,4,195,195,150,150,6,21,6,9,0.2,0.3
2026-05-30T1500,3036A,118.6903,37.4337,东营市,开发区管委会,臭氧1小时(O3_1h),89,55,48,3,12,191,191,151,151,14,30,11,12,0.3,0.4
2026-05-30T1500,3365A,118.5721,37.5654,东营市,垦利区民丰路,臭氧1小时(O3_1h),64,39,44,3,7,171,171,142,142,10,17,10,11,0.3,0.4
2026-05-30T1500,3498A,118.5063,37.8606,东营市,河口城区,臭氧1小时(O3_1h),79,48,42,3,9,183,183,143,143,15,21,18,19,0.7,0.8
2026-05-30T1500,3646A,118.4979,37.4623,东营市,胜利站,NA,NA,25,30,3,14,162,162,135,135,12,22,NA,5,0.4,0.5
2026-05-30T1500,3734A,118.5753,37.4405,东营市,理想之城,臭氧1小时(O3_1h),80,36,42,3,12,184,184,149,149,11,22,14,11,0.4,0.4
2026-05-30T1500,1591A,110.0024,39.8127,鄂尔多斯市,综合楼,,44,27,26,8,10,140,140,119,119,9,22,7,7,0.4,0.5
2026-05-30T1500,1592A,109.9485,39.8259,鄂尔多斯市,巴音孟克林场办事处,,46,19,17,3,8,147,147,134,134,6,13,4,4,0.4,0.4
2026-05-30T1500,1593A,109.7734,39.5987,鄂尔多斯市,康泽苑,,48,27,23,9,8,151,151,123,123,7,22,9,6,0.2,0.3
2026-05-30T1500,1594A,109.8121,39.5987,鄂尔多斯市,华泰汽车城,,43,27,25,3,13,135,135,101,101,6,26,12,8,0.3,0.4
2026-05-30T1500,1595A,109.9734,39.7884,鄂尔多斯市,奥林花园,,45,24,30,10,9,143,143,117,117,6,30,6,5,0.3,0.4
2026-05-30T1500,2436A,114.894,30.3989,鄂州市,市政府,颗粒物(PM10),63,68,55,25,24,143,143,93,93,22,25,12,7,0.8,0.6
2026-05-30T1500,2437A,114.8986,30.3714,鄂州市,赵家坝,颗粒物(PM10),54,55,55,23,19,162,162,99,99,10,18,20,21,0.4,0.5
2026-05-30T1500,3654A,114.8093,30.4091,鄂州市,精准医疗中心,臭氧1小时(O3_1h),72,48,47,28,20,177,177,104,104,13,22,4,4,0.6,0.5
2026-05-30T1500,2454A,109.4978,30.2979,恩施土家族苗族自治州,湖北民院,,26,24,32,16,16,81,81,74,74,6,4,9,8,0.4,0.5
2026-05-30T1500,3549A,109.5061,30.3771,恩施土家族苗族自治州,龙凤新区,,23,15,26,3,14,73,73,65,65,4,5,7,7,0.4,0.5
2026-05-30T1500,2499A,108.3411,21.6159,防城港市,沙万,NA,NA,27,24,19,16,82,82,66,66,10,9,2,2,NA,0.6
2026-05-30T1500,2500A,108.3515,21.7733,防城港市,防城档案局,,41,41,32,24,17,85,85,54,54,6,9,5,5,0.7,0.6
2026-05-30T1500,2501A,108.3506,21.6414,防城港市,大海花园,,35,35,24,24,19,93,93,72,72,7,6,5,5,0.6,0.5
2026-05-30T1500,1371A,113.1293,23.0065,佛山市,湾梁,臭氧1小时(O3_1h),111,36,29,23,17,221,221,130,130,14,18,/,/,/,/
2026-05-30T1500,1372A,113.1082,23.0477,佛山市,华材职中,臭氧1小时(O3_1h),103,31,24,20,18,206,206,130,130,11,16,6,6,0.8,0.7
2026-05-30T1500,1373A,113.1439,23.045,佛山市,南海气象局,臭氧1小时(O3_1h),105,44,24,19,17,210,210,127,127,15,22,/,/,/,/
2026-05-30T1500,1374A,113.2879,22.8094,佛山市,顺德苏岗,臭氧1小时(O3_1h),104,NA,15,27,20,208,208,129,129,12,18,/,/,0.7,0.6
2026-05-30T1500,1376A,112.8384,22.8678,佛山市,高明孔堂,臭氧1小时(O3_1h),98,29,33,21,19,198,198,126,126,12,19,/,/,/,/
2026-05-30T1500,1377A,112.8835,23.1584,佛山市,三水监测站,臭氧1小时(O3_1h),67,29,25,20,18,173,173,116,116,14,17,5,5,0.7,0.7
2026-05-30T1500,1378A,112.8668,23.185,佛山市,三水云东海,臭氧1小时(O3_1h),53,44,36,20,19,162,162,116,116,6,10,/,/,/,/
2026-05-30T1500,3625A,113.2568,22.7629,佛山市,容桂街道办,臭氧1小时(O3_1h),115,NA,22,33,17,229,229,135,135,16,19,/,/,/,/
2026-05-30T1500,1282A,119.2681,26.0506,福州市,师大,臭氧1小时(O3_1h),88,51,43,17,24,190,190,155,155,10,12,5,5,0.4,0.6
2026-05-30T1500,1283A,119.2983,26.1028,福州市,五四北路,臭氧1小时(O3_1h),92,41,41,22,26,193,193,165,165,13,13,5,5,0.3,0.5
2026-05-30T1500,1284A,119.2648,26.0769,福州市,杨桥西路,臭氧1小时(O3_1h),88,52,41,18,22,190,190,158,158,10,10,5,5,/,/
2026-05-30T1500,3048A,119.5799,26.0937,福州市,九龙,臭氧1小时(O3_1h),63,34,38,21,21,170,170,151,151,7,10,6,7,0.3,0.3
2026-05-30T1500,3526A,119.5188,25.9666,福州市,吴航,臭氧1小时(O3_1h),62,36,31,19,20,169,169,153,153,10,11,6,7,0.5,0.5
2026-05-30T1500,4104A,119.3106,26.0648,福州市,路通桥巷6号,臭氧1小时(O3_1h),88,44,38,18,25,190,190,162,162,10,10,/,/,/,/
2026-05-30T1500,1755A,123.7974,41.8494,抚顺市,望花区,,46,19,43,8,17,145,145,111,111,11,32,14,18,0.8,1.2
2026-05-30T1500,1756A,123.9161,41.8827,抚顺市,顺城区,,49,20,35,3,11,156,156,127,127,10,31,12,14,0.7,1
2026-05-30T1500,1757A,124.0437,41.8615,抚顺市,东洲区,臭氧1小时(O3_1h),55,26,32,7,12,164,164,136,136,11,22,15,14,0.6,0.9
2026-05-30T1500,1758A,123.9246,41.8638,抚顺市,新抚区,臭氧1小时(O3_1h),57,28,43,7,14,165,165,134,134,12,27,10,11,0.4,0.8
2026-05-30T1500,1759A,124.0972,41.8961,抚顺市,大伙房水库,臭氧1小时(O3_1h),92,29,36,8,11,193,193,158,158,17,24,11,12,0.6,0.8
2026-05-30T1500,1760A,123.708,41.8386,抚顺市,沈抚新城,臭氧1小时(O3_1h),53,23,39,3,11,162,162,113,113,22,33,10,14,0.4,0.8
2026-05-30T1500,2377A,116.3544,27.9833,抚州市,市站,细颗粒物(PM2.5),70,66,57,45,33,145,145,128,128,6,8,8,11,0.7,0.7
2026-05-30T1500,2378A,116.3562,27.9631,抚州市,血防站,细颗粒物(PM2.5),64,62,55,42,32,152,152,136,136,6,8,3,5,0.6,0.5
2026-05-30T1500,2379A,116.3561,28.0007,抚州市,采茶剧团,细颗粒物(PM2.5),92,62,56,56,36,147,147,129,129,5,9,8,9,0.8,0.8
2026-05-30T1500,2380A,116.3854,27.9648,抚州市,医学分院,细颗粒物(PM2.5),66,70,55,43,32,132,132,118,118,5,6,7,10,1.1,0.9
2026-05-30T1500,2207A,121.6095,41.9978,阜新市,工业园区,臭氧1小时(O3_1h),54,30,37,3,10,163,163,108,108,13,43,9,14,0.2,0.3
2026-05-30T1500,2208A,121.6567,42.0188,阜新市,长青街,,48,19,24,3,9,153,153,105,105,12,36,8,12,0.3,0.4
2026-05-30T1500,2209A,121.6672,42.07,阜新市,农业园区,,47,34,32,6,8,148,148,107,107,16,30,8,9,0.4,0.4
2026-05-30T1500,2211A,121.6343,42.0455,阜新市,玉龙新城,,48,29,38,3,10,153,153,105,105,13,40,9,9,0.5,0.5
2026-05-30T1500,2301A,115.8276,32.8929,阜阳市,市监测站,臭氧1小时(O3_1h),90,71,91,13,31,192,192,145,145,13,24,8,7,0.1,0.2
2026-05-30T1500,2303A,115.8551,32.8606,阜阳市,开发区,臭氧1小时(O3_1h),88,81,131,14,37,190,190,134,134,14,25,6,6,0.5,0.5
2026-05-30T1500,2875A,115.783962,32.889217,阜阳市,阜阳职业技术学院,臭氧1小时(O3_1h),99,87,113,18,34,199,199,143,143,8,20,9,7,0.3,0.4
2026-05-30T1500,3468A,115.79,32.8614,阜阳市,市规划展馆,臭氧1小时(O3_1h),105,88,109,14,37,209,209,149,149,10,26,10,9,0.3,0.5
2026-05-30T1500,3469A,115.835101,32.918568,阜阳市,枣园社区,臭氧1小时(O3_1h),90,44,75,10,30,192,192,145,145,9,23,8,7,0.3,0.5
2026-05-30T1500,2669A,102.9097,34.9841,甘南藏族自治州,州政府,,38,19,41,3,19,120,120,84,84,2,15,2,2,0.2,0.3
2026-05-30T1500,3380A,102.8915,34.9618,甘南藏族自治州,甘肃民族师范学院,,37,21,43,3,20,117,117,85,85,10,22,2,2,0.2,0.3
2026-05-30T1500,2570A,101.96,30.048,甘孜藏族自治州,水桥子,,33,8,6,3,2,103,103,65,61,2,10,6,6,0.2,0.2
2026-05-30T1500,3065A,101.9534,29.9976,甘孜藏族自治州,州环保局,,30,6,8,3,5,94,94,65,61,7,11,4,4,0.3,0.3
2026-05-30T1500,2363A,114.9368,25.8663,赣州市,地委,细颗粒物(PM2.5),60,56,50,40,34,130,130,122,122,2,4,3,3,0.8,0.8
2026-05-30T1500,2364A,114.946,25.8483,赣州市,气象台,细颗粒物(PM2.5),72,46,46,46,37,130,130,119,119,10,10,6,4,0.4,0.5
2026-05-30T1500,2365A,114.932,25.8332,赣州市,市图书馆,NA,NA,55,45,35,30,146,146,136,136,6,6,5,5,NA,0.9
2026-05-30T1500,2366A,114.8905,25.8472,赣州市,华坚鞋城,颗粒物(PM10),63,67,55,38,31,132,132,127,127,13,11,2,2,0.6,0.1
2026-05-30T1500,3109A,115.0094,25.8614,赣州市,赣县区卫计委,细颗粒物(PM2.5),60,46,40,40,31,128,128,113,113,4,5,4,4,0.5,0.5
2026-05-30T1500,2684A,106.2753,36.0057,固原市,监测站,,50,27,26,6,10,158,158,132,132,6,14,6,6,0.2,0.3
2026-05-30T1500,2685A,106.2384,36.0189,固原市,新区,,48,37,30,3,9,152,152,123,123,7,14,6,6,0.2,0.4
2026-05-30T1500,2544A,106.6307,30.4577,广安市,市委,,33,11,17,8,12,104,104,72,72,3,4,8,7,0.3,0.3
2026-05-30T1500,2545A,106.6266,30.4662,广安市,友谊中学,,33,9,17,3,9,105,105,73,73,5,5,8,7,0.5,0.4
2026-05-30T1500,2547A,106.6386,30.4551,广安市,广电花园,,31,24,19,6,10,99,99,70,70,7,6,7,6,0.4,0.4
2026-05-30T1500,2902A,106.6347,30.4868,广安市,北辰小学,,31,15,21,6,11,99,99,72,72,5,6,8,7,0.4,0.3
2026-05-30T1500,2524A,105.8211,32.4444,广元市,老城,,48,14,28,12,14,151,151,102,102,6,17,15,6,0.7,0.5
2026-05-30T1500,2526A,105.8629,32.429,广元市,监测站,,44,39,35,12,11,139,139,96,96,10,15,12,8,0.6,0.5
2026-05-30T1500,3617A,105.8047,32.4167,广元市,经开区,,43,37,39,20,19,135,135,93,93,9,22,17,10,0.7,0.5
2026-05-30T1500,1345A,113.2346,23.1423,广州市,广雅中学,臭氧1小时(O3_1h),80,27,23,19,14,184,184,125,125,13,21,1,1,0.5,0.5
2026-05-30T1500,1346A,113.2611,23.105,广州市,市五中,臭氧1小时(O3_1h),114,22,24,12,15,228,228,154,154,11,16,3,3,/,/
2026-05-30T1500,1348A,113.3477,23.0916,广州市,广东商学院,臭氧1小时(O3_1h),103,25,22,12,12,206,206,130,130,11,17,4,5,0.5,0.5
2026-05-30T1500,1349A,113.4332,23.105,广州市,市八十六中,臭氧1小时(O3_1h),75,18,18,12,11,180,180,116,116,16,23,6,6,/,/
2026-05-30T1500,1350A,113.3506,22.9488,广州市,番禺中学,臭氧1小时(O3_1h),103,32,25,17,15,205,205,124,124,14,19,4,6,0.5,0.5
2026-05-30T1500,1351A,113.2147,23.3918,广州市,花都师范,,48,22,18,11,7,151,151,108,108,11,12,7,7,0.7,0.7
2026-05-30T1500,1352A,113.2599,23.1329,广州市,市监测站,臭氧1小时(O3_1h),98,26,23,15,14,198,198,137,137,9,16,2,2,/,/
2026-05-30T1500,1353A,113.5618,23.3119,广州市,九龙镇镇龙,,44,16,19,9,11,138,138,87,87,8,12,5,6,0.6,0.6
2026-05-30T1500,1354A,113.2764,23.1544,广州市,麓湖,臭氧1小时(O3_1h),88,19,19,10,12,190,190,125,125,9,25,6,6,0.7,0.6
2026-05-30T1500,2846A,113.3209,23.1323,广州市,体育西,臭氧1小时(O3_1h),93,24,23,14,13,194,194,127,127,13,21,5,4,0.5,0.5
2026-05-30T1500,3298A,113.5718,23.5493,广州市,从化街口,,37,16,15,12,10,118,118,86,86,6,10,5,5,0.5,0.5
2026-05-30T1500,3299A,113.3463,23.369,广州市,白云竹料,臭氧1小时(O3_1h),53,24,20,13,12,162,162,122,122,8,11,3,3,0.5,0.5
2026-05-30T1500,3300A,113.2981,23.2365,广州市,白云嘉禾,臭氧1小时(O3_1h),79,27,23,15,14,183,183,111,111,11,22,8,7,/,/
2026-05-30T1500,3301A,113.4256,23.1716,广州市,黄埔科学城,臭氧1小时(O3_1h),69,24,23,14,14,175,175,107,107,7,12,6,6,0.4,0.4
2026-05-30T1500,3302A,113.3942,23.0485,广州市,番禺大学城,臭氧1小时(O3_1h),107,16,21,12,12,213,213,131,131,13,21,5,5,0.4,0.4
2026-05-30T1500,3303A,113.4923,22.8169,广州市,南沙黄阁,臭氧1小时(O3_1h),100,NA,29,28,15,200,200,120,120,12,21,6,7,/,/
2026-05-30T1500,3304A,113.534,22.7893,广州市,南沙街,臭氧1小时(O3_1h),88,21,28,12,15,190,190,129,129,11,19,8,8,0.4,0.4
2026-05-30T1500,3443A,113.2905,23.5541,广州市,花都梯面,,27,10,15,7,8,86,86,64,64,4,10,9,8,/,/
2026-05-30T1500,3445A,113.786,23.7479,广州市,从化良口,,27,10,11,6,8,86,86,76,76,4,7,4,4,/,/
2026-05-30T1500,3446A,113.805,23.2614,广州市,增城荔城,,37,12,16,8,9,116,116,91,91,5,8,6,6,0.7,0.7
2026-05-30T1500,2506A,109.604387,23.066791,贵港市,江南子站,,32,24,23,3,17,102,102,75,75,5,9,4,2,0.6,0.6
2026-05-30T1500,2508A,109.5669,23.1065,贵港市,荷城子站,,28,19,22,18,19,87,87,60,60,5,9,4,3,0.7,0.6
2026-05-30T1500,3405A,109.5886,23.1172,贵港市,新世纪学校,,33,17,23,12,16,103,103,66,66,8,12,/,/,0.6,0.6
2026-05-30T1500,4260A,109.5933,23.095,贵港市,中山路155-3号,,35,22,29,12,17,110,110,76,76,7,9,/,/,0.6,0.5
2026-05-30T1500,1439A,106.6863,26.6035,贵阳市,马鞍山,,38,24,31,8,14,119,119,91,91,7,9,8,4,/,/
2026-05-30T1500,1441A,106.6241,26.6266,贵阳市,鉴湖路,,41,36,47,10,14,130,130,107,107,5,4,12,10,0.6,1.1
2026-05-30T1500,1442A,106.7468,26.6344,贵阳市,燕子冲,,38,34,46,6,16,120,120,99,99,8,11,12,11,0.7,0.8
2026-05-30T1500,1443A,106.6556,26.4362,贵阳市,碧云窝,,42,41,49,12,15,132,132,109,109,14,11,5,5,/,/
2026-05-30T1500,1445A,106.6963,26.6063,贵阳市,红边门,,40,34,39,7,16,127,127,108,108,6,10,10,8,/,/
2026-05-30T1500,1446A,106.7162383,26.56964667,贵阳市,新华路,二氧化硫(SO2),53,39,46,3,16,137,137,114,114,7,11,171,26,0.5,0.4
2026-05-30T1500,1447A,106.6742,26.542,贵阳市,太慈桥,,31,29,36,6,16,98,98,73,73,7,10,3,2,/,/
2026-05-30T1500,4230A,106.688212,26.56952,贵阳市,花果园大街66号,,38,17,26,9,16,121,121,101,101,6,9,3,3,/,/
2026-05-30T1500,4231A,106.687268,26.516892,贵阳市,漓江路57号,,42,22,34,9,17,133,133,107,107,7,11,2,3,0.5,0.5
2026-05-30T1500,1864A,110.3091,25.2705,桂林市,龙隐路小学,,26,21,32,3,22,81,81,70,70,3,6,4,4,0.5,0.5
2026-05-30T1500,1865A,110.2849361,25.22909545,桂林市,八中,,27,21,31,3,16,86,86,74,74,7,10,3,4,0.6,0.6
2026-05-30T1500,3531A,110.296,25.1254,桂林市,旅游学院,,28,23,39,11,21,89,89,79,79,2,4,6,6,0.4,0.4
2026-05-30T1500,4222A,110.1835,25.2444,桂林市,环湖路276号,,26,NA,25,8,21,82,82,68,68,4,6,3,3,0.4,0.4
2026-05-30T1500,4301A,110.2803,25.2773,桂林市,信义路13号,,24,20,31,6,19,76,76,66,66,2,5,4,4,0.5,0.6
2026-05-30T1500,2674A,100.2262,34.4854,果洛藏族自治州,玛沁县大武镇,,30,26,37,3,10,94,94,82,82,1,4,18,19,0.3,0.3
2026-05-30T1500,1130A,126.5557,45.8109,哈尔滨市,松北商大,,31,21,13,8,9,99,99,77,77,11,17,4,4,0.2,0.2
2026-05-30T1500,1132A,126.6162,45.719,哈尔滨市,南岗学府路,,34,12,22,3,3,107,107,86,86,7,10,5,5,0.4,0.4
2026-05-30T1500,1133A,126.6894,45.7733,哈尔滨市,太平宏伟公园,,36,36,24,3,6,104,104,83,83,11,14,6,6,0.3,0.3
2026-05-30T1500,1134A,126.6361,45.7672,哈尔滨市,道外承德广场,,30,27,32,3,5,96,96,81,81,17,12,5,5,0.4,0.4
2026-05-30T1500,1136A,126.644,45.7261,哈尔滨市,动力和平路,,34,22,18,3,5,106,106,85,85,7,13,3,4,0.2,0.3
2026-05-30T1500,1137A,126.5933,45.7479,哈尔滨市,道里建国路,,34,19,16,3,4,108,108,89,89,10,12,4,4,0.5,0.3
2026-05-30T1500,1138A,126.6127,45.6119,哈尔滨市,平房东轻厂,,33,12,20,3,4,105,105,82,82,7,18,5,8,0.2,0.4
2026-05-30T1500,1139A,126.5875,45.9827,哈尔滨市,呼兰师专,,36,36,30,3,4,96,96,78,78,8,14,6,5,0.2,0.2
2026-05-30T1500,1140A,126.6299,45.6799,哈尔滨市,省农科院,,30,30,28,3,7,91,91,79,79,11,9,5,5,0.4,0.4
2026-05-30T1500,4282A,126.6769,45.7379,哈尔滨市,华山路1号,,35,19,17,3,3,110,110,91,91,8,11,6,5,0.2,0.3
2026-05-30T1500,4283A,126.9717,45.5356,哈尔滨市,解放大街52号,,33,19,27,3,4,105,105,79,79,9,21,6,5,0.6,0.5
2026-05-30T1500,2688A,93.5124,42.8176,哈密市,地区监测站,,40,20,32,12,14,125,125,107,107,2,6,2,3,0.5,0.6
2026-05-30T1500,2689A,93.5014,42.8312,哈密市,哈密师范学校,,41,26,35,6,15,131,131,113,113,4,7,4,4,0.1,0.1
2026-05-30T1500,2671A,100.9016,36.9464,海北藏族自治州,海晏县西海镇,,48,13,19,12,11,151,151,122,122,1,4,10,8,0.4,0.4
2026-05-30T1500,3867A,102.074,36.5056,海东市,平安区公安局北苑,,49,24,28,12,24,154,154,112,112,7,11,13,11,0.5,0.5
2026-05-30T1500,4163A,102.0984,36.5119,海东市,滨河路,,40,27,29,11,17,127,127,92,92,14,27,12,8,0.6,0.7
2026-05-30T1500,1410A,110.3189,20.0596,海口市,海南大学,,18,6,26,3,18,57,57,65,65,2,7,5,5,0.3,0.4
2026-05-30T1500,1411A,110.2827,20.0051,海口市,秀英海南医院,,22,17,25,6,20,68,68,73,73,3,12,6,6,0.4,0.4
2026-05-30T1500,1412A,110.3391,19.9979,海口市,海南师范大学,,20,20,26,7,17,61,61,75,75,4,7,4,4,0.3,0.4
2026-05-30T1500,1413A,110.3303,20.0359,海口市,龙华路环保局宿舍,,18,17,24,3,16,56,56,69,69,3,6,/,/,0.3,0.3
2026-05-30T1500,3539A,110.5111,19.9737,海口市,桂林洋子站,,17,16,24,6,15,54,54,55,55,2,6,/,/,/,/
2026-05-30T1500,4134A,110.1952,20.0451,海口市,长滨二路9号,,17,8,27,3,21,52,52,61,61,2,8,/,/,/,/
2026-05-30T1500,2673A,100.6158,36.2985,海南藏族自治州,共和县恰卜恰镇,,41,NA,24,20,12,129,129,112,112,1,6,8,10,0.4,0.4
2026-05-30T1500,2676A,97.373,37.376,海西蒙古族藏族自治州,德令哈市,,45,36,34,9,13,141,141,125,125,1,2,17,18,0.3,0.3
2026-05-30T1500,1049A,114.492,36.5712,邯郸市,矿院,臭氧1小时(O3_1h),75,12,37,3,20,180,180,153,153,1,18,2,4,0.3,0.5
2026-05-30T1500,1050A,114.4839,36.6136,邯郸市,丛台公园,臭氧1小时(O3_1h),64,6,32,3,13,171,171,152,152,4,14,3,7,0.2,0.5
2026-05-30T1500,3458A,114.7893,36.5592,邯郸市,香泉濮院小区,臭氧1小时(O3_1h),79,27,62,9,22,183,183,149,149,6,16,1,3,0.5,0.4
2026-05-30T1500,3580A,114.1998,36.4439,邯郸市,峰峰矿区临水派出所,臭氧1小时(O3_1h),73,16,32,3,15,178,178,153,153,11,18,4,8,0.5,0.6
2026-05-30T1500,4068A,114.5209,36.7697,邯郸市,建安街268号,臭氧1小时(O3_1h),68,16,49,3,15,174,174,152,152,5,19,3,10,0.4,1
2026-05-30T1500,4069A,114.5488,36.6177,邯郸市,丛台东路558号,臭氧1小时(O3_1h),59,21,45,3,18,167,167,148,148,4,25,4,6,0.3,0.6
2026-05-30T1500,2635A,107.0155,33.0707,汉中市,市监测站,,42,26,32,12,19,132,132,86,86,6,8,5,4,0.3,0.3
2026-05-30T1500,2636A,107.0083,33.114,汉中市,鑫源开发区,,44,41,31,8,19,138,138,94,94,6,10,6,6,0.4,0.4
2026-05-30T1500,2637A,107.0072,33.0323,汉中市,南郑大河坎水厂,,39,26,33,7,17,124,124,82,82,5,9,5,4,0.5,0.5
2026-05-30T1500,1223A,120.2073,30.2111,杭州市,滨江,臭氧1小时(O3_1h),69,32,49,13,26,175,175,143,143,12,19,9,10,0.4,0.6
2026-05-30T1500,1224A,120.0625,30.2737,杭州市,西溪,,43,27,36,13,23,136,136,98,98,12,21,4,4,0.2,0.5
2026-05-30T1500,1226A,120.3417,30.315,杭州市,下沙,,46,6,31,3,20,146,146,134,134,12,24,6,7,0.4,0.6
2026-05-30T1500,1227A,120.1252,30.2465,杭州市,卧龙桥,臭氧1小时(O3_1h),60,32,37,15,20,168,168,126,126,14,18,9,9,0.2,0.3
2026-05-30T1500,1228A,120.1902,30.2691,杭州市,浙江农大,臭氧1小时(O3_1h),53,23,39,11,22,162,162,140,140,14,23,7,7,0.2,0.4
2026-05-30T1500,1230A,120.1195,30.3121,杭州市,和睦小学,,47,19,38,8,24,149,149,116,116,14,22,8,9,0.4,0.6
2026-05-30T1500,1231A,120.3076,30.4146,杭州市,临平镇,,45,10,45,3,23,144,144,101,NA,5,18,7,8,0.5,0.6
2026-05-30T1500,1232A,120.2753,30.1839,杭州市,城厢镇,臭氧1小时(O3_1h),62,22,45,8,24,169,169,146,146,21,25,7,7,0.4,0.6
2026-05-30T1500,1233A,120.0883,30.1808,杭州市,云栖,,46,32,42,13,19,146,146,119,119,16,25,10,9,0.6,0.8
2026-05-30T1500,3557A,119.9463,30.0496,杭州市,镇二中,臭氧1小时(O3_1h),79,61,40,36,26,183,183,131,131,34,26,8,6,0.5,0.6
2026-05-30T1500,3558A,119.7184,30.2367,杭州市,市府大楼,,49,NA,35,19,32,156,156,122,122,18,19,8,8,0.5,0.7
2026-05-30T1500,3656A,120.1554,30.2863,杭州市,消防大队,臭氧1小时(O3_1h),55,23,37,12,24,164,164,140,140,20,28,8,8,0.3,0.5
2026-05-30T1500,1270A,117.1957,31.7845,合肥市,明珠广场,臭氧1小时(O3_1h),62,44,75,13,38,169,169,117,117,6,19,7,8,0.4,0.6
2026-05-30T1500,1271A,117.307,31.8765,合肥市,三里街,颗粒物(PM10),55,56,68,10,39,151,151,106,106,6,19,8,8,0.4,0.6
2026-05-30T1500,1272A,117.2587,31.8703,合肥市,琥珀山庄,颗粒物(PM10),56,58,67,10,33,159,159,108,108,6,16,7,6,0.8,0.9
2026-05-30T1500,1275A,117.2593,31.9376,合肥市,庐阳区,颗粒物(PM10),58,61,70,12,38,154,154,102,102,9,21,9,8,0.6,0.6
2026-05-30T1500,1276A,117.345251,31.861615,合肥市,瑶海区,颗粒物(PM10),53,53,74,8,32,160,160,111,111,5,21,6,8,0.5,0.6
2026-05-30T1500,1277A,117.3033,31.7967,合肥市,包河区,颗粒物(PM10),56,58,77,13,33,160,160,104,104,13,35,8,8,0.5,0.6
2026-05-30T1500,1278A,117.278,31.7392,合肥市,滨湖新区,臭氧1小时(O3_1h),58,51,80,12,35,166,166,111,111,11,31,9,9,0.5,0.7
2026-05-30T1500,1279A,117.1324,31.8395,合肥市,高新区,颗粒物(PM10),55,56,76,14,33,162,162,116,116,4,16,6,6,0.4,0.5
2026-05-30T1500,3464A,117.3802,31.9148,合肥市,高教基地,臭氧1小时(O3_1h),69,63,70,12,34,175,175,111,111,7,20,10,10,0.5,0.6
2026-05-30T1500,4098A,117.2518,31.8404,合肥市,中国科学技术大学,臭氧1小时(O3_1h),82,51,69,10,33,185,185,122,122,7,18,9,9,0.5,0.6
2026-05-30T1500,3614A,79.9241,37.0878,和田地区,地区环保局,颗粒物(PM10),105,132,130,46,31,111,111,116,103,2,4,1,2,0.2,0.2
2026-05-30T1500,3615A,79.9132,37.1137,和田地区,市环保局,颗粒物(PM10),78,89,100,43,23,122,122,125,112,1,4,1,2,0.1,0.2
2026-05-30T1500,2517A,108.0496,24.6957,河池市,市环保站,,41,41,13,14,8,80,80,60,60,6,6,7,5,0.7,0.6
2026-05-30T1500,4302A,108.0901,24.6945,河池市,上任中路54号,,26,26,17,9,6,79,79,57,57,4,5,8,7,0.8,0.8
2026-05-30T1500,1697A,114.6962,23.7538,河源市,东埔,,36,NA,9,25,10,85,85,72,72,4,7,3,3,0.7,0.5
2026-05-30T1500,1698A,114.6895,23.7232,河源市,老城,,29,21,13,17,10,91,91,72,72,5,8,4,4,0.6,0.4
2026-05-30T1500,3374A,115.5562,35.089,菏泽市,定陶老年大学,臭氧1小时(O3_1h),63,39,52,8,21,170,170,146,146,10,22,4,6,0.2,0.4
2026-05-30T1500,4114A,115.4239,35.2593,菏泽市,黄河路600号,臭氧1小时(O3_1h),58,45,64,8,21,166,166,145,145,14,29,4,7,0.3,0.4
2026-05-30T1500,4115A,115.5025,35.2727,菏泽市,菏泽市人社局,臭氧1小时(O3_1h),59,36,52,15,19,167,167,143,143,7,23,9,9,0.2,0.2
2026-05-30T1500,4184A,115.479691,35.244011,菏泽市,永昌路1号,臭氧1小时(O3_1h),73,46,52,12,22,178,178,151,151,15,28,8,9,0.4,0.5
2026-05-30T1500,4193A,115.471542,35.280012,菏泽市,长城路999号,臭氧1小时(O3_1h),68,36,52,15,19,174,174,154,154,7,19,7,8,0.1,0.1
2026-05-30T1500,2514A,111.5264,24.4178,贺州市,环保小区,,31,17,24,12,14,97,97,77,77,4,9,8,7,0.5,0.4
2026-05-30T1500,2515A,111.561,24.4074,贺州市,政协大楼,,31,20,23,12,14,99,99,80,80,6,12,11,10,0.7,0.6
2026-05-30T1500,3534A,111.4744,24.455,贺州市,西湾,,26,22,33,8,15,81,81,64,64,6,10,8,9,0.6,0.6
2026-05-30T1500,2385A,114.17,35.9019,鹤壁市,市监测站,,50,13,34,7,24,160,160,145,145,8,11,1,5,0.4,0.6
2026-05-30T1500,2386A,114.2953,35.7512,鹤壁市,市交警支队,,48,12,50,9,29,152,152,128,128,4,22,5,9,0.2,0.5
2026-05-30T1500,2387A,114.2877,35.7302,鹤壁市,迎宾馆,臭氧1小时(O3_1h),53,18,59,3,19,162,162,131,131,4,17,3,10,0.2,0.4
2026-05-30T1500,3474A,114.2616,35.6824,鹤壁市,大新区,臭氧1小时(O3_1h),62,37,68,16,31,169,169,127,127,6,27,10,11,0.0,0.4
2026-05-30T1500,3596A,114.1573,35.9607,鹤壁市,南山宾馆,,50,26,43,9,30,157,157,144,144,2,8,7,10,0.3,0.4
2026-05-30T1500,2244A,130.2537,47.3416,鹤岗市,哈啤分公司,,24,18,17,8,8,76,76,65,65,4,4,10,10,0.1,0
2026-05-30T1500,2245A,130.2683,47.3087,鹤岗市,斯达机电,,25,20,23,6,9,78,78,67,67,2,4,9,9,0.3,0.3
2026-05-30T1500,2246A,130.3114,47.3388,鹤岗市,东山纸板厂,,24,18,23,15,16,74,74,65,65,4,4,8,9,0.2,0.2
2026-05-30T1500,2263A,127.4832,50.2524,黑河市,交通局,,23,13,18,8,9,73,73,60,60,8,8,5,5,0.1,0.1
2026-05-30T1500,2264A,127.5146,50.2339,黑河市,环保局,,48,48,30,10,12,67,67,40,NA,4,7,5,8,0.3,0.3
2026-05-30T1500,1074A,115.6839,37.754,衡水市,电机北厂,臭氧1小时(O3_1h),94,48,53,13,15,195,195,150,150,7,11,7,8,0.5,0.5
2026-05-30T1500,1075A,115.6303,37.7318,衡水市,市监测站,臭氧1小时(O3_1h),95,37,46,7,11,196,196,149,149,8,14,12,11,0.7,0.7
2026-05-30T1500,3188A,115.6684,37.7216,衡水市,市城管局,臭氧1小时(O3_1h),99,50,54,14,18,199,199,147,147,8,14,4,6,0.5,0.5
2026-05-30T1500,3459A,115.599,37.5491,衡水市,地表水厂,臭氧1小时(O3_1h),108,56,54,18,17,215,215,157,157,1,16,12,10,0.6,0.5
2026-05-30T1500,2457A,112.6209,26.9268,衡阳市,衡阳化工总厂,,50,50,45,21,24,100,100,81,76,9,10,3,2,0.7,0.8
2026-05-30T1500,2458A,112.621,26.8957,衡阳市,珠晖区环保局,,41,41,43,19,22,106,106,84,79,9,11,7,6,0.7,0.7
2026-05-30T1500,2459A,112.628,26.8654,衡阳市,市委党校,颗粒物(PM10),61,65,42,29,24,100,100,84,76,8,7,10,9,0.7,0.7
2026-05-30T1500,2460A,112.6007,26.8977,衡阳市,市监测站,颗粒物(PM10),54,55,46,20,25,101,101,85,79,8,9,8,7,0.7,0.7
2026-05-30T1500,2461A,112.5658,26.9013,衡阳市,真空机电公司,,42,42,44,20,26,103,103,88,80,9,11,6,6,0.7,0.7
2026-05-30T1500,3399A,112.6703,26.8817,衡阳市,师范学院,颗粒物(PM10),57,59,46,21,23,100,100,83,79,6,6,9,8,0.7,0.7
2026-05-30T1500,3038A,103.3757,23.3679,红河哈尼族彝族自治州,州图书馆,,21,10,17,7,12,65,65,59,59,6,6,2,2,0.3,0.2
2026-05-30T1500,4154A,103.401,23.3561,红河哈尼族彝族自治州,蒙自市朝阳路,,20,14,13,9,12,62,62,60,60,5,5,4,4,0.3,0.2
2026-05-30T1500,1090A,111.6506,40.7517,呼和浩特市,呼市一监,,49,29,38,3,12,154,154,107,107,10,22,12,14,0.2,0.3
2026-05-30T1500,1094A,111.7516,40.8369,呼和浩特市,如意水处理厂,,50,43,36,17,12,158,158,108,108,13,22,12,10,0.3,0.4
2026-05-30T1500,1095A,111.727798,40.806187,呼和浩特市,二十九中,,47,25,36,13,17,148,148,101,101,15,26,14,13,0.2,0.4
2026-05-30T1500,1097A,111.717,40.7617,呼和浩特市,化肥厂生活区,,48,NA,43,28,23,152,152,107,107,13,28,12,13,0.3,0.4
2026-05-30T1500,3699A,111.6519,40.8389,呼和浩特市,海东办,,47,31,34,9,9,148,148,101,101,15,29,9,8,0.6,0.6
2026-05-30T1500,4275A,111.591512,40.827312,呼和浩特市,成吉思汗西街8号,,45,36,38,8,8,143,143,97,97,21,35,6,6,0.3,0.3
2026-05-30T1500,4276A,111.6597,40.8077,呼和浩特市,公园东路75号,,45,27,37,3,10,141,141,102,102,17,22,11,12,0.4,0.4
2026-05-30T1500,4277A,111.5427,40.7846,呼和浩特市,金海路35号,,43,43,41,12,15,136,136,96,96,19,28,7,8,0.3,0.4
2026-05-30T1500,3061A,119.7511,49.1576,呼伦贝尔市,国华电力东,,35,19,26,9,10,110,110,90,90,4,9,5,4,0.3,0.3
2026-05-30T1500,4279A,119.7569,49.2222,呼伦贝尔市,伊敏大街东7号,,33,14,24,3,10,103,103,84,84,6,13,5,6,0.3,0.4
2026-05-30T1500,1250A,120.075,30.867,湖州市,城西水厂,臭氧1小时(O3_1h),62,37,47,22,29,169,169,140,140,14,33,6,6,0.5,0.6
2026-05-30T1500,2873A,120.083,30.8929,湖州市,仁皇山新区,臭氧1小时(O3_1h),70,46,42,32,26,176,176,145,145,17,22,8,7,0.4,0.5
2026-05-30T1500,2907A,120.1846,30.8592,湖州市,吴兴区站,颗粒物(PM10),58,61,46,24,28,161,161,136,136,15,21,8,8,0.4,0.4
2026-05-30T1500,3562A,120.4146,30.8538,湖州市,南浔区站,臭氧1小时(O3_1h),69,34,49,16,27,175,175,145,145,18,25,7,8,0.5,0.6
2026-05-30T1500,1607A,120.904878,40.721091,葫芦岛市,龙港区,臭氧1小时(O3_1h),107,74,43,30,13,213,213,156,156,18,22,35,14,0.4,0.4
2026-05-30T1500,1608A,120.8382,40.7521,葫芦岛市,化工街,臭氧1小时(O3_1h),104,44,37,10,11,208,208,154,154,20,32,42,17,0.7,0.5
2026-05-30T1500,1609A,120.8339,40.7078,葫芦岛市,新区,臭氧1小时(O3_1h),90,59,31,25,14,192,192,136,136,13,22,12,10,0.9,0.6
2026-05-30T1500,1610A,120.8697,40.7679,葫芦岛市,东城区,臭氧1小时(O3_1h),107,46,42,19,17,213,213,152,152,16,42,17,13,0.8,0.7
2026-05-30T1500,2483A,109.9297,27.5383,怀化市,河西地税局,,31,30,28,16,15,98,98,80,80,5,6,7,6,/,/
2026-05-30T1500,2484A,109.9783,27.5342,怀化市,市四医院,,37,37,28,13,14,94,94,84,84,5,5,7,6,0.4,0.4
2026-05-30T1500,2485A,109.9971,27.5579,怀化市,监测楼,,35,35,28,19,15,104,104,94,94,4,5,6,6,0.4,0.4
2026-05-30T1500,1210A,119.0566,33.5991,淮安市,钵池山,,39,22,32,3,17,124,124,126,126,11,20,12,13,0.2,0.4
2026-05-30T1500,1211A,119.0083,33.578,淮安市,北京南路,,47,22,37,9,19,150,150,137,137,8,18,7,8,0.4,0.6
2026-05-30T1500,1212A,118.9938,33.6083,淮安市,市监测站,,46,17,30,9,20,146,146,127,127,13,22,8,10,0.3,0.9
2026-05-30T1500,1213A,119.135,33.5038,淮安市,楚州区监测站,,41,24,40,6,24,129,129,123,123,9,28,7,7,0.2,0.3
2026-05-30T1500,3426A,118.8757,33.2897,淮安市,新华书店,臭氧1小时(O3_1h),64,28,41,11,20,171,171,130,130,11,21,9,9,0.5,0.6
2026-05-30T1500,4092A,119.119691,33.550006,淮安市,枚皋中路89号,,40,24,42,3,22,125,125,126,126,6,18,8,8,0.5,0.7
2026-05-30T1500,4206A,119.028838,33.631911,淮安市,承德北路606号,,43,17,36,7,16,137,137,130,130,8,16,7,8,0.5,0.5
2026-05-30T1500,2282A,116.8005,33.9749,淮北市,监测站,臭氧1小时(O3_1h),98,70,55,37,27,198,198,176,176,10,15,6,8,0.6,0.7
2026-05-30T1500,2283A,116.8094,33.9008,淮北市,烈山区政府,臭氧1小时(O3_1h),99,69,61,19,21,199,199,171,171,4,10,8,10,0.3,0.3
2026-05-30T1500,4017A,116.7926,33.9534,淮北市,市博物馆,臭氧1小时(O3_1h),103,62,55,29,28,205,205,180,180,6,11,3,5,0.4,0.5
2026-05-30T1500,4100A,116.8322,33.9884,淮北市,杜集区第一实验学校,臭氧1小时(O3_1h),108,77,79,18,24,215,215,186,186,7,17,4,6,0.3,0.4
2026-05-30T1500,2277A,116.8304,32.7726,淮南市,潘集区政府,颗粒物(PM10),70,77,98,14,34,168,168,127,127,18,26,8,9,0.4,0.5
2026-05-30T1500,2279A,116.8569,32.5949,淮南市,谢家集区政府,臭氧1小时(O3_1h),60,37,67,12,32,168,168,118,118,7,21,7,8,0.3,0.4
2026-05-30T1500,2280A,116.8279,32.6333,淮南市,八公山区政府,颗粒物(PM10),61,65,71,13,31,168,168,119,119,5,12,8,8,0.3,0.3
2026-05-30T1500,2894A,117.0561,32.6536,淮南市,经济技术开发区消防队,臭氧1小时(O3_1h),64,59,59,15,31,171,171,133,133,8,19,8,9,0.4,0.4
2026-05-30T1500,3329A,117.011,32.5891,淮南市,山南新区,臭氧1小时(O3_1h),57,52,70,14,33,165,165,126,126,6,16,10,11,0.3,0.3
2026-05-30T1500,4209A,117.003137,32.644456,淮南市,国庆中路369号,臭氧1小时(O3_1h),54,42,53,15,29,163,163,123,123,3,10,4,5,0.2,0.3
2026-05-30T1500,2446A,114.9021,30.474,黄冈市,职工中心,臭氧1小时(O3_1h),88,48,39,30,23,190,190,107,107,5,10,7,6,0.9,0.7
2026-05-30T1500,2929A,114.8858,30.4519,黄冈市,红卫路,臭氧1小时(O3_1h),67,49,37,28,23,173,173,103,103,2,4,9,9,0.6,0.4
2026-05-30T1500,3398A,114.9134,30.4446,黄冈市,市林业局,颗粒物(PM10),61,65,49,34,27,168,168,101,101,10,15,8,5,0.5,0.3
2026-05-30T1500,2672A,102.02,35.5101,黄南藏族自治州,同仁县隆务镇,,48,19,35,9,14,151,151,133,133,2,2,8,8,0.1,0.1
2026-05-30T1500,2295A,118.2905,29.6965,黄山市,延安路89号,,50,41,58,24,40,159,159,115,115,6,9,6,6,0.4,0.6
2026-05-30T1500,2297A,118.1369,30.2755,黄山市,黄山区政府5号楼,颗粒物(PM10),60,63,59,33,42,151,151,111,111,8,7,4,3,0.6,0.6
2026-05-30T1500,4210A,118.335445,29.720283,黄山市,滨江东路7-2号,颗粒物(PM10),60,63,62,26,41,163,163,116,116,6,8,/,/,/,/
2026-05-30T1500,2423A,115.0547,30.2332,黄石市,沈家营,颗粒物(PM10),66,72,58,21,20,156,156,87,87,8,11,8,5,0.2,0.3
2026-05-30T1500,2426A,114.899,30.211,黄石市,铁山,颗粒物(PM10),58,60,53,29,22,142,142,68,68,8,20,5,4,0.4,0.5
2026-05-30T1500,2427A,115.0259,30.2108,黄石市,团城山,颗粒物(PM10),58,61,63,24,24,153,153,87,87,9,16,8,5,0.8,0.7
2026-05-30T1500,3149A,115.0174,30.1591,黄石市,笔架山北路,颗粒物(PM10),69,76,78,28,23,158,158,73,73,9,19,8,7,0.3,0.3
2026-05-30T1500,4185A,115.078022,30.21118,黄石市,磁湖东路29号,细颗粒物(PM2.5),68,72,64,44,25,152,152,84,84,2,12,10,7,0.4,0.4
2026-05-30T1500,1392A,114.4181,23.0528,惠州市,河南岸金山湖子站,,42,19,18,18,19,134,134,101,101,7,10,6,6,0.6,0.7
2026-05-30T1500,1393A,114.4055,23.0824,惠州市,下埔横江三路子站,,40,16,21,7,10,128,128,103,103,3,7,4,3,0.7,0.7
2026-05-30T1500,1395A,114.4645,22.7832,惠州市,惠阳区承修路船湖子站,臭氧1小时(O3_1h),65,36,30,24,15,172,172,124,124,11,15,5,5,0.6,0.6
2026-05-30T1500,1396A,114.5316,22.7423,惠州市,大亚湾管委会子站,,47,33,26,24,16,150,150,118,118,9,15,6,5,0.6,0.5
2026-05-30T1500,3314A,114.4334,22.8134,惠州市,惠阳秋长,臭氧1小时(O3_1h),60,27,22,16,14,168,168,129,129,9,13,/,/,/,/
2026-05-30T1500,3452A,114.6521,22.7755,惠州市,大亚湾霞涌,,49,36,20,25,11,155,155,112,112,7,8,/,/,/,/
2026-05-30T1500,4300A,114.4089,23.1147,惠州市,文华一路1号,,41,13,17,8,9,131,131,108,108,3,7,/,/,/,/
2026-05-30T1500,2240A,130.9618,45.2926,鸡西市,环保局,,38,38,29,11,10,81,81,73,73,7,10,6,8,0.2,0.2
2026-05-30T1500,2243A,130.9294,45.2959,鸡西市,第一中学,,25,24,15,8,10,77,77,70,70,3,6,7,7,0.1,0.1
2026-05-30T1500,3707A,131.0069,45.2988,鸡西市,欧美日汽修厂,,30,30,18,9,8,80,80,72,72,4,7,5,7,0.4,0.3
2026-05-30T1500,2367A,114.9753,27.0803,吉安市,红声器材厂,颗粒物(PM10),51,51,53,35,27,142,142,118,118,10,12,4,4,0.6,0.5
2026-05-30T1500,2369A,114.9903,27.1313,吉安市,市环境监测站,颗粒物(PM10),53,54,51,31,29,138,138,112,112,8,11,11,11,/,/
2026-05-30T1500,2370A,115.009527,27.096792,吉安市,青原区法院,颗粒物(PM10),58,61,54,37,30,143,143,113,113,9,12,10,10,0.6,0.5
2026-05-30T1500,1772A,126.54,43.8622,吉林市,哈达湾,,33,20,27,6,11,105,105,86,86,6,22,8,9,0.2,0.3
2026-05-30T1500,1773A,126.5843,43.8358,吉林市,东局子,NA,NA,14,27,NA,14,118,118,94,94,10,23,9,6,0.5,0.6
2026-05-30T1500,1774A,126.5051,43.8243,吉林市,电力学院,,37,6,38,3,12,117,117,91,91,8,23,5,6,0.4,0.5
2026-05-30T1500,1775A,126.6133,43.8971,吉林市,江北,,37,22,30,7,12,116,116,107,107,12,24,11,10,0.4,0.5
2026-05-30T1500,1776A,126.5549,43.8304,吉林市,江南公园,,35,17,25,6,12,109,109,83,83,9,21,10,8,0.2,0.3
2026-05-30T1500,2868A,126.4737,43.953,吉林市,九站,,34,25,38,3,12,106,106,82,82,8,30,3,7,0.4,0.5
2026-05-30T1500,1299A,116.9866,36.6118,济南市,科干所,臭氧1小时(O3_1h),79,31,23,7,7,183,183,159,159,12,12,8,8,0.4,0.4
2026-05-30T1500,1300A,116.9379,36.6652,济南市,农科所,臭氧1小时(O3_1h),74,39,34,3,8,179,179,153,153,10,18,5,4,0.3,0.3
2026-05-30T1500,1301A,117.1265,36.6736,济南市,开发区,臭氧1小时(O3_1h),72,29,25,3,5,177,177,152,152,7,11,7,6,0.3,0.4
2026-05-30T1500,1303A,117.0616,36.6865,济南市,省种子仓库,臭氧1小时(O3_1h),68,44,37,8,9,174,174,145,145,26,28,8,6,0.3,0.4
2026-05-30T1500,1304A,116.9495185,36.644937,济南市,机床二厂,臭氧1小时(O3_1h),73,39,43,10,10,178,178,157,157,13,26,7,6,0.4,0.4
2026-05-30T1500,1305A,117.0496,36.6629,济南市,市监测站,臭氧1小时(O3_1h),75,44,31,8,6,180,180,153,153,10,15,4,4,0.2,0.2
2026-05-30T1500,1306A,116.7674,36.5458,济南市,长清党校,臭氧1小时(O3_1h),88,49,34,3,11,190,190,156,156,9,18,6,6,0.2,0.2
2026-05-30T1500,1961A,117.5323,36.6865,济南市,东山小学,臭氧1小时(O3_1h),67,37,25,7,4,173,173,142,142,11,18,5,4,0.1,0.1
2026-05-30T1500,3059A,117.7181,36.205,济南市,泰兴公司,臭氧1小时(O3_1h),67,29,35,3,12,173,173,137,137,13,42,12,10,0.1,0.2
2026-05-30T1500,3064A,117.6861,36.2172,济南市,莱芜战役纪念馆,臭氧1小时(O3_1h),68,29,37,3,12,174,174,139,139,11,35,15,7,0.1,0.2
2026-05-30T1500,3494A,117.1673,36.9782,济南市,济阳区政府,臭氧1小时(O3_1h),72,54,47,14,6,177,177,147,147,12,24,10,9,0.2,0.2
2026-05-30T1500,3495A,117.1168,36.6299,济南市,锦屏中学,NA,NA,NA,32,NA,6,NA,NA,146,NA,NA,15,NA,7,NA,0.4
2026-05-30T1500,4108A,117.7107,36.2385,济南市,山财大街5号,臭氧1小时(O3_1h),68,27,33,3,11,174,174,141,141,8,41,8,7,0.3,0.6
2026-05-30T1500,4109A,116.9744,36.6889,济南市,无影山路12号,臭氧1小时(O3_1h),65,34,32,9,8,172,172,150,150,12,20,4,3,0.3,0.4
2026-05-30T1500,1653A,116.6229,35.4288,济宁市,火炬城,,50,36,41,3,12,157,157,139,139,13,18,3,5,0.3,0.4
2026-05-30T1500,3500A,116.5808,35.3703,济宁市,北湖一中,臭氧1小时(O3_1h),55,29,40,3,14,164,164,147,147,2,14,4,6,0.3,0.4
2026-05-30T1500,3501A,116.8251,35.5592,济宁市,服务中心,臭氧1小时(O3_1h),60,26,46,3,16,168,168,149,149,4,24,1,3,0,0.1
2026-05-30T1500,3678A,116.5907,35.4054,济宁市,市第七中学,颗粒物(PM10),98,116,56,3,14,172,172,154,154,2,14,4,6,0.1,0.2
2026-05-30T1500,4111A,116.6075,35.4566,济宁市,任和路,臭氧1小时(O3_1h),69,37,44,3,13,175,175,157,157,5,12,3,4,0.2,0.4
2026-05-30T1500,4112A,116.5648,35.3921,济宁市,文体南路1号,臭氧1小时(O3_1h),65,30,47,3,18,172,172,151,151,5,21,6,6,0,0.4
2026-05-30T1500,4122A,112.6071,35.1015,济源市,市委党校,,49,14,62,3,24,154,154,137,137,6,15,9,11,0.4,0.8
2026-05-30T1500,4123A,112.596,35.0702,济源市,沁园中路1号,,46,22,56,9,24,147,147,127,127,5,23,5,9,0.6,1.1
2026-05-30T1500,2255A,130.2749,46.8028,佳木斯市,佳纺,,25,22,18,13,7,78,78,68,68,3,7,3,3,0.0,0.1
2026-05-30T1500,2257A,130.3258,46.7975,佳木斯市,环保局,,25,14,22,7,8,80,80,70,70,3,5,2,2,0.2,0.2
2026-05-30T1500,4285A,130.363,46.806,佳木斯市,顺和街,,25,20,26,9,9,79,79,67,67,5,6,1,1,0.1,0.1
2026-05-30T1500,4286A,130.3952,46.8268,佳木斯市,长安路196号,,26,17,34,3,7,83,83,71,71,5,3,4,4,0.1,0.2
2026-05-30T1500,1252A,120.7439,30.778,嘉兴市,清河小学,,50,22,37,3,16,157,157,137,137,20,25,8,9,0.2,0.5
2026-05-30T1500,1253A,120.7261,30.7477,嘉兴市,嘉兴学院,,49,11,28,6,17,154,154,140,140,11,19,5,6,0.3,0.4
2026-05-30T1500,2872A,120.7845,30.7524,嘉兴市,南湖区残联,臭氧1小时(O3_1h),60,11,34,6,17,168,168,144,144,13,23,6,8,0.4,0.6
2026-05-30T1500,3407A,120.6915,30.7741,嘉兴市,秀洲住建,臭氧1小时(O3_1h),53,23,37,3,15,162,162,144,144,18,29,7,8,0.3,0.5
2026-05-30T1500,1945A,98.291,39.7705,嘉峪关市,气象局,,40,34,41,11,15,126,126,109,109,4,14,10,12,0.8,0.6
2026-05-30T1500,2884A,98.2672,39.7978,嘉峪关市,酒钢宾馆,,41,39,50,21,22,130,130,118,118,4,9,22,22,0.8,0.4
2026-05-30T1500,3248A,98.2644,39.7723,嘉峪关市,雄关区,,44,44,44,13,15,132,132,114,114,12,18,19,11,0.6,0.3
2026-05-30T1500,1383A,113.1063,22.6058,江门市,北街,臭氧1小时(O3_1h),122,60,32,28,23,243,243,150,150,21,23,/,/,/,/
2026-05-30T1500,1384A,113.073,22.5835,江门市,西区,臭氧1小时(O3_1h),118,42,32,35,23,236,236,145,145,21,21,/,/,/,/
2026-05-30T1500,1385A,113.0218,22.531,江门市,圭峰西,臭氧1小时(O3_1h),101,49,31,26,21,202,202,128,128,16,17,/,/,/,/
2026-05-30T1500,1386A,113.0826,22.5947,江门市,东湖,臭氧1小时(O3_1h),114,45,35,29,22,227,227,139,139,19,20,10,9,0.5,0.3
2026-05-30T1500,3311A,113.1077,22.5647,江门市,江海富民,臭氧1小时(O3_1h),117,54,39,27,22,233,233,145,145,26,21,/,/,0.6,0.5
2026-05-30T1500,3449A,113.0496,22.4669,江门市,新会银湖,臭氧1小时(O3_1h),92,39,40,24,31,193,193,NA,NA,12,14,3,2,0.6,0.5
2026-05-30T1500,3335A,113.3137,35.2643,焦作市,马村街道办,臭氧1小时(O3_1h),68,53,63,11,28,174,174,142,142,10,14,8,11,0.4,0.7
2026-05-30T1500,3336A,113.2464,35.2374,焦作市,焦作技师学院,,50,36,60,11,28,157,157,134,134,20,18,8,13,0.3,0.7
2026-05-30T1500,3477A,113.1656,35.2536,焦作市,中站许衡医院,臭氧1小时(O3_1h),68,28,61,12,30,174,174,144,144,9,16,10,20,0.5,0.9
2026-05-30T1500,3981A,113.2456,35.18,焦作市,原李万街道办,,50,44,61,8,28,159,159,131,131,18,18,5,9,0.5,0.6
2026-05-30T1500,4264A,113.234,35.219,焦作市,新安路1731号,臭氧1小时(O3_1h),63,38,62,13,31,170,170,140,140,13,20,10,15,0.5,0.8
2026-05-30T1500,4295A,113.2722,35.2121,焦作市,人民路3066号,,49,28,70,10,30,156,156,126,126,9,18,5,10,0.3,0.5
2026-05-30T1500,1708A,116.3701,23.5345,揭阳市,新兴,细颗粒物(PM2.5),58,45,25,39,23,129,129,104,104,9,12,5,6,0.7,0.7
2026-05-30T1500,1709A,116.3261,23.5442,揭阳市,西马,,46,32,22,22,14,147,147,111,111,8,12,4,5,0.6,0.6
2026-05-30T1500,1710A,116.361,23.5627,揭阳市,东兴,,45,34,22,25,15,141,141,104,104,9,12,2,3,/,/
2026-05-30T1500,1711A,116.4151,23.5295,揭阳市,渔湖,,47,47,24,22,17,148,148,109,109,6,12,4,4,/,/
2026-05-30T1500,3320A,116.4028,23.5699,揭阳市,曲溪,,48,32,19,24,14,151,151,103,103,7,9,6,6,0.7,0.6
2026-05-30T1500,1944A,102.1691,38.5166,金昌市,天庆家园,臭氧1小时(O3_1h),52,36,61,10,21,161,161,123,123,4,18,6,12,0.3,0.4
2026-05-30T1500,4022A,102.1648,38.5369,金昌市,金川区人防中心,臭氧1小时(O3_1h),60,29,50,13,20,168,168,127,127,4,13,12,24,0.3,0.4
2026-05-30T1500,4239A,102.193042,38.531887,金昌市,长春路96号,臭氧1小时(O3_1h),58,29,68,9,29,166,166,126,126,3,17,6,37,0.4,0.4
2026-05-30T1500,1262A,119.6478,29.0773,金华市,十五中,臭氧1小时(O3_1h),92,28,60,12,37,193,193,127,127,12,22,3,3,0.4,0.5
2026-05-30T1500,1263A,119.6859,29.1032,金华市,监测站,臭氧1小时(O3_1h),82,36,56,14,32,185,185,113,113,19,25,5,5,0.5,0.5
2026-05-30T1500,3659A,119.656,29.1132,金华市,气象局,臭氧1小时(O3_1h),80,36,54,14,35,184,184,118,118,15,23,3,3,0.1,0.3
2026-05-30T1500,1767A,121.1114,41.0879,锦州市,南山,臭氧1小时(O3_1h),90,63,32,13,15,192,192,158,158,19,29,8,7,0.6,0.5
2026-05-30T1500,1768A,121.060361,40.842794,锦州市,开发区,臭氧1小时(O3_1h),84,62,82,32,22,187,187,141,141,12,41,8,12,0.7,0.6
2026-05-30T1500,1769A,121.1836,41.1118,锦州市,百股街道,臭氧1小时(O3_1h),98,51,36,20,16,198,198,157,157,12,22,8,9,0.7,0.5
2026-05-30T1500,1770A,121.1176,41.1224,锦州市,天安街道,臭氧1小时(O3_1h),93,42,34,14,16,194,194,153,153,12,24,8,7,0.9,0.8
2026-05-30T1500,1771A,121.1303,41.1385,锦州市,北湖公园,臭氧1小时(O3_1h),93,43,31,17,16,194,194,155,155,11,20,12,13,0.5,0.4
2026-05-30T1500,2160A,112.8496,35.5051,晋城市,自来水公司,臭氧1小时(O3_1h),74,26,58,3,20,179,179,143,143,12,18,5,7,0.3,0.7
2026-05-30T1500,2162A,112.8509,35.4886,晋城市,市环保局,臭氧1小时(O3_1h),79,27,55,3,23,183,183,147,147,9,19,6,6,0.3,0.6
2026-05-30T1500,3620A,112.8258,35.4804,晋城市,泽州一中,臭氧1小时(O3_1h),78,28,59,10,23,182,182,146,146,7,20,4,6,0.5,0.8
2026-05-30T1500,4078A,112.8246,35.5152,晋城市,前书院路,臭氧1小时(O3_1h),65,26,49,3,15,172,172,134,134,4,17,5,5,0.8,1.1
2026-05-30T1500,4079A,112.8864,35.4773,晋城市,祥云街666号,臭氧1小时(O3_1h),78,30,50,15,26,182,182,140,140,5,17,9,9,0.7,0.9
2026-05-30T1500,2174A,112.6992,37.6984,晋中市,榆次区政府,臭氧1小时(O3_1h),65,27,56,11,27,172,172,149,149,4,18,6,15,0.2,0.6
2026-05-30T1500,2865A,112.7195,37.683,晋中市,榆次三中,臭氧1小时(O3_1h),60,19,59,3,26,168,168,153,153,2,26,7,16,0.1,0.4
2026-05-30T1500,4080A,112.7375,37.7215,晋中市,广安街188号,臭氧1小时(O3_1h),88,17,66,11,27,190,190,161,161,6,26,8,13,0.1,0.4
2026-05-30T1500,4200A,112.7478,37.6954,晋中市,迎宾街26号,臭氧1小时(O3_1h),65,19,55,8,24,172,172,154,154,5,23,6,14,0.1,0.3
2026-05-30T1500,2439A,112.2012,31.048,荆门市,竹园小学,,45,27,28,14,14,144,144,113,113,8,12,4,4,0.6,0.7
2026-05-30T1500,2440A,112.1968,30.9892,荆门市,掇刀,,46,28,28,11,14,145,145,120,120,6,10,10,9,0.5,0.7
2026-05-30T1500,3012A,112.1849,31.0361,荆门市,西山林语,,45,31,29,10,12,143,143,113,113,5,8,8,8,0.7,0.8
2026-05-30T1500,3547A,112.1631,31.0134,荆门市,龙泉中学南校,,47,23,24,3,10,148,148,104,104,8,11,6,6,0.3,0.4
2026-05-30T1500,4124A,112.2213,31.0654,荆门市,新台西路6号,,46,36,31,8,17,146,146,105,105,5,8,13,11,0.4,0.4
2026-05-30T1500,1844A,112.2493,30.3198,荆州市,市图书馆,臭氧1小时(O3_1h),58,33,31,9,14,166,166,119,119,10,11,7,6,0.2,0.3
2026-05-30T1500,1845A,112.2009,30.3543,荆州市,市委党校,,43,20,29,11,15,137,137,96,96,10,12,8,9,0.3,0.4
2026-05-30T1500,3194A,112.2749,30.3124,荆州市,管委会,,50,21,28,10,15,157,157,112,112,11,12,8,7,0.4,0.5
2026-05-30T1500,4268A,112.1722,30.3366,荆州市,学苑路85号,,50,23,22,15,16,160,160,122,122,4,6,3,4,0.3,0.3
2026-05-30T1500,2343A,117.2114,29.2931,景德镇市,老干部活动中心,细颗粒物(PM2.5),56,44,40,38,30,114,114,106,106,6,9,4,4,0.9,0.8
2026-05-30T1500,2344A,117.1893,29.2789,景德镇市,兽医站,颗粒物(PM10),55,56,52,37,29,131,131,132,132,6,13,4,4,0.7,0.6
2026-05-30T1500,2346A,117.246,29.2958,景德镇市,陶研所,细颗粒物(PM2.5),64,45,39,42,25,131,131,113,113,8,12,3,9,0.9,0.7
2026-05-30T1500,4289A,117.154766,29.256967,景德镇市,青少年活动中心,细颗粒物(PM2.5),60,54,49,40,28,140,140,126,126,7,16,7,13,/,/
2026-05-30T1500,1803A,115.9873,29.6816,九江市,十里,臭氧1小时(O3_1h),77,65,75,34,30,181,181,122,122,12,23,4,7,1.0,1.1
2026-05-30T1500,1804A,115.9583,29.7047,九江市,茅山头,臭氧1小时(O3_1h),94,52,66,38,32,195,195,126,126,9,27,4,6,0.6,0.7
2026-05-30T1500,1805A,115.9877,29.7295,九江市,西园,NA,NA,52,60,31,33,183,183,113,113,11,38,4,7,NA,1
2026-05-30T1500,1808A,115.9112,29.6038,九江市,综合工业园,臭氧1小时(O3_1h),102,64,62,37,28,204,204,139,139,18,28,7,10,0.7,0.9
2026-05-30T1500,3190A,116.0254,29.6995,九江市,外国语学校,臭氧1小时(O3_1h),65,55,63,32,31,172,172,114,114,13,24,11,13,0.6,0.7
2026-05-30T1500,4253A,116.010205,29.659402,九江市,莲花大道8号,颗粒物(PM10),59,62,62,32,29,161,161,110,110,10,18,7,8,0.7,0.8
2026-05-30T1500,4240A,98.495752,39.733935,酒泉市,玉门东路5号,,44,34,43,11,16,138,138,121,121,4,9,5,9,0.2,0.3
2026-05-30T1500,4241A,98.5099,39.7506,酒泉市,北大街108号,,43,41,47,17,24,137,137,120,120,3,11,8,12,0.2,0.4
2026-05-30T1500,2698A,76.0071,39.466,喀什地区,巡警大队,颗粒物(PM10),66,72,75,26,22,128,128,69,69,5,27,4,5,0.2,0.3
2026-05-30T1500,2699A,75.9756,39.4693,喀什地区,吾办,颗粒物(PM10),66,72,67,27,24,121,121,82,82,3,15,14,9,0.2,0.3
2026-05-30T1500,4027A,75.9485,39.4688,喀什地区,老干局,颗粒物(PM10),61,65,63,19,12,123,123,80,80,2,13,4,3,0.2,0.3
2026-05-30T1500,1824A,114.3389,34.778,开封市,肿瘤医院,臭氧1小时(O3_1h),69,44,66,15,30,175,175,142,142,8,32,9,9,0.6,0.7
2026-05-30T1500,1826A,114.2884,34.7966,开封市,世纪星幼儿园,臭氧1小时(O3_1h),85,24,64,16,29,188,188,153,153,5,28,7,8,0.3,0.4
2026-05-30T1500,3147A,114.3434,34.8101,开封市,龙亭公园,臭氧1小时(O3_1h),84,54,69,12,26,187,187,157,157,9,26,8,9,0.5,0.6
2026-05-30T1500,3210A,114.3645,34.7955,开封市,汴京公园,臭氧1小时(O3_1h),84,38,55,7,25,187,187,154,154,10,31,9,10,0.4,0.6
2026-05-30T1500,3473A,114.2485,34.8306,开封市,技师学院,臭氧1小时(O3_1h),75,49,62,14,25,180,180,148,148,10,35,8,9,0.4,0.6
2026-05-30T1500,3592A,114.4518,34.7503,开封市,祥符区生态环境局,臭氧1小时(O3_1h),87,35,71,10,32,189,189,152,152,17,42,11,13,0.5,0.7
2026-05-30T1500,1951A,84.886,45.6029,克拉玛依市,长征新村,,34,19,27,3,9,106,106,91,91,2,3,3,2,0.2,0.2
2026-05-30T1500,1952A,84.8894,45.5827,克拉玛依市,南林小区,,32,19,28,3,3,102,102,87,84,2,3,5,5,0.1,0.1
2026-05-30T1500,1954A,84.896,44.3328,克拉玛依市,独山子区,颗粒物(PM10),77,87,68,14,19,115,115,87,87,4,6,7,7,0.2,0.2
2026-05-30T1500,1955A,85.6888,46.0909,克拉玛依市,乌尔禾区商贸楼,,33,22,30,9,11,103,103,74,74,4,7,5,5,0.0,0.1
2026-05-30T1500,3612A,85.1045,45.6895,克拉玛依市,白碱滩区新站,,36,6,19,3,7,113,113,103,100,1,2,9,8,0.1,0.1
2026-05-30T1500,2697A,76.1457,39.7143,克孜勒苏柯尔克孜自治州,市人民政府,颗粒物(PM10),106,135,100,49,31,118,118,101,101,2,5,5,13,0.1,0.1
2026-05-30T1500,3665A,76.1654,39.7157,克孜勒苏柯尔克孜自治州,克州文化中心,颗粒物(PM10),107,136,94,52,32,123,123,106,106,1,5,4,10,0.2,0.3
2026-05-30T1500,1450A,102.8203,24.889,昆明市,呈贡新区,,30,15,18,10,14,96,96,80,80,5,8,7,4,0.6,0.6
2026-05-30T1500,1452A,102.7253,25.0904,昆明市,龙泉镇,,27,10,21,10,13,85,85,60,60,8,11,5,5,0.3,0.4
2026-05-30T1500,1453A,102.7267,25.0378,昆明市,东风东路,,32,19,21,12,14,100,100,68,68,13,17,1,2,0.3,0.4
2026-05-30T1500,1454A,102.6744,25.0671,昆明市,金鼎山,,38,38,22,14,13,95,95,64,64,9,10,4,4,0.5,0.5
2026-05-30T1500,1455A,102.6643,25.0401,昆明市,碧鸡广场,,29,21,24,19,15,91,91,61,61,11,13,1,1,0.5,0.5
2026-05-30T1500,3179A,102.7491,25.012,昆明市,官渡区博物馆,,28,22,20,15,12,89,89,63,63,13,17,3,4,0.5,0.5
2026-05-30T1500,3375A,102.8016,24.8336,昆明市,青年创业园,,27,15,18,8,12,84,84,77,77,4,7,4,4,0.4,0.4
2026-05-30T1500,3550A,102.8,24.9787,昆明市,昆明学院,颗粒物(PM10),114,154,123,3,11,86,86,68,68,10,14,4,4,0.6,0.6
2026-05-30T1500,3551A,102.5969,24.6738,昆明市,晋宁区生态环境分局,,32,12,19,3,15,101,101,85,85,5,8,4,4,0.5,0.5
2026-05-30T1500,3552A,102.6673,24.9861,昆明市,云天化总部,,27,27,21,3,12,84,84,64,64,15,15,4,4,0.5,0.5
2026-05-30T1500,1456A,91.132,29.6515,拉萨市,八廓街,,46,12,14,3,7,146,146,126,126,4,11,5,5,0.1,0.2
2026-05-30T1500,1457A,91.1221,29.6748,拉萨市,市环保局,,45,9,13,3,6,144,144,120,120,6,14,6,6,0.2,0.3
2026-05-30T1500,1458A,91.0874,29.6476,拉萨市,区监测站,,45,7,11,3,6,143,143,126,126,6,16,5,5,0.2,0.2
2026-05-30T1500,1459A,91.1774,29.6541,拉萨市,西藏大学,,45,15,11,6,6,144,144,120,120,8,13,6,6,0.0,0.1
2026-05-30T1500,1460A,90.9798,29.6586,拉萨市,区辐射站,,41,10,12,3,6,131,131,115,115,10,16,5,6,0.3,0.3
2026-05-30T1500,1461A,91.0831,29.6292,拉萨市,拉萨火车站,,45,11,12,3,6,144,144,126,126,5,11,4,4,0.2,0.3
2026-05-30T1500,2520A,109.2203,23.7252,来宾市,来宾技工学校,,30,23,29,10,9,93,93,67,67,4,8,6,7,0.6,0.6
2026-05-30T1500,3535A,109.1781,23.7293,来宾市,兴宾区政府,,26,13,25,6,10,83,83,60,60,2,9,5,5,0.7,0.7
2026-05-30T1500,4002A,109.2312,23.7428,来宾市,中南小学,,32,23,22,8,11,100,100,69,69,5,11,6,6,0.5,0.4
2026-05-30T1500,1479A,103.8309,36.0467,兰州市,铁路设计院,臭氧1小时(O3_1h),65,42,74,25,32,172,172,107,107,13,41,7,10,0.6,0.9
2026-05-30T1500,3241A,103.7439,36.0841,兰州市,百合公园,臭氧1小时(O3_1h),83,39,65,21,30,186,186,124,124,14,48,10,10,1.1,1.2
2026-05-30T1500,3242A,103.9613,35.9985,兰州市,和平,臭氧1小时(O3_1h),83,45,54,23,26,186,186,134,134,6,11,14,13,0.6,0.5
2026-05-30T1500,4236A,103.629272,36.093822,兰州市,庄浪东路808号,臭氧1小时(O3_1h),95,57,56,30,25,196,196,141,141,10,21,10,12,0.4,0.4
2026-05-30T1500,4237A,103.7251,36.104344,兰州市,安宁西路88号,臭氧1小时(O3_1h),99,46,72,21,28,199,199,137,137,9,37,11,14,0.4,0.4
2026-05-30T1500,4238A,103.846982,36.067567,兰州市,北滨河东路1号,臭氧1小时(O3_1h),60,42,61,18,27,168,168,106,106,15,59,12,13,0.4,0.6
2026-05-30T1500,1067A,116.6712,39.5109,廊坊市,药材公司,臭氧1小时(O3_1h),69,43,41,19,19,175,175,132,132,8,16,2,3,0.3,0.4
2026-05-30T1500,1068A,116.7215,39.5592,廊坊市,开发区,臭氧1小时(O3_1h),94,39,46,18,19,195,195,143,143,7,14,3,3,0.3,0.4
2026-05-30T1500,1070A,116.7246,39.5273,廊坊市,北华航天学院,臭氧1小时(O3_1h),84,45,44,11,15,187,187,144,144,4,12,2,3,0.3,0.3
2026-05-30T1500,2919A,116.7022,39.5454,廊坊市,河北工业大学,臭氧1小时(O3_1h),95,47,45,15,16,196,196,147,147,8,15,2,2,0.3,0.4
2026-05-30T1500,2536A,103.7629,29.5844,乐山市,牛耳桥,,39,38,54,16,24,123,123,89,89,8,15,6,6,0.3,0.4
2026-05-30T1500,2537A,103.7501,29.6002,乐山市,市第三水厂,,40,40,53,15,24,118,118,88,88,7,14,4,5,0.6,0.7
2026-05-30T1500,2538A,103.7571,29.5664,乐山市,市监测站,,43,43,54,16,22,125,125,89,89,6,12,4,5,0.7,0.8
2026-05-30T1500,3361A,103.7313,29.563,乐山市,理工大学,,45,45,57,15,27,137,137,89,89,6,15,3,5,0.5,0.6
2026-05-30T1500,2599A,100.2497,26.8802,丽江市,丽江古城,,27,12,19,11,14,84,84,68,68,6,9,6,7,0.5,0.5
2026-05-30T1500,2600A,100.2203,26.8906,丽江市,市中心,,25,15,15,8,12,80,80,73,66,5,7,4,5,0.5,0.5
2026-05-30T1500,1267A,119.9141,28.4513,丽水市,监测站大楼,,40,32,37,16,24,128,128,120,119,8,9,4,4,0.5,0.5
2026-05-30T1500,1268A,119.93,28.4589,丽水市,莲都小学,,40,26,40,14,24,128,128,123,120,7,9,/,/,/,/
2026-05-30T1500,1269A,119.8794,28.4232,丽水市,余庄前,,46,46,38,32,23,127,127,109,109,20,12,4,4,0.6,0.6
2026-05-30T1500,1173A,119.1759,34.5885,连云港市,市环境监测站,,49,19,35,9,19,155,155,154,154,8,15,8,10,0.4,0.4
2026-05-30T1500,3000A,119.3577,34.6971,连云港市,德源药业,,48,22,52,12,19,152,152,140,140,10,32,5,8,0.5,0.5
2026-05-30T1500,3007A,119.178,34.8442,连云港市,新城一中,,47,46,47,11,26,148,148,133,133,6,23,4,5,0.4,0.5
2026-05-30T1500,3008A,119.3607,34.7519,连云港市,胡沟管理处,臭氧1小时(O3_1h),62,12,17,7,8,169,169,149,149,13,18,12,13,0.4,0.5
2026-05-30T1500,3009A,119.1478,34.5913,连云港市,矿山设计院,,48,34,41,7,19,152,152,144,144,4,14,4,7,0.1,0.2
2026-05-30T1500,3434A,119.2414,34.6539,连云港市,工贸学校,,48,24,38,11,18,151,151,146,146,8,11,4,5,0.3,0.5
2026-05-30T1500,3664A,119.4171,34.734,连云港市,连云街道,细颗粒物(PM2.5),72,NA,37,46,15,166,166,158,158,15,9,10,10,0.5,0.5
2026-05-30T1500,2573A,102.2629,27.8981,凉山彝族自治州,西昌市政府,,32,14,14,8,9,101,101,77,77,4,5,7,6,0.4,0.5
2026-05-30T1500,2574A,102.2686,27.885,凉山彝族自治州,凉山州政府,,30,13,13,7,7,94,94,71,71,3,4,4,4,0.5,0.6
2026-05-30T1500,4229A,102.2342,27.8859,凉山彝族自治州,凯乐南路30号,,31,14,16,9,9,99,99,67,67,9,10,5,5,0.5,0.5
2026-05-30T1500,2212A,123.1978,41.2036,辽阳市,宏伟区,臭氧1小时(O3_1h),82,43,37,8,7,185,185,153,153,8,14,10,10,0.6,0.7
2026-05-30T1500,2213A,123.1684,41.2497,辽阳市,新华园,臭氧1小时(O3_1h),85,62,45,8,10,188,188,155,155,11,18,16,12,0.8,0.8
2026-05-30T1500,2214A,123.2355,41.2663,辽阳市,滨河路,臭氧1小时(O3_1h),78,52,44,7,8,182,182,149,149,8,17,11,11,0.6,0.7
2026-05-30T1500,4083A,123.153,41.2874,辽阳市,铁西路150号,NA,NA,86,57,8,14,150,150,138,138,NA,25,12,17,0.5,1.2
2026-05-30T1500,2227A,125.1359,42.8845,辽源市,环保局,,43,20,24,3,6,135,135,104,104,6,32,8,8,0.4,0.5
2026-05-30T1500,4085A,125.0998,42.9134,辽源市,安宁大街333号,,43,18,31,3,5,136,136,104,104,8,34,2,3,0.3,0.4
2026-05-30T1500,1625A,115.9789,36.4372,聊城市,区政府,臭氧1小时(O3_1h),83,57,48,12,13,186,186,152,152,4,12,10,17,0.4,0.4
2026-05-30T1500,3200A,115.9772,36.4986,聊城市,监控中心,臭氧1小时(O3_1h),79,55,50,9,12,183,183,155,155,8,14,11,13,0.3,0.3
2026-05-30T1500,3513A,116.0443,36.436,聊城市,九州社区,臭氧1小时(O3_1h),87,50,47,3,13,189,189,157,157,5,17,7,10,0.4,0.4
2026-05-30T1500,4018A,116.0564,36.4609,聊城市,星美广场,臭氧1小时(O3_1h),95,55,42,9,13,196,196,162,162,4,10,11,16,0.2,0.3
2026-05-30T1500,4113A,116.0091,36.4495,聊城市,利民路,,43,31,34,10,16,135,135,121,121,13,16,12,16,0.4,0.4
2026-05-30T1500,2632A,94.3683,29.6373,林芝市,林芝监测站,,33,14,12,3,9,104,104,77,77,5,8,3,4,0.5,0.6
2026-05-30T1500,2633A,94.3616,29.6634,林芝市,林芝人民医院,,37,13,15,3,12,118,118,86,86,4,6,3,2,0.3,0.4
2026-05-30T1500,2603A,100.0779,23.8981,临沧市,市环保局,,18,6,22,3,16,56,56,40,40,5,9,7,7,0.5,0.5
2026-05-30T1500,2604A,100.0894,23.882,临沧市,市气象局,,20,11,20,7,18,61,61,54,54,4,9,10,8,0.4,0.7
2026-05-30T1500,1733A,111.5552,36.0791,临汾市,临钢医院,臭氧1小时(O3_1h),90,56,86,22,32,192,192,131,131,12,19,12,10,0.9,1.2
2026-05-30T1500,1734A,111.4984,36.0734,临汾市,技工学校,臭氧1小时(O3_1h),99,67,82,37,45,199,199,138,138,13,20,13,15,1.0,1.2
2026-05-30T1500,1736A,111.5017,36.0857,临汾市,市委,臭氧1小时(O3_1h),102,78,88,31,37,203,203,141,141,14,21,13,13,1.3,1.5
2026-05-30T1500,3018A,111.5048,36.1015,临汾市,唐尧大酒店,臭氧1小时(O3_1h),100,73,90,30,37,200,200,135,135,13,19,12,12,0.9,1.2
2026-05-30T1500,4244A,111.4879,36.053,临汾市,启星学校,臭氧1小时(O3_1h),93,64,78,25,38,194,194,131,131,13,22,12,11,1.0,1.2
2026-05-30T1500,4271A,103.2464,35.6123,临夏回族自治州,滨河东路1号,,39,38,51,6,20,124,124,87,87,5,14,12,10,0.2,0.3
2026-05-30T1500,4310A,103.207136,35.599807,临夏回族自治州,新华街21号,,37,21,43,16,23,117,117,87,87,4,10,10,9,0.4,0.5
2026-05-30T1500,1618A,118.3429,35.0532,临沂市,沂河小区,臭氧1小时(O3_1h),69,36,51,6,19,175,175,157,157,16,24,12,19,0.2,0.3
2026-05-30T1500,1619A,118.2962,35.0568,临沂市,鲁南制药厂,臭氧1小时(O3_1h),79,34,57,3,24,183,183,164,164,15,32,12,20,0.1,0.4
2026-05-30T1500,1620A,118.2793,34.9976,临沂市,新光毛纺厂,臭氧1小时(O3_1h),70,27,57,3,24,176,176,157,157,8,29,12,24,0.2,0.4
2026-05-30T1500,1621A,118.3955,35.0889,临沂市,河东保险公司,臭氧1小时(O3_1h),80,24,41,6,17,184,184,167,167,11,21,11,16,0.1,0.2
2026-05-30T1500,3370A,118.3563,35.0215,临沂市,十里堡居委,臭氧1小时(O3_1h),77,29,59,3,23,181,181,161,161,11,29,11,23,0.3,0.5
2026-05-30T1500,3496A,118.359,35.1067,临沂市,南坊新区,臭氧1小时(O3_1h),78,46,48,7,18,182,182,163,163,11,21,10,17,0.3,0.4
2026-05-30T1500,3860A,118.3915,35.0297,临沂市,皇山花园小区,臭氧1小时(O3_1h),58,31,53,3,22,166,166,156,156,11,29,11,21,0.2,0.4
2026-05-30T1500,1870A,109.4854,24.3898,柳州市,柳东小学,,30,12,14,3,8,94,94,65,65,5,8,3,6,0.6,0.6
2026-05-30T1500,1871A,109.4109,24.3304,柳州市,环保监测站,,30,10,18,3,9,96,96,66,66,8,14,7,9,0.7,1
2026-05-30T1500,1872A,109.3886,24.3408,柳州市,河西水厂,NA,NA,NA,19,NA,8,NA,NA,60,NA,NA,18,NA,9,NA,1.2
2026-05-30T1500,1873A,109.4263,24.2951,柳州市,市四中,,31,19,15,6,10,99,99,67,67,6,11,7,10,0.8,0.8
2026-05-30T1500,1874A,109.396,24.3658,柳州市,市九中,,27,15,17,6,9,84,84,60,60,9,15,6,10,0.6,0.7
2026-05-30T1500,1875A,109.4912,24.3164,柳州市,古亭山,,30,19,16,3,7,93,93,66,66,3,7,4,5,0.8,0.8
2026-05-30T1500,3402A,109.5422,24.3994,柳州市,市二中,,31,21,14,6,4,99,99,73,73,5,9,5,5,0.6,0.6
2026-05-30T1500,2307A,116.5078,31.7369,六安市,监测大楼,臭氧1小时(O3_1h),54,29,45,3,32,163,163,119,119,9,12,4,4,0.3,0.4
2026-05-30T1500,2308A,116.4738,31.7642,六安市,皖西学院,,49,23,56,11,38,155,155,104,104,3,14,5,6,0.3,0.4
2026-05-30T1500,2309A,116.4997,31.7904,六安市,朝阳厂,,46,22,39,11,31,146,146,103,103,8,14,7,7,0.2,0.3
2026-05-30T1500,2310A,116.5566,31.7885,六安市,开发区,臭氧1小时(O3_1h),60,24,41,10,30,168,168,116,116,6,13,5,7,0.2,0.3
2026-05-30T1500,2577A,104.8293,26.592,六盘水市,黄土坡,,44,30,32,8,14,138,138,120,120,6,8,4,5,0.2,0.2
2026-05-30T1500,2579A,104.8481,26.5898,六盘水市,民中,,42,18,24,9,13,133,133,117,117,8,9,2,4,0.3,0.3
2026-05-30T1500,2580A,104.9541,26.5506,六盘水市,双水,,41,19,26,3,12,129,129,114,114,6,13,4,5,0.2,0.3
2026-05-30T1500,4151A,104.8899,26.5685,六盘水市,钟山大道中段564号,,43,42,35,12,13,135,135,115,115,8,13,7,8,0.8,0.9
2026-05-30T1500,2336A,117.022,25.1031,龙岩市,龙岩市监测站,,35,17,12,11,8,110,110,87,87,4,7,5,6,0.4,0.4
2026-05-30T1500,2337A,117.0257,25.0662,龙岩市,闽西职业技术学院,,30,24,14,11,9,95,95,77,77,1,5,5,6,0.6,0.6
2026-05-30T1500,2338A,117.0195,25.0306,龙岩市,龙岩学院,,34,34,16,15,9,105,105,79,79,4,6,1,2,/,/
2026-05-30T1500,2885A,104.9344,33.3827,陇南市,滨江中学,,48,48,54,11,15,114,114,81,81,4,10,4,4,0.4,0.5
2026-05-30T1500,3247A,104.9551,33.3709,陇南市,市总工会,,40,40,41,13,14,116,116,86,86,3,6,7,6,0.5,0.5
2026-05-30T1500,2488A,111.9984,27.7346,娄底市,市监测站,,47,47,41,21,24,92,92,76,76,6,12,5,7,0.5,0.7
2026-05-30T1500,2491A,111.9888,27.7035,娄底市,市政府,,36,36,38,21,20,103,103,88,88,8,7,4,3,0.6,0.5
2026-05-30T1500,4127A,111.9812,27.7591,娄底市,涟钢职大,,37,37,36,15,17,102,102,82,82,4,10,5,4,0.3,0.5
2026-05-30T1500,4128A,112.0303,27.7457,娄底市,娄底体校,,35,34,40,15,20,112,112,90,90,6,13,3,2,0.4,0.6
2026-05-30T1500,1894A,105.4427,28.9063,泸州市,小市上码头,,44,21,36,6,14,140,140,84,84,7,15,7,7,0.3,0.3
2026-05-30T1500,1895A,105.4241,28.8573,泸州市,兰田宪桥,,40,31,52,11,22,125,125,79,79,8,17,3,3,0.4,0.5
2026-05-30T1500,1896A,105.4378,28.8833,泸州市,市环监站,,42,22,34,9,16,132,132,80,80,9,17,8,10,0.6,0.6
2026-05-30T1500,4272A,105.3689,28.7783,泸州市,纳溪中医医院,,48,48,53,12,23,139,139,75,75,7,15,6,5,0.5,0.6
2026-05-30T1500,2183A,111.1447,37.5212,吕梁市,环保局,臭氧1小时(O3_1h),67,16,36,3,9,173,173,122,122,8,20,9,8,0.3,0.3
2026-05-30T1500,2185A,111.1285,37.5338,吕梁市,自来水公司,臭氧1小时(O3_1h),62,18,46,3,11,169,169,113,113,8,24,3,4,0.2,0.3
2026-05-30T1500,2867A,111.1225,37.5093,吕梁市,马茂庄小学,臭氧1小时(O3_1h),72,22,41,3,8,177,177,120,120,5,22,10,5,0.2,0.2
2026-05-30T1500,1812A,112.3934,34.6517,洛阳市,市委党校,,49,27,44,6,20,155,155,116,116,7,14,8,10,0.3,0.4
2026-05-30T1500,1815A,112.494,34.6883,洛阳市,河南林校,臭氧1小时(O3_1h),54,32,51,3,18,163,163,120,120,8,18,10,12,0.4,0.5
2026-05-30T1500,1816A,112.3843,34.623,洛阳市,开发区管委会,臭氧1小时(O3_1h),57,26,38,8,16,165,165,120,120,5,12,9,10,0.3,0.4
2026-05-30T1500,1817A,112.4263,34.6249,洛阳市,市委新办公区,,49,27,43,3,16,155,155,110,110,5,11,10,11,0,0.1
2026-05-30T1500,3340A,112.6005,34.6323,洛阳市,伊滨,,49,19,44,6,15,154,154,110,110,6,12,8,9,0.4,0.4
2026-05-30T1500,3341A,112.495,34.6338,洛阳市,中移产业园,,48,29,43,11,17,153,153,109,109,6,13,8,9,0.3,0.5
2026-05-30T1500,3593A,112.5736,34.8993,洛阳市,吉利监测站,NA,NA,31,38,6,16,148,148,121,121,8,14,NA,10,NA,0.4
2026-05-30T1500,3635A,112.3678,34.6623,洛阳市,河科大西苑校区,臭氧1小时(O3_1h),53,29,48,7,19,162,162,127,127,9,16,9,12,0.4,0.5
2026-05-30T1500,3636A,112.4387,34.678,洛阳市,英才小学,,50,25,52,3,19,158,158,116,116,5,14,9,11,0.3,0.5
2026-05-30T1500,4214A,112.460027,34.694929,洛阳市,春都路1号院,臭氧1小时(O3_1h),53,28,54,3,24,162,162,130,130,5,16,7,11,0.1,0.3
2026-05-30T1500,2399A,114.051,33.5721,漯河市,三五一五工厂,臭氧1小时(O3_1h),59,30,50,3,15,167,167,130,130,11,17,6,6,0.4,0.4
2026-05-30T1500,2400A,114.0055,33.5698,漯河市,漯河大学,臭氧1小时(O3_1h),55,29,44,7,17,164,164,125,125,13,18,6,6,0.2,0.3
2026-05-30T1500,2401A,114.0134,33.5826,漯河市,市水利局,臭氧1小时(O3_1h),54,31,50,8,19,163,163,123,123,13,18,5,5,0.2,0.3
2026-05-30T1500,2402A,114.0261,33.5697,漯河市,市广电局,臭氧1小时(O3_1h),54,32,47,15,17,163,163,126,126,14,17,5,5,0.2,0.3
2026-05-30T1500,3478A,113.9691,33.568,漯河市,市图书馆,,50,46,52,13,16,160,160,121,121,12,17,6,7,0.2,0.3
2026-05-30T1500,4250A,114.089259,33.588274,漯河市,韶山路11号,,50,42,55,3,16,157,157,122,122,7,17,7,9,0.3,0.4
2026-05-30T1500,1798A,118.5084,31.6838,马鞍山市,湖东路四小,臭氧1小时(O3_1h),104,64,62,32,28,207,207,148,148,12,20,8,10,0.5,0.5
2026-05-30T1500,1799A,118.5019,31.6449,马鞍山市,开发区,臭氧1小时(O3_1h),100,56,69,31,32,200,200,144,144,9,24,8,9,0.6,0.6
2026-05-30T1500,3633A,118.4914,31.681,马鞍山市,雨山,臭氧1小时(O3_1h),103,57,57,36,27,206,206,150,150,NA,23,8,9,0.4,0.5
2026-05-30T1500,4191A,118.527362,31.722269,马鞍山市,慈湖高新区,臭氧1小时(O3_1h),97,63,56,31,28,197,197,138,138,18,25,6,7,0.7,0.5
2026-05-30T1500,1686A,111.0285,21.469,茂名市,电白南海,,24,24,23,9,12,68,68,86,86,4,6,5,5,0.7,0.7
2026-05-30T1500,1687A,110.9294,21.6533,茂名市,茂石化七小,,36,31,30,14,20,115,115,89,89,10,11,7,8,0.4,0.5
2026-05-30T1500,1688A,110.9108,21.6688,茂名市,健康路,,33,24,23,13,20,103,103,91,91,9,10,5,11,0.6,0.6
2026-05-30T1500,1689A,110.8592,21.6826,茂名市,高岭,,34,34,34,13,21,79,79,74,74,10,10,4,9,/,/
2026-05-30T1500,3450A,111.0101,21.5165,茂名市,电白水东,,25,14,17,11,13,80,80,87,87,5,7,2,3,/,/
2026-05-30T1500,2540A,103.8414,30.0871,眉山市,气象局,,50,40,51,15,23,157,157,102,102,12,18,8,9,0.5,0.6
2026-05-30T1500,3148A,103.829,30.0563,眉山市,区人社局,NA,NA,48,57,3,7,153,153,108,108,NA,17,NA,11,0.5,0.6
2026-05-30T1500,4148A,103.8836,30.0695,眉山市,眉职院,,46,33,39,10,12,147,147,99,99,7,13,8,8,0.6,0.6
2026-05-30T1500,1690A,116.1248,24.3307,梅州市,梅江月梅,,35,NA,19,24,11,83,83,63,63,6,9,/,/,/,/
2026-05-30T1500,1691A,116.0798,24.2719,梅州市,梅县新城,,26,17,17,8,10,81,81,69,69,5,9,8,8,0.4,0.4
2026-05-30T1500,3315A,116.1234,24.2994,梅州市,梅龙,,30,9,12,8,9,94,94,78,78,4,7,5,6,0.5,0.5
2026-05-30T1500,1878A,104.7775,31.4741,绵阳市,富乐山,,48,37,35,18,15,151,151,110,110,6,6,10,9,0.6,0.6
2026-05-30T1500,1880A,104.6698,31.4668,绵阳市,高新区自来水公司,,45,43,36,19,15,141,141,107,107,6,9,9,9,0.8,0.7
2026-05-30T1500,3491A,104.6899,31.5324,绵阳市,西科大附属小学,,50,44,39,27,19,157,157,112,112,12,12,7,6,0.6,0.6
2026-05-30T1500,3492A,104.5647,31.5343,绵阳市,安州区旅游局,,48,36,39,20,19,153,153,110,110,4,9,4,5,0.5,0.6
2026-05-30T1500,4146A,104.7092,31.4972,绵阳市,科技城新区公安局,,49,47,36,16,15,156,156,115,115,9,9,8,8,0.5,0.5
2026-05-30T1500,4226A,104.765114,31.453094,绵阳市,绵阳市气象局,,44,41,34,23,17,140,140,103,103,10,12,8,8,0.4,0.4
2026-05-30T1500,1784A,129.61,44.561,牡丹江市,环保大楼,,31,12,22,3,5,97,97,77,77,5,12,4,4,0.1,0.1
2026-05-30T1500,1787A,129.6364,44.6075,牡丹江市,机车工厂,,30,18,35,7,14,93,93,75,75,3,13,5,5,0.2,0.3
2026-05-30T1500,1788A,129.6386,44.5462,牡丹江市,第一中学,,30,14,20,3,6,94,94,75,75,4,10,5,5,0.2,0.2
2026-05-30T1500,4287A,129.5992,44.5964,牡丹江市,东晓云街98号,,31,14,28,3,8,98,98,78,78,3,8,4,4,0.1,0.2
2026-05-30T1500,2531A,105.0703,29.61,内江市,市监测站,,41,30,44,11,22,131,131,89,89,10,14,10,10,0.8,0.8
2026-05-30T1500,2533A,105.0657,29.5807,内江市,内江二中,,43,36,39,10,24,136,136,95,95,9,15,9,10,0.3,0.3
2026-05-30T1500,2534A,105.0407,29.5828,内江市,内江日报社,,44,28,40,12,24,140,140,100,100,9,16,13,14,0.3,0.5
2026-05-30T1500,4147A,105.0433,29.6105,内江市,玉峰路西段888号,,42,13,37,9,24,133,133,93,93,7,15,10,9,0.4,0.5
2026-05-30T1500,2628A,92.0653,31.4846,那曲市,那曲监测站,,47,19,19,9,11,148,148,129,129,7,7,6,6,0.4,0.4
2026-05-30T1500,4243A,92.0515,31.4787,那曲市,那曲市委宣传部,,47,10,10,3,7,148,148,128,128,5,7,6,6,0.3,0.4
2026-05-30T1500,1291A,115.8887,28.7006,南昌市,省林业公司,臭氧1小时(O3_1h),70,58,49,42,27,176,176,136,136,6,8,7,6,0.7,0.6
2026-05-30T1500,1292A,115.813,28.7443,南昌市,林科所,,50,48,47,33,25,159,159,133,133,4,3,9,9,0.7,0.6
2026-05-30T1500,1294A,115.8518,28.687,南昌市,建工学校,臭氧1小时(O3_1h),64,47,52,39,28,171,171,134,134,8,8,10,9,0.8,0.7
2026-05-30T1500,1295A,115.8926,28.6425,南昌市,象湖,臭氧1小时(O3_1h),59,56,50,39,29,167,167,132,132,11,15,10,10,0.7,0.6
2026-05-30T1500,3046A,115.9084,28.6062,南昌市,机电学校,臭氧1小时(O3_1h),70,67,61,38,30,176,176,145,145,11,14,7,7,0.7,0.6
2026-05-30T1500,3690A,115.9718,28.7032,南昌市,外国语学校,细颗粒物(PM2.5),64,62,58,42,30,170,170,129,129,11,19,13,13,0.8,0.7
2026-05-30T1500,4106A,115.7923,28.6873,南昌市,工业二路,颗粒物(PM10),59,62,60,33,27,152,152,132,132,4,4,7,7,0.7,0.6
2026-05-30T1500,4192A,115.931587,28.686774,南昌市,南京东路235号,臭氧1小时(O3_1h),78,70,54,39,29,182,182,140,140,13,17,7,8,1.0,0.8
2026-05-30T1500,1906A,106.0791,30.8022,南充市,南充市委,,38,21,21,10,11,119,119,94,94,6,11,6,6,0.3,0.2
2026-05-30T1500,1907A,106.1038,30.8215,南充市,南充炼油厂,,36,30,30,10,11,115,115,74,74,7,11,7,6,0.2,0.3
2026-05-30T1500,4227A,106.108336,30.788436,南充市,梨树横街98号,,36,22,24,11,13,115,115,77,77,6,10,7,7,0.1,0.2
2026-05-30T1500,4304A,106.1172,30.843,南充市,清泉寺北路188号,,35,34,26,11,10,112,112,77,77,6,7,7,7,0.2,0.3
2026-05-30T1500,4305A,106.067,30.7616,南充市,同庆路1号,,39,19,26,10,11,122,122,86,86,6,11,7,6,0.2,0.2
2026-05-30T1500,1151A,118.8033,32.1085,南京市,迈皋桥,臭氧1小时(O3_1h),105,40,37,19,17,210,210,168,168,10,17,8,7,0.3,0.3
2026-05-30T1500,1152A,118.7487,32.057,南京市,草场门,臭氧1小时(O3_1h),105,46,44,18,17,210,210,160,160,13,18,7,7,0.5,0.5
2026-05-30T1500,1154A,118.770105,32.004342,南京市,中华门,臭氧1小时(O3_1h),79,46,44,14,15,183,183,136,136,6,10,6,6,0.4,0.4
2026-05-30T1500,1155A,118.8059,32.0329,南京市,瑞金路,臭氧1小时(O3_1h),84,53,46,19,19,187,187,141,141,48,27,4,4,0.4,0.4
2026-05-30T1500,1156A,118.7946,32.0774,南京市,玄武湖,臭氧1小时(O3_1h),85,45,41,15,14,188,188,141,141,13,18,9,8,0.4,0.4
2026-05-30T1500,1157A,118.6415,32.0964,南京市,浦口,臭氧1小时(O3_1h),93,49,46,19,17,194,194,138,138,17,21,6,6,0.4,0.4
2026-05-30T1500,1158A,118.730129,32.000956,南京市,奥体中心,臭氧1小时(O3_1h),93,47,52,15,17,194,194,148,148,12,19,8,8,0.1,0.2
2026-05-30T1500,1159A,118.9072,32.1047,南京市,仙林大学城,臭氧1小时(O3_1h),75,46,47,8,15,180,180,152,152,5,15,6,6,0.5,0.6
2026-05-30T1500,3422A,118.8443,31.919,南京市,江宁彩虹桥,臭氧1小时(O3_1h),74,42,49,11,17,179,179,142,142,3,16,8,8,0.5,0.5
2026-05-30T1500,3427A,118.8497,32.3599,南京市,六合雄州,臭氧1小时(O3_1h),83,27,52,6,24,186,186,134,134,23,32,3,4,0.6,0.6
2026-05-30T1500,4086A,118.7641,32.0841,南京市,新模范马路66号,臭氧1小时(O3_1h),109,51,46,17,15,217,217,165,165,4,11,4,4,0.5,0.5
2026-05-30T1500,4249A,118.8707617,31.34017673,南京市,汶溪路181号,臭氧1小时(O3_1h),67,53,56,19,26,173,173,138,138,14,25,10,8,0.2,0.3
2026-05-30T1500,4312A,119.019,31.6512,南京市,中山西路1号,,48,41,55,11,22,151,151,114,114,15,23,4,6,0.3,0.4
2026-05-30T1500,1401A,108.3098,22.788,南宁市,二十一中,,28,23,26,10,18,89,89,59,59,7,17,2,4,0.6,0.6
2026-05-30T1500,1402A,108.3135,22.8529,南宁市,北湖,,27,NA,29,12,22,86,86,60,60,8,18,3,8,0.6,0.6
2026-05-30T1500,1403A,108.3205,22.8222,南宁市,市监测站,,30,22,31,9,18,95,95,66,66,4,15,4,7,0.7,0.7
2026-05-30T1500,1404A,108.3828,22.8038,南宁市,大自然花园,,32,32,25,18,17,94,94,65,65,9,16,4,5,0.9,0.9
2026-05-30T1500,1406A,108.2397,22.8462,南宁市,区农职院,,29,23,32,15,16,91,91,64,64,3,13,3,8,0.7,0.6
2026-05-30T1500,1407A,108.3285,22.7356,南宁市,英华嘉园,,32,28,31,13,18,101,101,59,59,8,19,4,6,0.7,0.6
2026-05-30T1500,3401A,108.4829,22.762,南宁市,红星社区,,37,35,27,12,16,118,118,74,74,9,13,6,7,0.4,0.4
2026-05-30T1500,4132A,108.2927,23.1477,南宁市,起凤路9号,,26,15,33,10,20,82,82,63,63,7,21,5,5,0.8,0.8
2026-05-30T1500,4221A,108.2177,22.7774,南宁市,乐贤路16号,,33,22,28,12,18,105,105,60,60,8,18,11,6,0.6,0.5
2026-05-30T1500,2332A,118.1682,26.6371,南平市,南平市监测站,,39,24,31,13,21,124,124,104,104,4,5,4,4,0.5,0.6
2026-05-30T1500,2334A,118.1757,26.6276,南平市,南平七中,,39,39,33,11,19,114,114,97,97,4,5,3,3,0.5,0.5
2026-05-30T1500,1168A,120.9056,31.9669,南通市,狼山街道,,46,22,33,7,19,147,147,115,115,18,24,6,6,0.5,0.6
2026-05-30T1500,1170A,120.8635,32.0231,南通市,城中,,48,30,45,7,16,151,151,132,132,24,26,7,7,0.5,0.5
2026-05-30T1500,1171A,120.9376,31.9301,南通市,星湖花园,,47,37,44,12,21,150,150,131,131,23,20,8,6,0.6,0.6
2026-05-30T1500,1172A,120.8053,32.046,南通市,紫琅学院,,37,32,39,8,18,118,118,105,105,44,31,7,7,0.7,0.7
2026-05-30T1500,3291A,121.0631,32.0644,南通市,通州监测站,,44,22,46,3,22,140,140,135,135,14,14,6,6,0.3,0.5
2026-05-30T1500,3432A,120.9348,31.9874,南通市,环境教育馆,,44,34,44,10,20,140,140,126,126,22,26,8,6,0.5,0.5
2026-05-30T1500,4091A,120.8692,31.9885,南通市,洪江路,,41,26,37,7,19,130,130,107,107,31,25,4,4,0.7,0.7
2026-05-30T1500,2404A,112.5338,33.0086,南阳市,瓦房庄,,45,42,47,3,12,144,144,100,100,6,12,5,7,0.5,0.7
2026-05-30T1500,2405A,112.5002,32.9734,南阳市,汉画馆,,43,43,52,3,13,136,136,92,92,9,18,6,8,0.2,0.6
2026-05-30T1500,2406A,112.5778,33.0144,南阳市,气象站,,44,42,49,3,13,139,139,94,94,8,14,7,9,0.2,0.5
2026-05-30T1500,2407A,112.548,32.9687,南阳市,理工学院,,46,36,47,3,13,145,145,96,96,12,17,7,9,0.2,0.5
2026-05-30T1500,4008A,112.5233,32.9921,南阳市,卧龙区政府,,45,32,45,7,13,143,143,100,100,8,14,5,7,0.3,0.6
2026-05-30T1500,1234A,121.8352,29.9111,宁波市,区环保大楼,臭氧1小时(O3_1h),70,32,31,6,10,176,176,150,150,26,33,7,8,0.3,0.4
2026-05-30T1500,1235A,121.5595,29.8208,宁波市,万里学院,臭氧1小时(O3_1h),98,31,34,3,14,198,198,163,163,13,23,6,6,0.5,0.6
2026-05-30T1500,1236A,121.713,29.9564,宁波市,龙赛医院,臭氧1小时(O3_1h),89,35,39,9,13,191,191,158,158,14,28,8,9,0.4,0.4
2026-05-30T1500,1240A,121.5855,29.8635,宁波市,太古小学,臭氧1小时(O3_1h),69,25,31,6,11,175,175,154,154,12,19,5,5,0.1,0.1
2026-05-30T1500,1241A,121.5239,29.8673,宁波市,市环境监测中心,臭氧1小时(O3_1h),77,29,35,3,12,181,181,162,162,12,19,10,11,0.3,0.4
2026-05-30T1500,2871A,121.6156,29.9015,宁波市,万里国际学校,臭氧1小时(O3_1h),85,28,31,3,12,188,188,158,158,14,23,7,7,0.2,0.3
2026-05-30T1500,3710A,121.5593,29.8976,宁波市,白沙活动中心,臭氧1小时(O3_1h),84,26,36,6,10,187,187,165,165,15,22,8,8,0.4,0.4
2026-05-30T1500,4095A,121.8962,29.7529,宁波市,中科路88号,臭氧1小时(O3_1h),90,26,28,7,9,192,192,164,164,14,24,6,7,0.2,0.4
2026-05-30T1500,2341A,119.5387,26.6611,宁德市,宁德市监测站,臭氧1小时(O3_1h),69,44,40,36,26,175,175,144,144,17,19,10,5,0.9,0.8
2026-05-30T1500,3209A,119.5231,26.6562,宁德市,宁德一中,臭氧1小时(O3_1h),70,55,33,37,28,176,176,144,144,8,8,11,8,0.8,0.8
2026-05-30T1500,2618A,98.859,25.8541,怒江傈僳族自治州,州监测站,,30,NA,30,21,21,73,73,62,60,8,9,4,4,0.4,0.4
2026-05-30T1500,2619A,98.8607,25.8168,怒江傈僳族自治州,泸水一中,颗粒物(PM10),57,59,28,17,22,62,62,58,55,10,10,5,5,0.5,0.5
2026-05-30T1500,1888A,101.6891,26.571,攀枝花市,弄弄坪,,28,6,33,3,11,88,88,60,60,8,10,2,2,0.4,0.4
2026-05-30T1500,1889A,101.577,26.5914,攀枝花市,河门口,,28,8,29,3,17,89,89,62,62,13,12,15,14,1.3,1
2026-05-30T1500,1891A,101.7365,26.4986,攀枝花市,仁和,,29,11,24,7,15,90,90,61,61,6,7,6,6,0.5,0.4
2026-05-30T1500,2835A,101.7222,26.567,攀枝花市,四十中小,,26,16,32,3,10,82,82,57,57,5,6,7,8,0.9,0.9
2026-05-30T1500,1604A,122.0303,41.1489,盘锦市,开发区,臭氧1小时(O3_1h),108,84,35,26,13,215,215,166,166,11,14,10,9,0.5,0.3
2026-05-30T1500,1605A,122.0486,41.0883,盘锦市,兴隆台,NA,NA,50,36,36,13,190,190,148,148,NA,18,10,8,0.7,0.5
2026-05-30T1500,1606A,121.8297,41.1026,盘锦市,新生街道,臭氧1小时(O3_1h),67,44,25,26,13,173,173,134,134,13,18,8,10,0.7,0.5
2026-05-30T1500,1832A,113.3257,33.7423,平顶山市,新华旅馆,,50,37,56,3,19,158,158,124,124,5,16,3,4,0,0.1
2026-05-30T1500,1833A,113.2917,33.737,平顶山市,规划设计院,,49,37,53,6,18,154,154,117,117,12,12,9,9,0.3,0.5
2026-05-30T1500,1834A,113.182,33.7738,平顶山市,平顶山工学院,,48,28,38,15,17,151,151,113,113,6,14,5,7,0.3,0.4
2026-05-30T1500,3594A,112.8736,33.9068,平顶山市,石龙区,,46,27,56,6,16,145,145,112,112,5,30,10,12,0.2,0.3
2026-05-30T1500,4116A,113.284,33.7139,平顶山市,姚电大道23号,,50,42,58,10,17,159,159,120,120,4,14,6,6,0.4,0.5
2026-05-30T1500,2656A,106.6633,35.5338,平凉市,聚贤嘉苑,颗粒物(PM10),51,51,49,16,14,147,147,112,112,8,18,10,10,0.5,0.6
2026-05-30T1500,2657A,106.7021,35.5307,平凉市,博物馆,,49,35,48,8,14,154,154,114,114,5,18,10,11,0.4,0.6
2026-05-30T1500,2348A,113.8384,27.6436,萍乡市,中医院,颗粒物(PM10),73,82,56,45,38,74,74,48,48,21,18,18,8,1.0,0.7
2026-05-30T1500,2350A,113.8677,27.6438,萍乡市,市环保局,细颗粒物(PM2.5),90,63,45,55,43,71,71,51,51,17,13,12,10,1.1,0.9
2026-05-30T1500,2351A,113.8663,27.6202,萍乡市,安源区政府,细颗粒物(PM2.5),62,50,42,41,35,81,81,54,54,10,11,7,6,0.4,0.4
2026-05-30T1500,4107A,113.8686,27.6668,萍乡市,联洪村委会,细颗粒物(PM2.5),76,77,70,48,49,67,67,41,41,15,19,11,9,0.9,0.9
2026-05-30T1500,2319A,119.0142,25.4324,莆田市,荔城区仓后路,臭氧1小时(O3_1h),57,40,44,15,23,165,165,140,140,8,8,/,/,/,/
2026-05-30T1500,2320A,119.0016,25.4553,莆田市,莆田市监测站,臭氧1小时(O3_1h),55,35,36,12,20,164,164,143,143,5,3,4,3,0.6,0.6
2026-05-30T1500,2321A,119.112,25.4561,莆田市,涵江区六中,臭氧1小时(O3_1h),57,43,43,24,20,165,165,149,149,11,7,/,/,0.7,0.7
2026-05-30T1500,2322A,119.1014,25.3215,莆田市,秀屿区政府,臭氧1小时(O3_1h),57,51,44,13,22,165,165,153,153,10,7,6,5,0.6,0.6
2026-05-30T1500,2392A,115.0312,35.7636,濮阳市,环保局,,50,13,42,7,16,160,160,138,138,2,12,5,7,0.6,0.7
2026-05-30T1500,3021A,115,35.7667,濮阳市,濮水河管理处,,46,22,42,6,19,145,145,120,120,9,18,6,5,0.5,0.6
2026-05-30T1500,4118A,115.0552,35.7816,濮阳市,中原东路68号,臭氧1小时(O3_1h),55,28,49,11,15,164,164,142,142,7,14,5,7,0.7,0.9
2026-05-30T1500,4216A,115.0923632,35.76857718,濮阳市,任丘路479号,臭氧1小时(O3_1h),64,35,50,6,19,171,171,144,144,4,15,4,5,0.3,0.4
2026-05-30T1500,2601A,100.9801,22.7634,普洱市,市环保局,,38,38,34,21,13,70,70,59,59,5,7,5,5,0.6,0.7
2026-05-30T1500,2602A,100.9763,22.8237,普洱市,普洱第二中学,,23,21,29,13,12,71,71,59,59,5,11,6,5,0.5,0.6
2026-05-30T1500,3345A,131.0413,45.7795,七台河市,中波台,,31,31,17,3,6,78,78,74,74,3,7,3,4,0.5,0.5
2026-05-30T1500,3637A,131.0136,45.7688,七台河市,人民广场,,34,34,25,6,7,82,82,78,78,6,10,4,5,0.4,0.4
2026-05-30T1500,3684A,130.8639,45.8144,七台河市,新建矿广场,,27,27,16,3,6,73,73,67,67,8,10,5,4,0.1,0.1
2026-05-30T1500,1779A,123.9307,47.3641,齐齐哈尔市,安居小区,,34,34,26,3,6,100,100,78,78,7,12,4,3,0.3,0.3
2026-05-30T1500,1780A,123.9497,47.3389,齐齐哈尔市,中心广场,,32,14,23,3,9,101,101,77,77,11,17,4,4,0.4,0.4
2026-05-30T1500,1781A,123.9483,47.3229,齐齐哈尔市,农牧车辆厂,,35,27,27,6,5,109,109,82,82,7,12,5,6,0.2,0.3
2026-05-30T1500,1783A,123.9442,47.2994,齐齐哈尔市,市环境监测站,,34,15,25,6,6,108,108,82,82,6,11,4,3,0.4,0.5
2026-05-30T1500,3662A,123.6341,47.2079,齐齐哈尔市,富区青少年活动中心,,35,28,31,3,8,111,111,84,84,10,15,4,4,0.1,0.2
2026-05-30T1500,2591A,107.9765,26.5724,黔东南苗族侗族自治州,市环境监测站,,33,27,15,23,14,99,99,72,72,6,6,2,3,0.4,0.5
2026-05-30T1500,2881A,107.8909,26.531,黔东南苗族侗族自治州,凯里学院,,35,34,17,24,16,103,103,71,71,5,9,3,3,0.5,0.6
2026-05-30T1500,2593A,107.5223,26.2371,黔南布依族苗族自治州,小围寨,,30,27,20,12,13,95,95,80,80,10,7,6,5,0.8,0.7
2026-05-30T1500,3538A,107.5175,26.2977,黔南布依族苗族自治州,沙坝,,32,29,25,7,11,100,100,81,81,4,6,4,4,0.8,0.9
2026-05-30T1500,2589A,104.9022,25.0943,黔西南布依族苗族自治州,场坝街,,45,13,16,9,11,143,143,110,110,5,8,8,14,0.3,0.4
2026-05-30T1500,2590A,104.8812,25.0994,黔西南布依族苗族自治州,坪东大道,,44,12,16,10,10,138,138,101,101,6,7,7,8,0.2,0.3
2026-05-30T1500,2502A,108.6238,21.9667,钦州市,市环保站,,34,34,29,3,15,102,102,53,46,6,11,1,2,0.6,0.7
2026-05-30T1500,2503A,108.655,21.9481,钦州市,沙埠小学,,45,45,29,30,19,103,103,59,55,13,11,2,2,0.8,0.6
2026-05-30T1500,2504A,108.5989,21.7435,钦州市,港区一小,,46,36,36,32,21,96,96,58,58,14,15,4,4,0.7,0.6
2026-05-30T1500,3404A,108.5959,21.9634,钦州市,北职校,,40,35,28,28,16,105,105,57,47,5,10,3,3,0.6,0.6
2026-05-30T1500,1046A,119.5247,39.9346,秦皇岛市,建设大厦,臭氧1小时(O3_1h),104,45,43,13,13,207,207,160,160,3,18,10,10,0.5,0.6
2026-05-30T1500,3132A,119.5979,39.938,秦皇岛市,文明里,臭氧1小时(O3_1h),101,48,55,13,13,201,201,87,NA,10,20,10,9,NA,0.6
2026-05-30T1500,4066A,119.7458,39.9952,秦皇岛市,南园路157号,臭氧1小时(O3_1h),94,36,43,15,12,195,195,157,157,13,41,11,11,0.4,0.5
2026-05-30T1500,4067A,119.5131,39.8858,秦皇岛市,翠岛大街1号,臭氧1小时(O3_1h),111,41,36,19,13,222,222,164,164,14,26,16,14,0.6,0.5
2026-05-30T1500,4198A,119.509013,39.825305,秦皇岛市,北戴河轮滑馆,臭氧1小时(O3_1h),92,47,47,20,17,193,193,145,145,13,24,14,13,0.7,0.6
2026-05-30T1500,1310A,120.404,36.0625,青岛市,市南区东部子站,臭氧1小时(O3_1h),106,83,45,51,22,212,212,162,162,28,31,14,10,0.7,0.5
2026-05-30T1500,1311A,120.362344,36.10282,青岛市,四方区子站,臭氧1小时(O3_1h),111,48,45,25,17,221,221,167,167,14,37,12,10,0.8,0.8
2026-05-30T1500,1312A,120.294373,36.054183,青岛市,市南区西部子站,臭氧1小时(O3_1h),105,92,61,41,22,210,210,149,149,32,60,11,10,1.1,0.9
2026-05-30T1500,1313A,120.4581,36.0858,青岛市,崂山区子站,臭氧1小时(O3_1h),109,70,39,36,19,217,217,151,151,39,28,16,9,0.5,0.4
2026-05-30T1500,1315A,120.3945,36.3083,青岛市,城阳区子站,臭氧1小时(O3_1h),95,41,45,11,16,196,196,149,149,16,32,9,9,0.4,0.5
2026-05-30T1500,3642A,120.3454,36.0735,青岛市,市北区南部,臭氧1小时(O3_1h),119,66,43,40,17,237,237,178,178,21,33,10,9,1.0,0.9
2026-05-30T1500,3643A,120.3897,36.18,青岛市,李沧区北部,臭氧1小时(O3_1h),83,46,44,14,15,186,186,144,144,13,34,12,12,0.6,0.6
2026-05-30T1500,4110A,120.5222,36.4089,青岛市,盟旺路653号,臭氧1小时(O3_1h),88,31,41,7,14,190,190,154,154,11,19,8,8,0.5,0.6
2026-05-30T1500,4290A,120.196923,35.954556,青岛市,珠江路669号,臭氧1小时(O3_1h),105,105,57,44,22,210,210,162,162,28,27,9,8,0.6,0.8
2026-05-30T1500,4291A,120.0424,35.8656,青岛市,黄岛区人民政府广场,臭氧1小时(O3_1h),107,73,52,20,18,213,213,140,140,20,32,15,11,1.0,0.8
2026-05-30T1500,1703A,113.0218,23.7086,清远市,凤城街办,,48,38,20,33,13,105,105,82,82,7,9,/,/,/,/
2026-05-30T1500,3025A,113.0479,23.6343,清远市,技师学院,,38,16,18,12,10,119,119,86,86,5,10,5,5,0.4,0.4
2026-05-30T1500,3318A,112.9898,23.7403,清远市,清新太和,,32,27,19,17,11,102,102,80,80,5,9,8,8,0.5,0.4
2026-05-30T1500,3455A,113.076,23.72,清远市,清城东城,,45,NA,17,31,10,111,111,83,83,5,8,/,/,/,/
2026-05-30T1500,2661A,107.6325,35.7357,庆阳市,庆阳五中,,46,33,35,7,11,146,146,121,121,8,13,4,5,0.3,0.4
2026-05-30T1500,2662A,107.6361,35.7067,庆阳市,市环保局,,49,26,32,6,10,154,154,129,129,7,12,4,5,0.4,0.4
2026-05-30T1500,1916A,103.7897,25.5036,曲靖市,环境监测站,,38,21,32,14,18,121,121,100,100,8,20,7,14,0.3,0.6
2026-05-30T1500,1917A,103.8013,25.5357,曲靖市,烟厂办公区,,37,32,31,13,17,118,118,100,100,8,13,6,13,0.5,0.7
2026-05-30T1500,3376A,103.7926,25.4651,曲靖市,南苑二区,,36,21,23,11,16,113,113,99,99,9,14,4,6,0.5,0.7
2026-05-30T1500,3377A,103.7442,25.5259,曲靖市,曲靖师范学院,,46,46,27,17,16,129,129,106,106,9,15,10,8,0.5,0.6
2026-05-30T1500,1264A,118.8694,28.94,衢州市,环保大楼,臭氧1小时(O3_1h),78,36,54,21,34,182,182,139,139,13,15,/,/,/,/
2026-05-30T1500,1266A,118.8622,28.9809,衢州市,衢州学院,臭氧1小时(O3_1h),62,30,53,18,41,169,169,125,125,12,16,8,7,0.5,0.6
2026-05-30T1500,4097A,118.9646,28.9832,衢州市,衢州三中,臭氧1小时(O3_1h),79,31,56,19,36,183,183,135,135,12,16,5,5,0.4,0.5
2026-05-30T1500,1611A,118.5818,24.9116,泉州市,涂山街,臭氧1小时(O3_1h),73,42,41,21,25,178,178,152,152,8,8,4,3,0.6,0.6
2026-05-30T1500,1612A,118.597,24.8976,泉州市,津头埔,臭氧1小时(O3_1h),75,40,44,16,24,180,180,156,156,8,9,3,2,0.5,0.6
2026-05-30T1500,1613A,118.6669,24.9422,泉州市,万安,臭氧1小时(O3_1h),72,44,46,16,24,177,177,156,156,7,8,5,4,0.4,0.5
2026-05-30T1500,4105A,118.6355,24.9148,泉州市,霞新路6号,臭氧1小时(O3_1h),75,37,36,18,19,180,180,165,165,11,12,/,/,0.5,0.6
2026-05-30T1500,2626A,88.8873,29.2723,日喀则市,日喀则监测站,,44,6,10,3,6,138,138,124,124,3,6,4,5,0.5,0.5
2026-05-30T1500,3726A,88.8775,29.2425,日喀则市,林业技术推广中心,,40,8,11,3,2,128,128,115,115,2,3,6,6,0.4,0.3
2026-05-30T1500,1659A,119.4711,35.421,日照市,监测站,臭氧1小时(O3_1h),79,34,40,6,18,183,183,147,147,10,39,10,11,0.5,0.6
2026-05-30T1500,1660A,119.523,35.4216,日照市,市政府广场,臭氧1小时(O3_1h),78,46,47,9,20,182,182,149,149,20,34,8,11,0.7,0.8
2026-05-30T1500,1661A,119.5511,35.4113,日照市,港务局,臭氧1小时(O3_1h),82,83,63,11,19,185,185,NA,NA,22,41,10,13,0.8,1
2026-05-30T1500,3507A,119.5326,35.4627,日照市,职业技术学院,臭氧1小时(O3_1h),84,46,53,9,21,187,187,154,154,19,44,11,12,0.6,0.7
2026-05-30T1500,3604A,119.3267,35.1043,日照市,岚山环保分局,臭氧1小时(O3_1h),65,29,50,3,20,172,172,149,149,13,36,10,19,0.5,1
2026-05-30T1500,1835A,111.1922,34.7752,三门峡市,市政府,,47,32,48,12,16,148,148,90,90,10,26,15,14,0.3,0.3
2026-05-30T1500,1836A,111.1588,34.794,三门峡市,开发区,,45,30,50,9,19,143,143,88,88,11,17,12,10,0.4,0.4
2026-05-30T1500,3039A,111.1911,34.7829,三门峡市,三门峡市第一小学,,47,47,52,3,18,147,147,92,92,12,29,14,13,0.2,0.3
2026-05-30T1500,3598A,111.1031,34.719,三门峡市,富达温泉假日酒店,,47,35,67,9,29,148,148,90,90,14,25,15,15,0.5,0.6
2026-05-30T1500,2324A,117.621,26.2626,三明市,三钢,,37,31,24,23,16,116,116,100,100,6,7,5,6,0.5,0.7
2026-05-30T1500,2325A,117.6352,26.2714,三明市,三明二中,,36,36,24,22,16,112,112,98,97,6,7,5,4,0.6,0.6
2026-05-30T1500,2326A,117.6028,26.2377,三明市,三元区政府,,40,40,24,21,15,112,112,102,102,5,6,4,5,0.6,0.6
2026-05-30T1500,1877A,109.4962,18.2682,三亚市,河西子站,,17,11,21,10,12,54,54,55,55,2,6,3,3,0.5,0.5
2026-05-30T1500,3540A,109.7348,18.3443,三亚市,君悦子站,,16,16,23,3,9,51,51,49,49,3,8,1,2,0.4,0.4
2026-05-30T1500,4135A,109.1714,18.3739,三亚市,城东小学站,,14,14,26,8,13,43,43,45,45,2,6,/,/,/,/
2026-05-30T1500,2624A,91.7592,29.234,山南市,山南监测站,,44,9,7,3,3,140,140,129,129,2,3,7,7,0.2,0.2
2026-05-30T1500,2625A,91.7701,29.2436,山南市,山南人民医院,,45,11,11,3,4,144,144,132,132,2,2,5,5,0.2,0.2
2026-05-30T1500,1674A,116.6795,23.3666,汕头市,金平子站,,50,46,30,16,24,160,160,138,138,5,9,4,4,0.7,0.7
2026-05-30T1500,1675A,116.7248,23.3632,汕头市,龙湖子站,,48,45,33,18,25,152,152,139,139,4,5,7,7,/,/
2026-05-30T1500,1676A,116.7257,23.2774,汕头市,濠江子站,颗粒物(PM10),52,52,37,18,24,141,141,136,136,7,9,8,8,/,/
2026-05-30T1500,1677A,116.7518,23.4712,汕头市,澄海子站,臭氧1小时(O3_1h),65,50,34,18,23,172,172,152,152,6,7,5,5,0.7,0.8
2026-05-30T1500,1678A,116.6088,23.2539,汕头市,潮阳子站,臭氧1小时(O3_1h),60,51,29,18,25,168,168,133,133,5,7,7,7,0.6,0.7
2026-05-30T1500,3444A,116.4539,23.2684,汕头市,潮南峡山,臭氧1小时(O3_1h),90,35,33,22,23,192,192,135,135,9,10,7,6,0.8,0.8
2026-05-30T1500,3624A,116.4069,23.2533,汕头市,潮南子站,臭氧1小时(O3_1h),70,59,37,30,25,176,176,130,130,11,10,7,6,/,/
2026-05-30T1500,1693A,115.3653,22.7751,汕尾市,市环保局,,41,24,26,15,18,131,131,114,114,5,7,5,6,0.6,0.5
2026-05-30T1500,1695A,115.362,22.7926,汕尾市,新城中学,,41,28,22,15,17,131,131,112,112,6,7,6,6,0.6,0.6
2026-05-30T1500,2645A,109.9155,33.8714,商洛市,监测站,,45,13,31,8,14,144,144,37,NA,3,16,6,7,0.4,0.5
2026-05-30T1500,3045A,109.9647,33.8486,商洛市,商州区中学,,46,16,35,6,13,147,147,94,94,4,17,5,6,0.6,0.6
2026-05-30T1500,2408A,115.6701,34.4283,商丘市,环境监测站,臭氧1小时(O3_1h),79,43,46,14,18,183,183,157,157,4,21,5,4,0.4,0.5
