timepoint,stationcode,longitude,latitude,area,positionname,primarypollutant,aqi,pm10,pm10_24h,pm2_5,pm2_5_24h,o3,o3_24h,o3_8h,o3_8h_24h,no2,no2_24h,so2,so2_24h,co,co_24h
2026-05-14T2300,2568A,102.2503,31.8896,阿坝藏族羌族自治州,马师校,,35,35,22,6,9,86,86,105,100,6,8,6,6,0.4,0.3
2026-05-14T2300,3994A,102.2174,31.9016,阿坝藏族羌族自治州,马尔康中学西区,,26,13,16,6,10,83,83,102,98,6,7,5,4,0.3,0.3
2026-05-14T2300,2695A,80.2899,41.1684,阿克苏地区,电视台,颗粒物(PM10),347,457,441,204,167,73,73,79,NA,13,6,3,2,0.7,0.5
2026-05-14T2300,2696A,80.2592,41.1541,阿克苏地区,艺术中心,细颗粒物(PM2.5),257,326,336,207,162,86,86,101,99,12,6,4,4,0.4,0.4
2026-05-14T2300,2205A,105.699,38.8409,阿拉善盟,蒙二幼,颗粒物(PM10),75,84,355,26,125,94,94,98,94,5,7,11,10,0.6,0.5
2026-05-14T2300,2206A,105.7198,38.8508,阿拉善盟,环保局新楼,颗粒物(PM10),95,113,299,30,114,88,88,95,90,3,4,9,9,0.5,0.4
2026-05-14T2300,2708A,88.1266,47.8515,阿勒泰地区,市站,,14,6,12,3,3,43,43,81,68,11,8,5,5,0.3,0.3
2026-05-14T2300,4166A,88.1198,47.7931,阿勒泰地区,阿勒泰路33号,,20,6,13,3,2,62,62,86,74,14,7,5,5,0.2,0.2
2026-05-14T2300,2630A,80.1171,32.4999,阿里地区,阿里监测站,,38,20,19,3,4,119,119,137,136,5,3,8,8,0.3,0.3
2026-05-14T2300,3192A,80.0906,32.5029,阿里地区,阿里藏医院,,38,13,15,10,3,120,120,140,138,1,1,4,5,0.2,0.3
2026-05-14T2300,2644A,109.0088,32.6974,安康市,汉滨区检察院,,41,41,37,22,19,42,42,90,76,14,10,16,11,0.5,0.4
2026-05-14T2300,4054A,109.0324,32.6913,安康市,市邮政管理局,,40,40,35,22,21,42,42,90,71,10,9,6,12,0.5,0.5
2026-05-14T2300,2291A,117.0806,30.5181,安庆市,环科院,,22,22,48,10,35,65,65,110,87,10,17,7,7,0.9,0.6
2026-05-14T2300,2292A,117.0331,30.5118,安庆市,马山宾馆,,21,15,41,8,36,66,66,108,87,7,14,5,5,0.8,0.7
2026-05-14T2300,2294A,116.9897,30.6146,安庆市,安庆大学,,22,16,40,3,30,69,69,111,97,5,10,3,4,0.4,0.6
2026-05-14T2300,3173A,117.0598,30.5351,安庆市,市人大,,20,20,44,11,34,61,61,112,89,10,12,5,6,0.6,0.5
2026-05-14T2300,3123A,105.9408,26.2431,安顺市,凤凰山,细颗粒物(PM2.5),66,45,49,43,33,58,58,105,86,16,12,7,12,0.7,0.6
2026-05-14T2300,3124A,105.9443,26.2567,安顺市,金钟山,细颗粒物(PM2.5),64,43,49,42,34,55,55,94,76,12,10,15,13,0.6,0.6
2026-05-14T2300,3125A,105.8983,26.248,安顺市,娄家坡,细颗粒物(PM2.5),52,44,43,36,36,55,55,97,79,10,9,19,13,0.6,0.7
2026-05-14T2300,1819A,114.3552,36.1017,安阳市,红庙街,细颗粒物(PM2.5),74,66,77,47,51,155,155,172,167,15,17,3,5,0.7,0.7
2026-05-14T2300,1820A,114.361,36.0681,安阳市,银杏小区,细颗粒物(PM2.5),108,80,78,68,59,146,146,174,166,15,25,5,7,0.5,0.5
2026-05-14T2300,3141A,114.3921,36.0879,安阳市,信访局,细颗粒物(PM2.5),92,63,67,56,52,158,158,178,170,10,14,2,2,0.6,0.6
2026-05-14T2300,3669A,114.4706,36.0634,安阳市,左辅环卫站,细颗粒物(PM2.5),86,86,85,53,50,112,112,165,144,25,16,3,3,0.6,0.5
2026-05-14T2300,4117A,114.2918,36.0769,安阳市,钢三路198号,细颗粒物(PM2.5),96,81,76,58,54,122,122,166,149,14,12,1,2,0.6,0.6
2026-05-14T2300,1748A,123.0441,41.1201,鞍山市,深沟寺,,37,18,22,7,10,117,117,142,131,7,7,7,7,0.5,0.5
2026-05-14T2300,1749A,123.011,41.0931,鞍山市,太阳城,,35,17,19,8,12,109,109,134,125,6,7,7,7,0.5,0.5
2026-05-14T2300,1750A,123.0483,41.1445,鞍山市,太平,,34,34,29,13,12,108,108,138,127,11,9,7,7,0.4,0.4
2026-05-14T2300,1751A,122.964,41.0968,鞍山市,铁西三道街,,34,34,36,16,16,102,102,135,118,16,13,5,6,0.6,0.6
2026-05-14T2300,1753A,123.0219,41.0822,鞍山市,明达新区,,37,14,20,7,12,116,116,134,129,9,9,6,7,0.4,0.4
2026-05-14T2300,4201A,122.944647,41.082639,鞍山市,兴盛南路290号,颗粒物(PM10),54,55,38,18,15,88,88,141,121,29,14,8,8,0.6,0.5
2026-05-14T2300,2195A,107.4206,40.7609,巴彦淖尔市,附二中,颗粒物(PM10),111,148,677,52,244,60,60,96,69,5,15,8,8,0.5,0.5
2026-05-14T2300,2196A,107.37,40.7372,巴彦淖尔市,市环保大楼,颗粒物(PM10),105,132,673,50,251,64,64,91,69,5,12,7,7,0.2,0.3
2026-05-14T2300,1956A,86.1476,41.7529,巴音郭楞蒙古自治州,孔雀公园,颗粒物(PM10),59,62,67,27,11,104,104,110,110,8,17,3,3,0.3,0.3
2026-05-14T2300,1957A,86.1971,41.7166,巴音郭楞蒙古自治州,棉纺厂,颗粒物(PM10),121,174,87,32,13,104,104,110,109,10,13,/,/,/,/
2026-05-14T2300,1958A,86.236,41.7172,巴音郭楞蒙古自治州,经济开发区,颗粒物(PM10),54,55,60,29,11,97,97,102,102,8,9,9,8,0.2,0.2
2026-05-14T2300,3181A,106.776805,31.852614,巴中市,市五中,细颗粒物(PM2.5),130,135,40,92,25,24,24,98,76,26,13,6,6,0.9,0.5
2026-05-14T2300,3183A,106.7419,31.8654,巴中市,圣泉水务公司,细颗粒物(PM2.5),141,181,36,105,23,21,21,103,74,37,14,7,7,1.0,0.5
2026-05-14T2300,3616A,106.7617,31.8343,巴中市,市中心医院,细颗粒物(PM2.5),106,99,37,66,24,17,17,105,76,40,16,7,6,0.8,0.5
2026-05-14T2300,2235A,122.7909,45.608,白城市,洮北区环保局,颗粒物(PM10),139,219,99,48,51,73,73,200,165,6,13,4,6,0.2,0.5
2026-05-14T2300,2236A,122.8741,45.5725,白城市,市环保局,颗粒物(PM10),150,249,99,39,36,68,68,177,147,12,24,4,5,0.2,0.5
2026-05-14T2300,2231A,126.4219,41.9172,白山市,喜丰,颗粒物(PM10),53,53,60,30,22,33,33,140,107,51,20,11,10,0.7,0.7
2026-05-14T2300,2232A,126.4082,41.9416,白山市,环保局,,46,46,35,32,21,54,54,135,104,18,13,20,12,0.7,0.7
2026-05-14T2300,2647A,104.1727,36.5448,白银市,第三小学,颗粒物(PM10),69,76,238,42,72,88,88,96,93,7,3,11,6,0.4,0.3
2026-05-14T2300,2648A,104.1467,36.5482,白银市,动力公司,颗粒物(PM10),68,74,210,22,77,68,68,95,91,8,3,6,7,0.3,0.3
2026-05-14T2300,2512A,106.6102,23.901,百色市,市监测站,,44,44,43,23,21,41,41,111,85,15,13,12,10,0.7,0.6
2026-05-14T2300,2513A,106.6524,23.8842,百色市,市中心血站,,47,47,44,24,23,45,45,109,89,20,16,10,10,0.7,0.6
2026-05-14T2300,4133A,106.6273,23.8798,百色市,龙景西路,细颗粒物(PM2.5),62,NA,55,41,23,31,31,113,90,21,16,11,13,0.6,0.5
2026-05-14T2300,2270A,117.396,32.9389,蚌埠市,工人疗养院,,49,49,66,22,46,66,66,116,102,16,16,4,5,0.4,0.5
2026-05-14T2300,2271A,117.3606,32.9428,蚌埠市,百货大楼,,38,38,54,21,47,59,59,114,97,20,19,6,7,0.4,0.6
2026-05-14T2300,2273A,117.4183,32.8909,蚌埠市,蚌埠学院,,39,39,55,25,48,80,80,116,101,10,14,5,6,0.5,0.6
2026-05-14T2300,2274A,117.3534,32.9672,蚌埠市,淮上区政府,,41,41,59,20,44,75,75,120,104,13,16,5,7,0.4,0.6
2026-05-14T2300,2275A,117.3143,32.8977,蚌埠市,高新区,,39,34,54,27,48,71,71,100,89,12,14,6,7,0.4,0.5
2026-05-14T2300,3715A,117.3091,32.9314,蚌埠市,蚌埠田家炳中学,,44,44,58,26,51,62,62,116,102,18,16,5,6,0.4,0.5
2026-05-14T2300,1585A,109.8761,40.6533,包头市,市环境监测站,颗粒物(PM10),100,119,96,27,35,68,68,156,NA,8,41,6,14,0.4,0.7
2026-05-14T2300,1587A,109.9992,40.5843,包头市,包头八中,颗粒物(PM10),84,97,112,25,43,55,55,137,98,12,36,13,16,0.4,0.7
2026-05-14T2300,1589A,109.8641,40.6288,包头市,惠龙物流,颗粒物(PM10),74,83,102,21,42,66,66,136,102,6,32,6,13,0.3,0.6
2026-05-14T2300,1590A,110.0376,40.5546,包头市,东河鸿龙湾,颗粒物(PM10),77,87,99,23,39,57,57,135,98,8,34,12,18,0.3,0.5
2026-05-14T2300,3283A,109.9154,40.5684,包头市,滨河大厦,颗粒物(PM10),75,84,98,24,49,61,61,139,100,11,49,7,11,0.4,0.7
2026-05-14T2300,3419A,109.9449,40.6259,包头市,包头市委党校,颗粒物(PM10),73,81,87,25,37,62,62,138,98,9,35,9,14,0.2,0.6
2026-05-14T2300,3683A,109.8332,40.6577,包头市,昆区政府,颗粒物(PM10),76,86,111,30,43,70,70,132,100,5,30,2,10,0.4,0.7
2026-05-14T2300,1931A,107.0802,34.3129,宝鸡市,竹园沟,NA,NA,NA,26,NA,18,NA,NA,96,NA,NA,7,NA,8,NA,0.4
2026-05-14T2300,1933A,107.1429,34.3549,宝鸡市,监测站,细颗粒物(PM2.5),74,NA,37,47,27,66,66,106,100,16,11,7,6,0.4,0.3
2026-05-14T2300,1934A,107.1172,34.3759,宝鸡市,技工学校,,49,43,36,34,22,80,80,110,103,16,8,5,4,0.8,0.6
2026-05-14T2300,1936A,107.2025,34.3518,宝鸡市,文理学院,细颗粒物(PM2.5),54,50,38,37,23,78,78,108,102,20,13,6,6,0.6,0.5
2026-05-14T2300,1937A,107.2396,34.3626,宝鸡市,三迪小学,细颗粒物(PM2.5),60,49,46,40,27,85,85,109,104,23,17,6,6,0.6,0.5
2026-05-14T2300,4155A,107.1721,34.3558,宝鸡市,滨河北路,颗粒物(PM10),62,66,38,37,21,62,62,104,97,18,10,8,8,0.6,0.5
2026-05-14T2300,4308A,107.3898,34.3601,宝鸡市,陈仓区北开路21号,细颗粒物(PM2.5),70,55,41,45,27,84,84,100,97,8,11,3,24,0.7,0.6
2026-05-14T2300,1051A,115.4803,38.8568,保定市,游泳馆,细颗粒物(PM2.5),86,62,71,53,52,127,127,191,168,24,21,2,5,0.5,0.4
2026-05-14T2300,1052A,115.509,38.8895,保定市,华电二区,细颗粒物(PM2.5),84,91,71,52,47,131,131,186,167,11,12,5,7,0.7,0.6
2026-05-14T2300,1053A,115.4588,38.9037,保定市,接待中心,"颗粒物(PM10),细颗粒物(PM2.5)",68,75,69,44,45,141,141,184,171,11,10,1,2,0.3,0.4
2026-05-14T2300,1054A,115.4484,38.8344,保定市,地表水厂,颗粒物(PM10),84,97,84,46,45,114,114,186,162,20,15,3,3,0.7,0.7
2026-05-14T2300,3581A,115.3136,38.9511,保定市,满城区生态环境分局,细颗粒物(PM2.5),66,51,48,43,40,114,114,197,169,14,12,4,5,0.2,0.2
2026-05-14T2300,3582A,115.4709,38.7628,保定市,清苑区第二中学,颗粒物(PM10),97,115,108,41,37,106,106,176,144,28,23,8,10,0.5,0.5
2026-05-14T2300,3583A,115.6231,39.0223,保定市,徐水物探局,颗粒物(PM10),99,118,100,56,56,105,105,193,163,20,15,3,4,0.6,0.5
2026-05-14T2300,4004A,115.4199,38.8665,保定市,双鹰农机,细颗粒物(PM2.5),102,97,75,62,47,125,125,192,166,16,14,2,2,0.5,0.5
2026-05-14T2300,4034A,115.515,38.8589,保定市,植保所站,细颗粒物(PM2.5),90,82,99,55,51,129,129,195,172,20,22,7,4,0.3,0.2
2026-05-14T2300,2594A,99.1589,25.1137,保山市,市环境监测站,,20,16,20,6,11,62,62,93,83,6,7,7,7,0.2,0.3
2026-05-14T2300,2595A,99.1616,25.1381,保山市,市环保局,,23,16,22,3,15,71,71,96,89,3,5,7,6,0.2,0.2
2026-05-14T2300,1867A,109.1435,21.4085,北海市,海滩公园,,42,42,46,3,17,99,99,88,88,6,5,1,3,0.4,0.5
2026-05-14T2300,1868A,109.0983,21.466,北海市,新市环保局,,35,26,29,24,18,107,107,96,96,6,5,3,2,0.5,0.4
2026-05-14T2300,1869A,109.1775,21.5232,北海市,北海工业园,NA,NA,35,34,20,18,NA,NA,124,87,5,4,1,1,0.6,0.5
2026-05-14T2300,3400A,109.1844,21.4396,北海市,龙潭自来水厂,,35,35,28,15,13,96,96,87,87,3,3,1,2,0.7,0.6
2026-05-14T2300,1001A,116.3611,39.8786,北京市,万寿西宫,细颗粒物(PM2.5),84,96,98,52,59,143,143,212,198,13,17,6,6,0.8,0.9
2026-05-14T2300,1003A,116.4174,39.9289,北京市,东四,细颗粒物(PM2.5),115,115,105,76,72,144,144,209,196,15,18,6,6,0.9,0.9
2026-05-14T2300,1004A,116.4073,39.8858,北京市,天坛,细颗粒物(PM2.5),84,84,91,52,60,135,135,203,190,18,20,3,3,0.9,1
2026-05-14T2300,1005A,116.4622,39.9364,北京市,农展馆,细颗粒物(PM2.5),118,100,98,79,70,138,138,203,192,17,17,6,6,1.0,1
2026-05-14T2300,1006A,116.3399,39.9293,北京市,官园,细颗粒物(PM2.5),100,92,95,60,107,135,135,194,180,18,19,1,2,0.9,0.9
2026-05-14T2300,1007A,116.2879,39.9613,北京市,海淀万柳,细颗粒物(PM2.5),111,112,106,72,68,130,130,182,172,16,21,6,6,0.9,1
2026-05-14T2300,1008A,116.6635,40.1349,北京市,顺义新城,细颗粒物(PM2.5),105,95,97,65,60,119,119,180,163,13,13,4,5,0.8,0.9
2026-05-14T2300,1009A,116.6275,40.327,北京市,怀柔镇,细颗粒物(PM2.5),108,101,103,68,69,138,138,180,166,9,10,5,5,0.6,0.9
2026-05-14T2300,1010A,116.2295,40.217,北京市,昌平镇,细颗粒物(PM2.5),107,106,93,67,61,139,139,199,185,19,18,6,6,0.8,1
2026-05-14T2300,1011A,116.3968,39.982,北京市,奥体中心,细颗粒物(PM2.5),104,103,102,64,64,141,141,194,184,15,19,6,6,0.9,1
2026-05-14T2300,3418A,116.8336,40.4095,北京市,密云新城,细颗粒物(PM2.5),100,102,98,60,61,121,121,178,157,12,15,3,3,0.7,0.9
2026-05-14T2300,3671A,116.0879,39.9725,北京市,门头沟三家店,细颗粒物(PM2.5),112,126,91,73,57,135,135,208,192,23,23,4,5,0.8,0.9
2026-05-14T2300,3672A,116.1507,39.8246,北京市,丰台云岗,细颗粒物(PM2.5),107,118,108,67,65,138,138,214,196,20,23,1,3,0.8,0.9
2026-05-14T2300,3674A,115.9578,39.7602,北京市,房山燕山,颗粒物(PM10),97,115,105,56,69,127,127,201,188,26,22,2,4,0.8,0.8
2026-05-14T2300,3675A,116.4669,39.7734,北京市,大兴旧宫,细颗粒物(PM2.5),88,91,98,54,58,127,127,205,191,17,19,2,3,0.9,1
2026-05-14T2300,3694A,115.9859,40.4562,北京市,延庆石河营,细颗粒物(PM2.5),116,112,106,77,72,164,164,200,198,18,17,2,2,0.8,0.9
2026-05-14T2300,3695A,116.6151,40.3052,北京市,怀柔新城,细颗粒物(PM2.5),110,106,100,70,68,134,134,177,165,11,12,5,6,0.9,1.2
2026-05-14T2300,3696A,116.2542,39.8764,北京市,丰台小屯,细颗粒物(PM2.5),109,109,99,69,63,134,134,196,181,11,15,4,4,0.7,0.8
2026-05-14T2300,3697A,116.8399,40.3843,北京市,密云镇,细颗粒物(PM2.5),98,103,98,59,62,118,118,184,161,14,21,5,5,0.7,0.9
2026-05-14T2300,4057A,115.9423,40.4431,北京市,延庆百泉,细颗粒物(PM2.5),102,108,102,62,68,157,157,202,198,10,12,1,1,0.9,0.9
2026-05-14T2300,4058A,116.6598,39.9164,北京市,通州新华,细颗粒物(PM2.5),90,99,103,55,59,116,116,164,153,8,11,5,6,0.7,0.9
2026-05-14T2300,4182A,116.1942,39.9158,北京市,石景山八角,细颗粒物(PM2.5),102,97,85,62,66,137,137,197,184,19,26,4,7,0.9,1
2026-05-14T2300,4194A,117.078628,40.151726,北京市,平谷新城,细颗粒物(PM2.5),98,100,108,59,69,112,112,169,150,15,13,5,6,0.9,1.1
2026-05-14T2300,1761A,123.8274146,41.31234549,本溪市,大峪,,35,25,33,8,15,110,110,147,135,8,8,6,7,0.4,0.4
2026-05-14T2300,1763A,123.7169,41.3094,本溪市,彩屯,,36,36,36,13,19,113,113,138,126,17,18,12,14,2.5,2.3
2026-05-14T2300,1764A,123.7672166,41.28649327,本溪市,东明,,42,24,55,3,12,134,134,144,141,4,11,6,7,0.5,0.6
2026-05-14T2300,1765A,123.799345,41.266614,本溪市,新立屯,,41,19,41,3,10,131,131,153,144,8,4,8,8,0.4,0.4
2026-05-14T2300,1766A,123.829144,41.336777,本溪市,威宁,NA,NA,36,47,10,17,106,106,146,133,NA,14,7,7,0.5,0.6
2026-05-14T2300,2587A,105.287,27.3133,毕节市,八中,颗粒物(PM10),68,74,66,39,37,73,73,94,83,7,7,8,9,0.6,0.6
2026-05-14T2300,2588A,105.3079,27.2987,毕节市,师专,"颗粒物(PM10),细颗粒物(PM2.5)",60,64,50,40,33,70,70,93,80,7,7,12,13,0.6,0.6
2026-05-14T2300,4263A,105.3688,27.3598,毕节市,工业大道,颗粒物(PM10),60,63,53,37,35,81,81,109,88,6,7,13,12,/,/
2026-05-14T2300,1629A,117.9961,37.3604,滨州市,第二水厂,NA,NA,48,86,25,48,NA,NA,166,131,16,21,6,7,0.5,0.9
2026-05-14T2300,1630A,117.9789,37.3931,滨州市,北中新校,NA,NA,51,74,25,45,79,79,199,138,21,33,NA,16,0.4,0.5
2026-05-14T2300,3514A,117.9379,37.3959,滨州市,中海酒店,,41,41,68,26,46,84,84,213,146,19,28,8,11,0.5,0.6
2026-05-14T2300,3515A,117.9381509,37.35547456,滨州市,开发区一中,,39,39,75,21,51,75,75,190,132,21,26,5,9,0.4,0.7
2026-05-14T2300,3516A,118.0914,37.6938,滨州市,金海六路,,39,39,79,27,50,88,88,194,148,16,22,6,9,0.6,0.8
2026-05-14T2300,4028A,117.9955,37.3752,滨州市,滨州市西街道办事处,,33,31,67,23,50,78,78,187,133,16,23,6,8,0.6,0.8
2026-05-14T2300,2311A,115.8071,33.8399,亳州市,污水处理厂,细颗粒物(PM2.5),62,NA,49,41,44,85,85,159,119,11,11,6,7,0.1,0.2
2026-05-14T2300,2312A,115.7789,33.8519,亳州市,三国揽胜宫,细颗粒物(PM2.5),58,40,61,39,38,80,80,154,114,8,8,6,7,0.2,0.4
2026-05-14T2300,3332A,115.7631,33.803,亳州市,亳州学院,NA,NA,NA,57,35,41,94,94,166,121,7,8,4,5,NA,0.4
2026-05-14T2300,2693A,82.0482,44.8553,博尔塔拉蒙古自治州,市党校,颗粒物(PM10),53,54,41,16,8,96,96,108,107,4,6,2,2,0.5,0.5
2026-05-14T2300,2694A,82.0805,44.8966,博尔塔拉蒙古自治州,市环保局,,42,42,27,7,7,76,76,107,103,8,11,3,3,0.4,0.4
2026-05-14T2300,1071A,116.8733,38.2922,沧州市,沧县城建局,细颗粒物(PM2.5),74,64,68,47,48,122,122,178,162,23,21,6,9,0.3,0.4
2026-05-14T2300,1072A,116.8462,38.3189,沧州市,电视转播站,细颗粒物(PM2.5),66,64,68,43,46,135,135,184,172,18,18,10,11,0.4,0.5
2026-05-14T2300,1073A,116.8588,38.3161,沧州市,市环保局,细颗粒物(PM2.5),74,74,78,47,45,141,141,201,184,20,19,8,10,0.5,0.6
2026-05-14T2300,3324A,116.8011,38.294,沧州市,河北水利电力学院,细颗粒物(PM2.5),76,61,64,48,47,140,140,178,168,16,17,10,12,0.5,0.5
2026-05-14T2300,2622A,97.1813,31.1289,昌都市,昌都监测站,,34,10,10,3,4,106,106,100,100,8,9,9,9,0.6,0.6
2026-05-14T2300,3719A,97.1707,31.1428,昌都市,昌都会议中心,,35,6,7,3,6,111,111,105,105,4,4,9,9,0.4,0.4
2026-05-14T2300,2692A,87.2722,44.0298,昌吉回族自治州,新区政务中心,,27,NA,21,18,14,84,84,114,108,16,18,6,6,0.2,0.5
2026-05-14T2300,3613A,87.3069,44.0093,昌吉回族自治州,亚心广场,,29,22,28,3,9,91,91,118,113,11,18,5,6,0.3,0.4
2026-05-14T2300,4164A,87.2057,43.9289,昌吉回族自治州,财政所,,33,33,33,19,10,63,63,116,108,33,15,12,8,0.4,0.3
2026-05-14T2300,1120A,125.2874,43.9024,长春市,客车厂,颗粒物(PM10),52,52,56,19,30,113,113,165,142,23,18,8,7,0.4,0.5
2026-05-14T2300,1121A,125.2943,43.8508,长春市,邮电学院,颗粒物(PM10),51,51,48,19,34,123,123,173,154,15,14,8,7,0.4,0.5
2026-05-14T2300,1122A,125.3648,43.8745,长春市,劳动公园,,41,41,44,17,27,126,126,171,156,14,13,8,7,0.5,0.6
2026-05-14T2300,1123A,125.3233,43.8781,长春市,园林处,颗粒物(PM10),51,51,48,17,26,129,129,180,162,15,14,4,6,0.4,0.5
2026-05-14T2300,1124A,125.4604,43.7904,长春市,净月潭,,39,39,37,24,23,105,105,173,149,14,10,6,6,0.6,0.5
2026-05-14T2300,1126A,125.38,43.8422,长春市,经开区环卫处,,47,47,47,20,28,129,129,172,155,16,16,7,6,0.4,0.5
2026-05-14T2300,1127A,125.234,43.7761,长春市,高新区管委会,,44,44,44,18,26,103,103,171,144,24,15,7,7,0.4,0.5
2026-05-14T2300,1128A,125.1695,43.83,长春市,岱山公园,,41,41,49,17,28,113,113,179,152,23,20,4,4,0.3,0.4
2026-05-14T2300,4281A,125.334645,43.916281,长春市,北亚泰大街1068号,颗粒物(PM10),53,54,50,21,28,116,116,172,148,27,22,8,6,0.4,0.5
2026-05-14T2300,1335A,113.082,28.2421,长沙市,经开区环保局,,46,37,21,32,13,38,38,83,68,39,17,4,3,0.7,0.6
2026-05-14T2300,1336A,112.8873,28.2202,长沙市,高开区环保局,,38,36,20,26,15,35,35,91,79,37,10,7,6,0.5,0.4
2026-05-14T2300,1337A,113.0785,28.2012,长沙市,马坡岭,,42,38,23,29,17,38,38,87,73,30,16,5,5,0.8,0.7
2026-05-14T2300,1338A,112.9448,28.1894,长沙市,湖南师范大学,,32,25,22,22,15,58,58,94,82,20,13,5,5,0.7,0.6
2026-05-14T2300,1339A,113.0177,28.1322,长沙市,雨花区环保局,,38,35,23,26,16,49,49,92,80,23,11,4,4,0.8,0.7
2026-05-14T2300,1340A,112.9795,28.2593,长沙市,伍家岭,,39,39,25,26,15,50,50,83,74,24,12,4,4,0.7,0.5
2026-05-14T2300,1341A,113.002,28.1944,长沙市,火车新站,,42,34,24,29,16,54,54,86,76,20,9,5,4,0.6,0.5
2026-05-14T2300,1342A,112.9846,28.1177,长沙市,天心区环保局,,42,33,25,29,19,65,65,94,81,21,18,5,5,0.6,0.6
2026-05-14T2300,1343A,112.8906,28.1307,长沙市,湖南中医药大学,,33,32,25,23,16,28,28,94,72,32,15,6,6,0.6,0.6
2026-05-14T2300,1727A,113.1146,36.1547,长治市,清华站,颗粒物(PM10),53,54,51,31,31,107,107,157,138,14,14,10,9,0.7,0.6
2026-05-14T2300,1730A,113.0887,36.2126,长治市,审计局,NA,NA,NA,52,NA,30,NA,NA,160,143,10,11,9,9,0.5,0.7
2026-05-14T2300,1731A,113.0845,36.1856,长治市,长治八中,细颗粒物(PM2.5),58,55,64,39,33,106,106,129,129,14,13,11,11,0.5,0.6
2026-05-14T2300,2845A,113.1561,36.1912,长治市,德盛苑,,48,48,45,24,31,105,105,164,140,10,9,9,9,0.3,0.7
2026-05-14T2300,3568A,113.0603,36.0464,长治市,向阳小学,颗粒物(PM10),78,88,80,35,32,95,95,159,135,25,15,8,8,0.8,0.8
2026-05-14T2300,3569A,112.8788,36.315,长治市,屯留一中,颗粒物(PM10),56,58,48,36,34,99,99,153,130,14,25,9,9,0.6,0.3
2026-05-14T2300,4189A,113.113092,36.199482,长治市,英华南巷50号,细颗粒物(PM2.5),56,57,58,38,31,118,118,162,141,9,11,8,9,0.8,1.1
2026-05-14T2300,4190A,113.23666,36.33435,长治市,学府街1号,颗粒物(PM10),90,105,63,40,30,117,117,152,146,13,15,5,5,0.7,0.7
2026-05-14T2300,1854A,111.696,28.9725,常德市,市二中,,40,31,24,28,21,28,28,93,73,30,7,10,8,1.1,1
2026-05-14T2300,3138A,111.7152,29.0288,常德市,武陵区永安,,32,30,26,22,18,59,59,92,82,9,3,6,6,0.7,0.6
2026-05-14T2300,3139A,111.6891,28.9881,常德市,鼎城区玉霞,NA,NA,NA,22,NA,22,NA,NA,90,NA,NA,5,NA,9,NA,0.9
2026-05-14T2300,3140A,111.6651,29.0526,常德市,武陵区长庚,,39,32,26,27,26,46,46,94,82,20,6,8,8,0.9,0.7
2026-05-14T2300,1196A,119.9524,31.7586,常州市,市监测站,,23,23,31,10,16,65,65,108,92,20,18,10,10,0.8,0.7
2026-05-14T2300,1200A,119.9351,31.703,常州市,武进监测站,,31,31,41,7,14,81,81,121,103,13,17,2,4,0.6,0.7
2026-05-14T2300,3002A,119.9701,31.813,常州市,行政中心,,33,33,34,16,16,35,35,105,81,34,21,5,6,0.2,0.2
2026-05-14T2300,3003A,120.0434,31.7726,常州市,经开区,颗粒物(PM10),63,67,44,17,15,41,41,106,84,36,25,3,3,0.7,0.7
2026-05-14T2300,3010A,119.8919,31.7892,常州市,钟楼,,36,36,38,8,15,82,82,121,105,20,21,8,8,0.3,0.3
2026-05-14T2300,3429A,119.8595,31.706,常州市,武进经发区,,31,31,42,15,17,78,78,116,100,17,23,6,7,0.8,0.9
2026-05-14T2300,3430A,119.5812,31.7256,常州市,金坛城区,,25,23,32,12,20,77,77,116,108,9,17,6,7,0.5,0.7
2026-05-14T2300,4089A,119.9551,31.863,常州市,崇义南街5-H号,,36,36,39,22,17,33,33,111,74,24,15,7,7,0.7,0.6
2026-05-14T2300,2220A,120.4318,41.588,朝阳市,西梁,,43,28,53,23,29,137,137,156,148,10,13,7,8,0.5,0.6
2026-05-14T2300,2221A,120.452,41.565,朝阳市,河畔小区,,46,28,47,23,28,146,146,161,155,9,12,6,7,0.4,0.5
2026-05-14T2300,2222A,120.4176,41.5648,朝阳市,八里堡,,43,35,64,18,32,136,136,158,147,9,13,5,6,0.4,0.6
2026-05-14T2300,3026A,116.6179,23.6608,潮州市,市政府,,16,11,14,7,6,50,50,59,48,2,7,3,3,0.5,0.5
2026-05-14T2300,4036A,116.646,23.676,潮州市,金山,,15,9,12,3,6,46,46,55,46,2,7,2,3,0.4,0.4
2026-05-14T2300,2473A,113.0116,25.8228,郴州市,市职中,NA,NA,38,25,35,20,41,41,79,68,7,7,5,6,NA,0.5
2026-05-14T2300,2475A,113.0381,25.8074,郴州市,市审计局,细颗粒物(PM2.5),56,41,21,38,20,35,35,79,68,19,9,2,4,/,/
2026-05-14T2300,2476A,113.0348,25.7757,郴州市,市环保局,细颗粒物(PM2.5),52,39,22,36,19,39,39,78,66,16,9,5,6,0.6,0.5
2026-05-14T2300,4252A,113.0138,25.8011,郴州市,好美居路49号,,42,34,30,29,15,48,48,74,70,9,8,5,8,/,/
2026-05-14T2300,1431A,103.9727,30.7242,成都市,金泉两河,细颗粒物(PM2.5),74,59,72,47,52,60,60,96,84,25,28,5,7,0.4,0.5
2026-05-14T2300,1432A,104.1423,30.6765,成都市,十里店,颗粒物(PM10),70,78,90,38,59,85,85,107,103,18,27,5,7,0.4,0.6
2026-05-14T2300,1433A,104.0594,30.5765,成都市,三瓦窑,NA,NA,60,79,46,59,NA,NA,104,95,47,34,3,4,0.5,0.4
2026-05-14T2300,1434A,104.1122,30.6306,成都市,沙河铺,,50,47,81,35,57,62,62,93,88,28,41,2,4,0.5,0.5
2026-05-14T2300,2880A,104.0219,30.6561,成都市,大石西路,细颗粒物(PM2.5),68,68,79,44,59,55,55,93,85,31,32,4,6,0.7,0.8
2026-05-14T2300,3136A,104.2724,30.559,成都市,龙泉驿区区政府,细颗粒物(PM2.5),82,66,73,51,55,58,58,110,96,28,27,8,8,0.6,0.6
2026-05-14T2300,3357A,104.0028,30.6891,成都市,金博路,颗粒物(PM10),72,80,68,43,52,50,50,97,89,29,34,5,7,0.7,0.7
2026-05-14T2300,3359A,104.056,30.5228,成都市,华阳,颗粒物(PM10),56,58,71,36,52,81,81,115,103,17,21,2,3,0.4,0.5
2026-05-14T2300,3488A,104.387954,30.746684,成都市,青石路225号,细颗粒物(PM2.5),107,107,92,67,60,29,29,104,89,52,40,6,8,0.8,0.8
2026-05-14T2300,3489A,104.0788,30.4054,成都市,科学城,,48,33,69,33,53,59,59,111,100,29,27,8,7,0.5,0.6
2026-05-14T2300,4011A,103.8505,30.6946,成都市,光华大道三段,颗粒物(PM10),71,79,76,42,54,61,61,92,88,12,21,3,6,0.5,0.6
2026-05-14T2300,4144A,104.3257,30.6406,成都市,八角井街185号,细颗粒物(PM2.5),92,87,85,56,55,38,38,108,94,38,30,6,7,0.9,0.8
2026-05-14T2300,4224A,104.2433276,30.53529463,成都市,鲸龙路1057号,细颗粒物(PM2.5),86,78,81,53,58,62,62,113,103,27,33,7,8,0.6,0.6
2026-05-14T2300,1062A,117.9531,40.908,承德市,铁路,颗粒物(PM10),65,70,101,32,57,128,128,161,157,18,17,5,4,0.6,0.8
2026-05-14T2300,1063A,117.9397,40.9763,承德市,中国银行,细颗粒物(PM2.5),68,65,84,44,56,140,140,165,160,10,13,3,2,0.5,0.8
2026-05-14T2300,4073A,117.9462,40.95,承德市,杏林街1号,颗粒物(PM10),66,72,91,42,59,135,135,162,158,9,10,5,4,0.4,0.7
2026-05-14T2300,4274A,117.7994,40.9605,承德市,滨河大街98号,颗粒物(PM10),59,62,81,36,58,119,119,171,161,10,8,2,3,0.4,0.7
2026-05-14T2300,2314A,117.4698,30.6617,池州市,池州学院,,26,11,50,8,39,82,82,101,94,9,13,3,4,0.5,0.6
2026-05-14T2300,3237A,117.4918,30.6617,池州市,展览馆,,26,9,47,3,34,83,83,108,93,6,9,2,3,0.4,0.5
2026-05-14T2300,3333A,117.5626,30.695,池州市,第八中学,,31,8,43,3,33,97,97,96,92,5,10,3,4,0.3,0.5
2026-05-14T2300,3334A,117.5037,30.6242,池州市,第十二中学,,21,10,45,6,31,67,67,100,87,12,13,2,3,1.1,1.5
2026-05-14T2300,1744A,118.9229,42.2816,赤峰市,松山一中,细颗粒物(PM2.5),66,49,63,43,42,109,109,198,161,32,24,8,10,0.8,0.9
2026-05-14T2300,1745A,118.9588,42.2733,赤峰市,哈达街,细颗粒物(PM2.5),84,60,74,52,44,110,110,192,154,25,28,10,13,0.7,0.7
2026-05-14T2300,1746A,118.8792,42.2551,赤峰市,天义路,细颗粒物(PM2.5),68,44,49,44,43,67,67,176,130,37,24,5,7,0.5,0.5
2026-05-14T2300,3058A,119.2656,42.0356,赤峰市,银河街,细颗粒物(PM2.5),66,66,116,43,56,121,121,204,154,14,16,10,16,0.8,0.9
2026-05-14T2300,3286A,118.9359,42.3146,赤峰市,桥北物流园区,细颗粒物(PM2.5),72,67,63,46,42,92,92,164,130,25,28,3,7,0.9,1
2026-05-14T2300,2521A,107.3473,22.4137,崇左市,市环保局江州分局,颗粒物(PM10),51,51,40,30,23,124,124,121,121,9,10,8,4,0.7,0.6
2026-05-14T2300,4256A,107.375,22.3736,崇左市,石景林东路7号,,45,NA,37,31,21,121,121,116,114,13,11,5,3,0.8,0.6
2026-05-14T2300,3207A,118.31131,32.3033,滁州市,市政府原办公楼,,34,34,48,23,54,89,89,125,121,15,19,7,6,0.6,0.7
2026-05-14T2300,3331A,118.3268,32.2633,滁州市,图书馆,颗粒物(PM10),51,51,64,14,50,82,82,130,119,16,19,10,11,0.6,0.8
2026-05-14T2300,4101A,118.3196,32.3335,滁州市,银山路666号,颗粒物(PM10),52,52,63,24,50,67,67,123,113,34,22,11,10,0.4,0.5
2026-05-14T2300,4102A,118.3426,32.2979,滁州市,黄山路555号,,50,50,72,21,51,82,82,134,126,15,22,10,9,0.8,0.9
2026-05-14T2300,2606A,101.5379,25.0492,楚雄彝族自治州,市经济开发区,,42,42,26,18,15,84,84,91,87,8,12,2,2,0.5,0.5
2026-05-14T2300,4153A,101.5536,25.0343,楚雄彝族自治州,团结路562号,,28,18,16,18,13,87,87,96,93,6,4,2,2,0.3,0.3
2026-05-14T2300,2549A,107.5087,31.2186,达州市,市环境监测站,细颗粒物(PM2.5),68,66,51,44,30,21,21,119,78,52,29,6,8,0.4,0.3
2026-05-14T2300,2550A,107.4988,31.2132,达州市,凤凰小区,细颗粒物(PM2.5),68,68,51,44,29,26,26,118,76,50,28,5,7,0.6,0.5
2026-05-14T2300,2551A,107.5081,31.1987,达州市,达县机关宾馆,细颗粒物(PM2.5),125,NA,57,87,32,4,4,114,61,67,36,5,6,0.6,0.4
2026-05-14T2300,2552A,107.4644,31.2124,达州市,市政中心,细颗粒物(PM2.5),74,73,51,47,27,14,14,124,80,65,29,4,6,0.7,0.4
2026-05-14T2300,2614A,100.2168,25.5818,大理白族自治州,大理市环境监测站,,29,16,18,3,11,91,91,96,95,9,8,4,4,0.4,0.4
2026-05-14T2300,2615A,100.1542,25.7055,大理白族自治州,大理古城,,20,20,20,13,12,63,63,99,86,22,10,8,7,0.6,0.6
2026-05-14T2300,1109A,121.6119,38.974,大连市,甘井子,,37,37,30,3,13,87,87,115,98,8,7,9,9,0.5,0.5
2026-05-14T2300,1110A,121.565,38.9509,大连市,周水子,,36,36,33,17,20,67,67,109,81,23,18,6,7,0.4,0.4
2026-05-14T2300,1111A,121.5637,38.8849,大连市,星海三站,,27,23,25,15,16,86,86,117,102,10,8,3,2,0.4,0.4
2026-05-14T2300,1112A,121.6301,38.9117,大连市,青泥洼桥,,28,28,27,13,15,83,83,117,98,9,8,4,4,0.5,0.5
2026-05-14T2300,1113A,121.6248,38.8643,大连市,傅家庄,,28,16,19,10,12,87,87,113,99,6,5,4,4,0.4,0.4
2026-05-14T2300,1114A,121.5117,38.8636,大连市,七贤岭,,26,26,28,11,16,71,71,103,90,14,12,5,5,0.5,0.4
2026-05-14T2300,1116A,121.7507,39.1339,大连市,金州,,28,26,23,14,13,89,89,120,103,9,6,10,10,0.3,0.3
2026-05-14T2300,1117A,121.7811,39.0495,大连市,开发区,,30,21,21,10,14,95,95,117,102,11,9,6,6,0.4,0.4
2026-05-14T2300,1118A,121.9762,39.0631,大连市,双D港,,30,8,19,6,12,93,93,106,96,4,3,4,4,0.4,0.5
2026-05-14T2300,4082A,121.2548,38.8188,大连市,旅顺,,25,24,25,14,16,80,80,110,98,10,8,7,7,0.4,0.4
2026-05-14T2300,1789A,124.8085,46.0381,大庆市,大同区,颗粒物(PM10),106,135,92,23,38,70,70,178,135,8,15,2,4,0.3,0.6
2026-05-14T2300,1790A,125.1166,46.5255,大庆市,龙凤区,颗粒物(PM10),70,78,82,16,39,67,67,152,110,5,14,5,7,0,0.2
2026-05-14T2300,1791A,124.8894,46.4007,大庆市,红岗区,颗粒物(PM10),76,86,82,14,35,71,71,173,126,5,12,6,8,0.4,0.5
2026-05-14T2300,1792A,125.1391,46.578,大庆市,萨尔图区,颗粒物(PM10),58,61,83,13,33,69,69,161,115,8,17,6,8,0.3,0.6
2026-05-14T2300,1793A,124.9026,46.6217,大庆市,让胡路区,NA,NA,74,77,12,34,67,67,165,113,3,11,NA,5,0.2,0.5
2026-05-14T2300,3481A,125.127,46.6277,大庆市,萨区政府监测点,颗粒物(PM10),68,74,84,13,35,65,65,169,115,2,9,8,10,0.3,0.5
2026-05-14T2300,1723A,113.2926,40.0759,大同市,云冈宾馆,颗粒物(PM10),66,72,69,22,25,140,140,165,144,17,26,7,8,0.3,0.4
2026-05-14T2300,1724A,113.3437,40.0921,大同市,大同大学,颗粒物(PM10),60,63,69,28,27,166,166,169,156,13,26,6,8,0.5,0.5
2026-05-14T2300,1725A,113.2637,40.129,大同市,安家小村,颗粒物(PM10),65,70,77,27,22,155,155,167,150,14,20,8,9,0.5,0.9
2026-05-14T2300,3282A,113.3399,40.0586,大同市,大同市卫生学校,颗粒物(PM10),62,66,62,31,23,158,158,175,155,13,19,7,9,0.6,0.6
2026-05-14T2300,3565A,113.1371,40.1122,大同市,云冈站,颗粒物(PM10),98,117,81,29,26,146,146,159,146,12,25,9,8,0.5,0.6
2026-05-14T2300,3566A,113.1186,40.2556,大同市,图书馆,颗粒物(PM10),80,91,64,31,24,148,148,160,150,15,15,7,8,0.6,0.7
2026-05-14T2300,3567A,113.5931,40.0459,大同市,区一中,,48,42,50,30,20,151,151,144,142,14,11,4,5,0.6,0.5
2026-05-14T2300,4199A,113.2798248,40.09972476,大同市,魏都大道141号,颗粒物(PM10),55,57,72,33,29,140,140,164,144,17,23,6,7,0.5,0.8
2026-05-14T2300,2269A,124.1068,50.4091,大兴安岭地区,科技局,,23,20,39,6,17,73,73,116,68,2,4,5,6,0.2,0.3
2026-05-14T2300,3663A,124.117,50.4279,大兴安岭地区,红旗社区,,25,9,27,3,14,80,80,131,75,2,6,6,7,0.1,0.2
2026-05-14T2300,1600A,124.33,40.0625,丹东市,江湾东路,颗粒物(PM10),54,55,32,36,21,45,45,122,96,27,13,5,6,0.7,0.6
2026-05-14T2300,1601A,124.4242,40.1513,丹东市,临江后街,颗粒物(PM10),100,119,40,48,19,63,63,119,101,18,10,9,9,1.0,0.5
2026-05-14T2300,1602A,124.3935,40.1461,丹东市,元宝山,颗粒物(PM10),58,61,35,36,18,66,66,119,103,27,14,7,8,0.8,0.6
2026-05-14T2300,1603A,124.3634,40.1093,丹东市,民主桥,颗粒物(PM10),61,65,40,38,21,14,14,115,86,62,17,7,8,0.6,0.5
2026-05-14T2300,3541A,109.5726195,19.51688767,儋州市,第一中学子站,,31,31,31,15,14,60,60,81,75,7,6,6,6,0.3,0.4
2026-05-14T2300,3542A,109.5567,19.5187,儋州市,东坡学校子站,,32,32,24,18,15,63,63,90,81,6,5,5,5,0.6,0.6
2026-05-14T2300,2616A,98.5611,24.4273,德宏傣族景颇族自治州,德宏州监测站,,48,34,24,33,25,43,43,89,75,10,10,3,3,0.3,0.2
2026-05-14T2300,3677A,98.5887,24.4366,德宏傣族景颇族自治州,芒市人民政府综合楼,颗粒物(PM10),58,60,47,27,23,48,48,90,79,12,11,4,4,0.5,0.4
2026-05-14T2300,1901A,104.424,31.1209,德阳市,东山公园,细颗粒物(PM2.5),131,111,71,94,57,64,64,91,90,39,28,5,14,0.8,0.7
2026-05-14T2300,1902A,104.3827,31.1318,德阳市,西小区,细颗粒物(PM2.5),122,133,93,84,59,59,59,92,89,37,32,7,10,0.8,0.7
2026-05-14T2300,1904A,104.3553,31.1091,德阳市,耐火材料厂,细颗粒物(PM2.5),130,135,96,93,63,52,52,96,90,41,36,4,7,0.7,0.7
2026-05-14T2300,4145A,104.4144,31.1495,德阳市,市林业局,细颗粒物(PM2.5),122,106,79,84,62,76,76,106,104,35,36,7,15,0.8,0.7
2026-05-14T2300,1622A,116.3034,37.4675,德州市,儿童乐园,颗粒物(PM10),65,70,76,31,47,161,161,207,189,10,14,9,10,0.8,0.9
2026-05-14T2300,1624A,116.2992,37.4449,德州市,监理站,颗粒物(PM10),63,68,74,28,43,162,162,210,194,14,15,12,13,0.6,0.6
2026-05-14T2300,3066A,116.2722,37.438,德州市,九衢泉纯净水厂,细颗粒物(PM2.5),90,92,76,55,46,86,86,199,173,51,27,7,9,1.1,1
2026-05-14T2300,3371A,116.3693,37.44,德州市,开发区人民医院,颗粒物(PM10),68,75,76,36,42,141,141,196,179,20,16,9,10,0.7,0.7
2026-05-14T2300,3511A,116.5687,37.3331,德州市,陵城艺术中心,颗粒物(PM10),65,70,75,28,48,129,129,182,162,13,15,6,9,0.6,0.8
2026-05-14T2300,4292A,116.352738,37.420875,德州市,新河东路,颗粒物(PM10),60,63,70,28,46,135,135,193,175,20,22,10,10,0.7,0.9
2026-05-14T2300,2621A,99.7054,27.8319,迪庆藏族自治州,迪庆州站,,27,14,14,7,6,85,85,99,90,7,8,8,8,0.4,0.5
2026-05-14T2300,3180A,99.7122,27.8129,迪庆藏族自治州,质量技术监督局,,28,13,14,7,6,89,89,109,97,9,8,8,9,0.4,0.4
2026-05-14T2300,4257A,104.6092,35.5962,定西市,将台街,颗粒物(PM10),95,112,244,44,106,103,103,99,99,5,9,4,4,0.2,0.2
2026-05-14T2300,4309A,104.6159,35.5701,定西市,正龙路62号,颗粒物(PM10),109,141,265,43,93,93,93,90,90,8,9,4,4,0.1,0.2
2026-05-14T2300,4071A,114.9883,38.5232,定州市,交通局,颗粒物(PM10),94,111,108,46,48,120,120,191,165,20,15,4,6,0.5,0.6
2026-05-14T2300,4072A,115.0045,38.5136,定州市,第五中学,颗粒物(PM10),89,104,115,47,48,105,105,177,153,25,21,3,4,0.4,0.5
2026-05-14T2300,1390A,113.7943,23.0132,东莞市,东城石井,,43,43,20,25,11,11,11,52,28,42,15,5,5,0.7,0.5
2026-05-14T2300,1391A,113.7384,22.9659,东莞市,南城西平,,47,47,18,29,6,4,4,54,32,52,13,5,4,0.6,0.4
2026-05-14T2300,3319A,113.7283,23.041,东莞市,万江金泰,NA,NA,NA,15,NA,7,NA,NA,50,NA,NA,11,NA,6,NA,0.5
2026-05-14T2300,4129A,113.8666,23.1062,东莞市,裕兴路,,28,28,24,15,8,27,27,52,34,22,16,7,6,0.7,0.6
2026-05-14T2300,4130A,114.0076,22.9739,东莞市,教育路1号,,42,42,27,20,11,12,12,52,26,36,22,6,5,0.6,0.6
2026-05-14T2300,4131A,113.7981,22.8124,东莞市,长怡路1号,NA,NA,54,23,24,7,NA,NA,47,32,36,12,4,3,0.7,0.6
2026-05-14T2300,1666A,118.6612,37.4313,东营市,市环保局,,36,36,54,22,25,103,103,177,138,12,18,2,6,0.4,0.6
2026-05-14T2300,3036A,118.6903,37.4337,东营市,开发区管委会,,30,28,49,21,30,71,71,142,NA,26,24,6,10,0.7,0.8
2026-05-14T2300,3365A,118.5721,37.5654,东营市,垦利区民丰路,,35,34,57,17,33,109,109,200,158,11,18,20,22,0.6,0.8
2026-05-14T2300,3498A,118.5063,37.8606,东营市,河口城区,,39,39,60,24,39,101,101,193,154,8,12,4,8,0.7,0.9
2026-05-14T2300,3646A,118.4979,37.4623,东营市,胜利站,,45,39,59,31,43,91,91,178,NA,12,21,5,8,0.8,1.1
2026-05-14T2300,3734A,118.5753,37.4405,东营市,理想之城,NA,NA,NA,56,36,43,102,102,177,149,12,24,6,12,NA,0.8
2026-05-14T2300,1591A,110.0024,39.8127,鄂尔多斯市,综合楼,颗粒物(PM10),410,510,253,184,79,90,90,136,105,10,24,5,8,0.4,0.5
2026-05-14T2300,1592A,109.9485,39.8259,鄂尔多斯市,巴音孟克林场办事处,颗粒物(PM10),488,588,225,220,91,87,87,148,111,10,14,5,5,0.1,0.2
2026-05-14T2300,1593A,109.7734,39.5987,鄂尔多斯市,康泽苑,颗粒物(PM10),486,586,194,222,75,79,79,145,110,8,14,7,8,0.3,0.3
2026-05-14T2300,1594A,109.8121,39.5987,鄂尔多斯市,华泰汽车城,颗粒物(PM10),486,586,214,212,75,78,78,131,101,6,20,8,8,0.4,0.4
2026-05-14T2300,1595A,109.9734,39.7884,鄂尔多斯市,奥林花园,细颗粒物(PM2.5),159,NA,72,121,55,89,89,136,107,9,28,3,4,0.4,0.4
2026-05-14T2300,2436A,114.894,30.3989,鄂州市,市政府,细颗粒物(PM2.5),72,66,40,46,19,63,63,94,84,24,16,12,9,0.8,0.6
2026-05-14T2300,2437A,114.8986,30.3714,鄂州市,赵家坝,颗粒物(PM10),84,97,39,48,20,56,56,102,90,25,8,10,20,0.8,0.6
2026-05-14T2300,3654A,114.8093,30.4091,鄂州市,精准医疗中心,细颗粒物(PM2.5),52,51,38,36,23,73,73,96,84,18,22,4,5,0.9,0.8
2026-05-14T2300,2454A,109.4978,30.2979,恩施土家族苗族自治州,湖北民院,细颗粒物(PM2.5),52,45,30,36,23,39,39,101,74,9,7,9,8,0.6,0.5
2026-05-14T2300,3549A,109.5061,30.3771,恩施土家族苗族自治州,龙凤新区,,40,35,26,28,21,40,40,92,61,8,7,7,7,0.4,0.4
2026-05-14T2300,2499A,108.3411,21.6159,防城港市,沙万,,44,44,37,27,20,80,80,85,85,14,6,8,8,0.7,0.6
2026-05-14T2300,2500A,108.3515,21.7733,防城港市,防城档案局,,41,41,33,22,18,97,97,99,99,4,4,6,6,0.6,0.6
2026-05-14T2300,2501A,108.3506,21.6414,防城港市,大海花园,NA,NA,45,37,22,22,NA,NA,100,100,8,6,7,7,0.6,0.5
2026-05-14T2300,1371A,113.1293,23.0065,佛山市,湾梁,,29,29,21,16,11,9,9,57,40,34,17,/,/,/,/
2026-05-14T2300,1372A,113.1082,23.0477,佛山市,华材职中,,29,29,17,17,12,18,18,59,47,22,11,5,5,0.4,0.4
2026-05-14T2300,1373A,113.1439,23.045,佛山市,南海气象局,NA,NA,28,24,16,11,NA,NA,58,NA,20,12,/,/,/,/
2026-05-14T2300,1374A,113.2879,22.8094,佛山市,顺德苏岗,,15,10,9,10,10,18,18,53,36,20,9,/,/,0.4,0.4
2026-05-14T2300,1376A,112.8384,22.8678,佛山市,高明孔堂,,28,28,17,10,6,25,25,58,47,14,7,/,/,/,/
2026-05-14T2300,1377A,112.8835,23.1584,佛山市,三水监测站,,32,29,17,22,12,6,6,52,35,53,27,5,5,0.6,0.5
2026-05-14T2300,1378A,112.8668,23.185,佛山市,三水云东海,颗粒物(PM10),52,52,40,14,12,2,2,57,36,26,21,/,/,/,/
2026-05-14T2300,3625A,113.2568,22.7629,佛山市,容桂街道办,,18,17,12,12,11,22,22,47,36,20,15,/,/,/,/
2026-05-14T2300,1282A,119.2681,26.0506,福州市,师大,,24,6,16,3,11,76,76,77,76,10,15,3,3,0.4,0.5
2026-05-14T2300,1283A,119.2983,26.1028,福州市,五四北路,,21,6,17,3,10,67,67,72,70,15,19,4,4,0.3,0.4
2026-05-14T2300,1284A,119.2648,26.0769,福州市,杨桥西路,,23,6,16,3,10,73,73,75,73,10,17,3,3,/,/
2026-05-14T2300,3048A,119.5799,26.0937,福州市,九龙,,30,6,16,3,6,96,96,96,96,6,9,5,5,0.1,0.3
2026-05-14T2300,3526A,119.5188,25.9666,福州市,吴航,,29,6,17,3,13,92,92,83,83,8,13,6,6,0.4,0.5
2026-05-14T2300,4104A,119.3106,26.0648,福州市,路通桥巷6号,,22,6,18,3,14,68,68,76,72,12,16,/,/,/,/
2026-05-14T2300,1755A,123.7974,41.8494,抚顺市,望花区,,47,47,54,18,21,104,104,159,127,24,26,11,8,1.0,0.6
2026-05-14T2300,1756A,123.9161,41.8827,抚顺市,顺城区,,49,48,39,34,17,60,60,165,137,50,23,11,11,1.1,0.6
2026-05-14T2300,1757A,124.0437,41.8615,抚顺市,东洲区,,38,26,39,12,16,120,120,161,144,10,11,9,12,0.5,0.6
2026-05-14T2300,1758A,123.9246,41.8638,抚顺市,新抚区,,42,42,48,20,18,72,72,171,142,33,19,7,8,0.6,0.6
2026-05-14T2300,1759A,124.0972,41.8961,抚顺市,大伙房水库,,35,21,50,12,19,109,109,169,148,7,9,9,9,0.3,0.4
2026-05-14T2300,1760A,123.708,41.8386,抚顺市,沈抚新城,,40,29,45,6,15,125,125,159,142,12,21,9,10,0.4,0.6
2026-05-14T2300,2377A,116.3544,27.9833,抚州市,市站,,38,35,22,26,12,41,41,57,49,11,8,8,7,0.9,0.8
2026-05-14T2300,2378A,116.3562,27.9631,抚州市,血防站,,46,40,25,32,14,44,44,56,53,12,9,7,6,0.7,0.6
2026-05-14T2300,2379A,116.3561,28.0007,抚州市,采茶剧团,,42,38,25,29,15,39,39,54,49,14,9,12,13,0.7,0.7
2026-05-14T2300,2380A,116.3854,27.9648,抚州市,医学分院,,42,42,26,26,12,46,46,61,58,9,7,9,6,1.2,1.1
2026-05-14T2300,2207A,121.6095,41.9978,阜新市,工业园区,,41,41,54,16,18,115,115,145,131,11,14,10,14,0.4,0.5
2026-05-14T2300,2208A,121.6567,42.0188,阜新市,长青街,,45,45,49,17,20,118,118,144,131,10,14,9,17,0.4,0.5
2026-05-14T2300,2209A,121.6672,42.07,阜新市,农业园区,颗粒物(PM10),53,53,54,19,17,121,121,149,136,11,13,7,11,0.5,0.5
2026-05-14T2300,2211A,121.6343,42.0455,阜新市,玉龙新城,颗粒物(PM10),56,58,57,16,17,115,115,143,130,11,14,8,11,0.4,0.5
2026-05-14T2300,2301A,115.8276,32.8929,阜阳市,市监测站,细颗粒物(PM2.5),94,71,76,57,52,72,72,160,112,12,18,6,8,0.3,0.4
2026-05-14T2300,2303A,115.8551,32.8606,阜阳市,开发区,细颗粒物(PM2.5),113,79,78,74,53,66,66,153,105,14,13,4,6,0.6,0.7
2026-05-14T2300,2875A,115.783962,32.889217,阜阳市,阜阳职业技术学院,细颗粒物(PM2.5),104,NA,68,64,81,81,81,163,121,8,11,6,7,0.5,0.6
2026-05-14T2300,3468A,115.79,32.8614,阜阳市,市规划展馆,细颗粒物(PM2.5),108,NA,66,68,53,NA,NA,162,130,13,11,8,9,0.6,0.9
2026-05-14T2300,3469A,115.835101,32.918568,阜阳市,枣园社区,细颗粒物(PM2.5),92,65,75,56,54,69,69,157,107,15,19,6,8,0.4,0.6
2026-05-14T2300,2669A,102.9097,34.9841,甘南藏族自治州,州政府,细颗粒物(PM2.5),82,89,76,51,37,61,61,78,65,7,7,4,6,0.3,0.3
2026-05-14T2300,3380A,102.8915,34.9618,甘南藏族自治州,甘肃民族师范学院,细颗粒物(PM2.5),98,98,86,59,33,74,74,92,82,13,15,1,6,0.2,0.2
2026-05-14T2300,2570A,101.96,30.048,甘孜藏族自治州,水桥子,,21,6,19,3,9,66,66,93,83,13,17,6,7,0.4,0.4
2026-05-14T2300,3065A,101.9534,29.9976,甘孜藏族自治州,州环保局,,26,13,19,6,9,81,81,87,81,13,22,4,6,0.2,0.4
2026-05-14T2300,2363A,114.9368,25.8663,赣州市,地委,,29,29,19,12,8,27,27,88,64,16,8,3,3,0.9,1
2026-05-14T2300,2364A,114.946,25.8483,赣州市,气象台,,30,30,20,14,11,35,35,84,64,18,10,3,3,0.4,0.5
2026-05-14T2300,2365A,114.932,25.8332,赣州市,市图书馆,,26,24,14,18,10,51,51,88,71,16,10,4,3,0.6,0.6
2026-05-14T2300,2366A,114.8905,25.8472,赣州市,华坚鞋城,,33,33,22,14,10,52,52,90,68,14,10,6,6,0.4,0.4
2026-05-14T2300,3109A,115.0094,25.8614,赣州市,赣县区卫计委,,30,30,16,7,7,32,32,96,72,24,11,2,2,0.7,0.7
2026-05-14T2300,2684A,106.2753,36.0057,固原市,监测站,颗粒物(PM10),188,326,288,96,90,82,82,95,93,9,14,7,7,0.4,0.4
2026-05-14T2300,2685A,106.2384,36.0189,固原市,新区,颗粒物(PM10),186,322,277,97,92,83,83,93,92,8,16,6,6,0.4,0.4
2026-05-14T2300,2544A,106.6307,30.4577,广安市,市委,细颗粒物(PM2.5),110,70,49,70,44,79,79,123,114,27,14,8,8,0.7,0.5
2026-05-14T2300,2545A,106.6266,30.4662,广安市,友谊中学,细颗粒物(PM2.5),92,67,46,56,37,71,71,116,109,34,13,9,8,0.6,0.5
2026-05-14T2300,2547A,106.6386,30.4551,广安市,广电花园,细颗粒物(PM2.5),102,68,49,62,45,79,79,115,110,25,15,7,7,0.6,0.5
2026-05-14T2300,2902A,106.6347,30.4868,广安市,北辰小学,细颗粒物(PM2.5),109,82,55,69,46,81,81,121,115,24,12,7,7,0.6,0.5
2026-05-14T2300,2524A,105.8211,32.4444,广元市,老城,颗粒物(PM10),63,68,31,38,14,37,37,100,80,36,16,2,2,0.7,0.6
2026-05-14T2300,2526A,105.8629,32.429,广元市,监测站,颗粒物(PM10),62,66,38,39,17,52,52,97,80,17,15,5,4,0.6,0.5
2026-05-14T2300,3617A,105.8047,32.4167,广元市,经开区,细颗粒物(PM2.5),68,64,32,44,21,33,33,92,78,40,20,4,4,0.6,0.5
2026-05-14T2300,1345A,113.2346,23.1423,广州市,广雅中学,,25,25,19,14,11,17,17,57,41,20,10,1,3,0.6,0.7
2026-05-14T2300,1346A,113.2611,23.105,广州市,市五中,,25,25,19,14,11,15,15,73,50,31,17,3,4,/,/
2026-05-14T2300,1348A,113.3477,23.0916,广州市,广东商学院,,20,13,15,7,6,18,18,72,48,39,23,4,4,0.5,0.4
2026-05-14T2300,1349A,113.4332,23.105,广州市,市八十六中,,27,27,15,15,8,6,6,60,34,47,27,7,6,/,/
2026-05-14T2300,1350A,113.3506,22.9488,广州市,番禺中学,,20,20,18,10,10,12,12,63,41,30,12,3,4,0.6,0.6
2026-05-14T2300,1351A,113.2147,23.3918,广州市,花都师范,NA,NA,22,20,14,10,15,15,61,33,NA,24,7,6,0.8,0.8
2026-05-14T2300,1352A,113.2599,23.1329,广州市,市监测站,,24,24,21,12,9,15,15,65,46,24,12,3,3,/,/
2026-05-14T2300,1353A,113.5618,23.3119,广州市,九龙镇镇龙,,13,10,18,3,7,39,39,59,44,12,19,6,6,0.4,0.4
2026-05-14T2300,1354A,113.2764,23.1544,广州市,麓湖,,20,20,19,13,10,21,21,71,54,23,13,6,7,0.6,0.6
2026-05-14T2300,2846A,113.3209,23.1323,广州市,体育西,,22,22,21,11,9,11,11,68,45,35,19,5,5,0.6,0.6
2026-05-14T2300,3298A,113.5718,23.5493,广州市,从化街口,,15,15,16,7,8,32,32,65,52,18,14,5,5,0.6,0.6
2026-05-14T2300,3299A,113.3463,23.369,广州市,白云竹料,,22,22,24,12,12,22,22,57,33,24,20,3,3,0.6,0.6
2026-05-14T2300,3300A,113.2981,23.2365,广州市,白云嘉禾,,33,33,25,15,11,0,0,62,27,43,25,6,6,/,/
2026-05-14T2300,3301A,113.4256,23.1716,广州市,黄埔科学城,,45,45,22,23,10,1,1,45,24,35,21,6,6,0.8,0.6
2026-05-14T2300,3302A,113.3942,23.0485,广州市,番禺大学城,,23,23,22,9,6,9,9,72,50,40,21,6,6,0.3,0.5
2026-05-14T2300,3303A,113.4923,22.8169,广州市,南沙黄阁,,20,20,18,9,8,15,15,47,34,32,16,6,6,/,/
2026-05-14T2300,3304A,113.534,22.7893,广州市,南沙街,,18,18,19,9,7,26,26,44,30,28,14,7,6,0.4,0.4
2026-05-14T2300,3443A,113.2905,23.5541,广州市,花都梯面,,22,22,23,10,9,11,11,59,39,15,17,9,9,/,/
2026-05-14T2300,3445A,113.786,23.7479,广州市,从化良口,,13,13,15,3,8,18,18,58,44,18,13,4,4,/,/
2026-05-14T2300,3446A,113.805,23.2614,广州市,增城荔城,,13,9,12,3,5,41,41,62,51,6,9,6,6,0.4,0.4
2026-05-14T2300,2506A,109.604387,23.066791,贵港市,江南子站,,27,27,36,16,20,62,62,98,85,10,13,3,4,0.5,0.6
2026-05-14T2300,2508A,109.5669,23.1065,贵港市,荷城子站,,31,31,31,14,18,61,61,90,79,18,14,4,5,0.6,0.6
2026-05-14T2300,3405A,109.5886,23.1172,贵港市,新世纪学校,,28,24,32,19,19,62,62,96,81,15,15,/,/,0.5,0.5
2026-05-14T2300,4260A,109.5933,23.095,贵港市,中山路155-3号,NA,NA,24,37,NA,29,62,62,109,92,13,13,/,/,0.5,0.5
2026-05-14T2300,1439A,106.6863,26.6035,贵阳市,马鞍山,,40,34,35,28,25,26,26,70,41,11,12,3,4,/,/
2026-05-14T2300,1441A,106.6241,26.6266,贵阳市,鉴湖路,,46,46,49,22,27,43,43,90,63,9,12,6,7,0.6,0.8
2026-05-14T2300,1442A,106.7468,26.6344,贵阳市,燕子冲,,39,34,47,27,27,40,40,75,54,8,9,6,10,0.6,0.6
2026-05-14T2300,1443A,106.6556,26.4362,贵阳市,碧云窝,,29,29,50,15,26,71,71,93,77,10,10,5,6,/,/
2026-05-14T2300,1445A,106.6963,26.6063,贵阳市,红边门,,43,41,41,30,29,41,41,80,57,10,11,4,6,/,/
2026-05-14T2300,1446A,106.7162383,26.56964667,贵阳市,新华路,,48,48,52,33,29,49,49,92,66,10,10,12,59,0.4,0.4
2026-05-14T2300,1447A,106.6742,26.542,贵阳市,太慈桥,,35,34,41,24,32,48,48,85,64,10,13,3,4,/,/
2026-05-14T2300,4230A,106.688212,26.56952,贵阳市,花果园大街66号,,46,NA,31,32,30,43,43,90,65,8,10,3,4,/,/
2026-05-14T2300,4231A,106.687268,26.516892,贵阳市,漓江路57号,,26,24,37,18,29,48,48,79,60,11,11,4,5,0.7,0.7
2026-05-14T2300,1864A,110.3091,25.2705,桂林市,龙隐路小学,,33,31,19,23,11,54,54,104,86,8,7,4,3,0.6,0.5
2026-05-14T2300,1865A,110.2849361,25.22909545,桂林市,八中,,28,22,19,19,7,60,60,105,83,10,12,3,3,0.7,0.6
2026-05-14T2300,3531A,110.296,25.1254,桂林市,旅游学院,,29,26,18,20,7,66,66,97,83,1,4,7,6,0.3,0.2
2026-05-14T2300,4222A,110.1835,25.2444,桂林市,环湖路276号,,40,29,15,28,11,55,55,104,84,8,7,3,4,0.4,0.3
2026-05-14T2300,4301A,110.2803,25.2773,桂林市,信义路13号,细颗粒物(PM2.5),64,NA,21,42,13,56,56,97,80,8,7,4,4,0.7,0.6
2026-05-14T2300,2674A,100.2262,34.4854,果洛藏族自治州,玛沁县大武镇,,40,40,44,18,18,88,88,93,87,1,2,20,21,0.3,0.3
2026-05-14T2300,1130A,126.5557,45.8109,哈尔滨市,松北商大,颗粒物(PM10),63,68,57,41,42,86,86,178,144,17,18,6,6,0.5,0.6
2026-05-14T2300,1132A,126.6162,45.719,哈尔滨市,南岗学府路,颗粒物(PM10),65,71,63,29,32,145,145,183,169,15,15,2,3,0.9,0.9
2026-05-14T2300,1133A,126.6894,45.7733,哈尔滨市,太平宏伟公园,NA,NA,NA,68,NA,31,NA,NA,172,NA,NA,11,NA,8,NA,0.4
2026-05-14T2300,1134A,126.6361,45.7672,哈尔滨市,道外承德广场,颗粒物(PM10),84,97,82,39,32,111,111,168,145,27,26,2,3,0.7,0.8
2026-05-14T2300,1136A,126.644,45.7261,哈尔滨市,动力和平路,颗粒物(PM10),66,72,66,28,33,141,141,175,162,15,16,7,8,0.6,0.6
2026-05-14T2300,1137A,126.5933,45.7479,哈尔滨市,道里建国路,细颗粒物(PM2.5),54,48,51,37,35,115,115,174,151,26,24,5,6,0.4,0.8
2026-05-14T2300,1138A,126.6127,45.6119,哈尔滨市,平房东轻厂,NA,NA,NA,47,NA,31,118,118,192,NA,NA,14,9,22,NA,0.7
2026-05-14T2300,1139A,126.5875,45.9827,哈尔滨市,呼兰师专,颗粒物(PM10),110,145,65,27,29,50,50,167,134,13,19,5,10,0.2,0.4
2026-05-14T2300,1140A,126.6299,45.6799,哈尔滨市,省农科院,颗粒物(PM10),68,75,87,33,38,108,108,166,136,27,25,12,8,0.6,0.6
2026-05-14T2300,4282A,126.6769,45.7379,哈尔滨市,华山路1号,颗粒物(PM10),60,63,58,33,35,143,143,177,164,17,17,8,8,0.3,0.3
2026-05-14T2300,4283A,126.9717,45.5356,哈尔滨市,解放大街52号,颗粒物(PM10),58,60,59,24,23,135,135,191,172,22,13,4,4,0.6,0.6
2026-05-14T2300,2688A,93.5124,42.8176,哈密市,地区监测站,,42,32,18,29,9,40,40,111,96,55,9,4,5,0.4,0.2
2026-05-14T2300,2689A,93.5014,42.8312,哈密市,哈密师范学校,细颗粒物(PM2.5),62,55,32,41,19,48,48,114,96,35,9,7,3,0.4,0.2
2026-05-14T2300,2671A,100.9016,36.9464,海北藏族自治州,海晏县西海镇,,34,27,64,12,33,106,106,106,91,1,2,10,10,0.3,0.4
2026-05-14T2300,3867A,102.074,36.5056,海东市,平安区公安局北苑,细颗粒物(PM2.5),134,196,158,97,77,99,99,105,103,10,11,14,12,0.5,0.5
2026-05-14T2300,4163A,102.0984,36.5119,海东市,滨河路,细颗粒物(PM2.5),135,203,177,98,66,78,78,81,76,16,20,13,11,0.5,0.6
2026-05-14T2300,1410A,110.3189,20.0596,海口市,海南大学,,24,24,27,10,16,64,64,115,96,8,8,5,5,0.4,0.4
2026-05-14T2300,1411A,110.2827,20.0051,海口市,秀英海南医院,,19,14,23,10,18,60,60,107,83,9,10,6,6,0.3,0.3
2026-05-14T2300,1412A,110.3391,19.9979,海口市,海南师范大学,,21,21,28,9,16,55,55,107,84,9,8,3,3,0.4,0.4
2026-05-14T2300,1413A,110.3303,20.0359,海口市,龙华路环保局宿舍,,22,22,27,10,17,62,62,116,92,8,9,/,/,0.3,0.3
2026-05-14T2300,3539A,110.5111,19.9737,海口市,桂林洋子站,,20,20,27,9,14,44,44,90,72,9,9,/,/,/,/
2026-05-14T2300,4134A,110.1952,20.0451,海口市,长滨二路9号,,19,18,28,11,17,60,60,111,91,11,8,/,/,/,/
2026-05-14T2300,2673A,100.6158,36.2985,海南藏族自治州,共和县恰卜恰镇,,44,44,38,22,21,85,85,102,95,6,3,10,10,0.3,0.3
2026-05-14T2300,2676A,97.373,37.376,海西蒙古族藏族自治州,德令哈市,,37,31,120,7,39,117,117,121,121,1,3,17,16,0.3,0.3
2026-05-14T2300,1049A,114.492,36.5712,邯郸市,矿院,细颗粒物(PM2.5),94,66,69,57,52,148,148,187,172,7,8,2,3,0.6,0.6
2026-05-14T2300,1050A,114.4839,36.6136,邯郸市,丛台公园,细颗粒物(PM2.5),84,75,68,52,50,151,151,180,172,10,8,4,7,0.7,0.6
2026-05-14T2300,3458A,114.7893,36.5592,邯郸市,香泉濮院小区,细颗粒物(PM2.5),100,95,79,60,49,128,128,175,161,21,13,1,2,0.6,0.5
2026-05-14T2300,3580A,114.1998,36.4439,邯郸市,峰峰矿区临水派出所,细颗粒物(PM2.5),80,72,57,50,39,138,138,177,159,7,5,3,2,0.6,0.6
2026-05-14T2300,4068A,114.5209,36.7697,邯郸市,建安街268号,颗粒物(PM10),78,88,79,45,42,135,135,175,153,23,20,1,3,0.4,0.5
2026-05-14T2300,4069A,114.5488,36.6177,邯郸市,丛台东路558号,细颗粒物(PM2.5),103,67,72,63,55,141,141,181,169,10,11,4,5,0.4,0.4
2026-05-14T2300,2635A,107.0155,33.0707,汉中市,市监测站,细颗粒物(PM2.5),56,50,35,38,23,50,50,108,87,12,11,5,6,0.6,0.6
2026-05-14T2300,2636A,107.0083,33.114,汉中市,鑫源开发区,细颗粒物(PM2.5),96,NA,36,58,21,23,23,107,85,22,14,6,7,0.8,0.8
2026-05-14T2300,2637A,107.0072,33.0323,汉中市,南郑大河坎水厂,,48,48,33,31,21,48,48,102,78,14,13,4,6,0.5,0.5
2026-05-14T2300,1223A,120.2073,30.2111,杭州市,滨江,,31,31,29,16,15,72,72,79,68,14,17,9,8,0.5,0.5
2026-05-14T2300,1224A,120.0625,30.2737,杭州市,西溪,,23,23,27,11,15,40,40,77,53,15,17,4,4,0.6,0.9
2026-05-14T2300,1226A,120.3417,30.315,杭州市,下沙,颗粒物(PM10),64,69,38,30,16,34,34,76,62,26,21,4,5,0.6,0.6
2026-05-14T2300,1227A,120.1252,30.2465,杭州市,卧龙桥,,29,29,24,14,17,27,27,79,48,19,16,8,8,0.3,0.3
2026-05-14T2300,1228A,120.1902,30.2691,杭州市,浙江农大,,34,34,25,21,15,52,52,82,65,28,19,6,6,0.3,0.2
2026-05-14T2300,1230A,120.1195,30.3121,杭州市,和睦小学,,31,31,26,16,16,64,64,78,70,20,20,8,8,0.4,0.4
2026-05-14T2300,1231A,120.3076,30.4146,杭州市,临平镇,颗粒物(PM10),55,56,35,29,18,50,50,91,73,17,17,6,7,0.5,0.5
2026-05-14T2300,1232A,120.2753,30.1839,杭州市,城厢镇,,30,30,26,17,12,60,60,78,65,20,15,9,7,0.6,0.6
2026-05-14T2300,1233A,120.0883,30.1808,杭州市,云栖,,24,24,27,10,19,20,20,67,54,18,26,7,7,0.6,0.7
2026-05-14T2300,3557A,119.9463,30.0496,杭州市,镇二中,,19,14,25,11,21,60,60,79,72,17,20,4,5,0.7,0.7
2026-05-14T2300,3558A,119.7184,30.2367,杭州市,市府大楼,,15,13,26,8,21,47,47,81,62,18,18,6,7,0.4,0.5
2026-05-14T2300,3656A,120.1554,30.2863,杭州市,消防大队,NA,NA,52,35,20,16,60,60,76,66,26,21,NA,6,0.4,0.5
2026-05-14T2300,1270A,117.1957,31.7845,合肥市,明珠广场,颗粒物(PM10),55,56,63,23,45,87,87,146,130,21,21,9,9,0.6,0.8
2026-05-14T2300,1271A,117.307,31.8765,合肥市,三里街,,39,39,63,17,50,89,89,122,114,20,27,7,7,0.5,0.8
2026-05-14T2300,1272A,117.2587,31.8703,合肥市,琥珀山庄,,44,44,56,16,43,98,98,134,126,16,20,6,7,0.5,0.8
2026-05-14T2300,1275A,117.2593,31.9376,合肥市,庐阳区,,41,41,63,18,50,93,93,133,124,22,24,8,9,0.6,0.9
2026-05-14T2300,1276A,117.345251,31.861615,合肥市,瑶海区,,44,44,68,16,43,85,85,136,125,30,27,8,8,0.6,0.8
2026-05-14T2300,1277A,117.3033,31.7967,合肥市,包河区,颗粒物(PM10),53,53,69,22,42,56,56,130,116,66,47,10,11,0.7,0.8
2026-05-14T2300,1278A,117.278,31.7392,合肥市,滨湖新区,颗粒物(PM10),51,51,63,15,41,92,92,143,131,12,15,9,9,0.5,0.8
2026-05-14T2300,1279A,117.1324,31.8395,合肥市,高新区,,48,48,63,18,42,100,100,147,135,16,21,7,8,0.5,0.6
2026-05-14T2300,3464A,117.3802,31.9148,合肥市,高教基地,颗粒物(PM10),51,51,68,23,42,77,77,124,114,21,22,9,10,0.4,0.7
2026-05-14T2300,4098A,117.2518,31.8404,合肥市,中国科学技术大学,,46,46,62,17,42,100,100,149,137,20,18,9,9,0.6,0.8
2026-05-14T2300,3614A,79.9241,37.0878,和田地区,地区环保局,颗粒物(PM10),272,400,821,119,190,88,88,102,101,12,4,1,2,0.5,0.4
2026-05-14T2300,3615A,79.9132,37.1137,和田地区,市环保局,颗粒物(PM10),232,372,696,127,214,100,100,114,113,10,4,1,2,0.5,0.3
2026-05-14T2300,2517A,108.0496,24.6957,河池市,市环保站,,39,35,38,27,20,59,59,101,90,13,13,6,7,0.7,0.7
2026-05-14T2300,4302A,108.0901,24.6945,河池市,上任中路54号,,50,50,44,31,22,39,39,103,82,30,20,6,8,0.8,0.7
2026-05-14T2300,1697A,114.6962,23.7538,河源市,东埔,,13,13,13,7,8,27,27,53,47,22,13,6,4,0.6,0.5
2026-05-14T2300,1698A,114.6895,23.7232,河源市,老城,,22,20,18,15,7,26,26,53,46,21,15,3,2,0.6,0.5
2026-05-14T2300,3374A,115.5562,35.089,菏泽市,定陶老年大学,颗粒物(PM10),60,63,64,36,46,138,138,211,189,22,17,6,6,0.6,0.6
2026-05-14T2300,4114A,115.4239,35.2593,菏泽市,黄河路600号,细颗粒物(PM2.5),62,49,54,41,50,154,154,198,186,10,11,3,2,0.5,0.6
2026-05-14T2300,4115A,115.5025,35.2727,菏泽市,菏泽市人社局,颗粒物(PM10),55,57,71,35,50,134,134,176,162,14,19,8,8,0.6,0.7
2026-05-14T2300,4184A,115.479691,35.244011,菏泽市,永昌路1号,细颗粒物(PM2.5),62,63,81,41,50,149,149,205,190,13,14,9,8,0.4,0.3
2026-05-14T2300,4193A,115.471542,35.280012,菏泽市,长城路999号,细颗粒物(PM2.5),56,51,51,38,48,150,150,200,186,12,12,8,5,0.5,0.6
2026-05-14T2300,2514A,111.5264,24.4178,贺州市,环保小区,,38,38,35,23,24,47,47,108,89,16,16,8,7,0.5,0.5
2026-05-14T2300,2515A,111.561,24.4074,贺州市,政协大楼,,34,34,28,23,23,52,52,113,91,21,19,14,11,0.6,0.6
2026-05-14T2300,3534A,111.4744,24.455,贺州市,西湾,颗粒物(PM10),60,63,42,24,21,15,15,86,62,30,16,5,5,0.7,0.6
2026-05-14T2300,2385A,114.17,35.9019,鹤壁市,市监测站,细颗粒物(PM2.5),111,91,68,72,58,107,107,173,149,20,14,5,5,0.9,0.8
2026-05-14T2300,2386A,114.2953,35.7512,鹤壁市,市交警支队,细颗粒物(PM2.5),102,88,79,62,55,119,119,167,151,23,21,5,6,0.8,0.9
2026-05-14T2300,2387A,114.2877,35.7302,鹤壁市,迎宾馆,细颗粒物(PM2.5),101,84,86,61,58,126,126,177,158,20,17,7,6,0.8,0.8
2026-05-14T2300,3474A,114.2616,35.6824,鹤壁市,大新区,细颗粒物(PM2.5),101,86,85,61,62,103,103,171,146,23,19,4,5,0.9,0.8
2026-05-14T2300,3596A,114.1573,35.9607,鹤壁市,南山宾馆,细颗粒物(PM2.5),109,97,79,69,65,113,113,167,149,17,10,9,10,1.1,1
2026-05-14T2300,2244A,130.2537,47.3416,鹤岗市,哈啤分公司,,45,45,39,16,17,71,71,102,102,7,13,9,10,0.2,0.2
2026-05-14T2300,2245A,130.2683,47.3087,鹤岗市,斯达机电,颗粒物(PM10),53,54,43,18,17,77,77,132,115,5,11,8,9,0.2,0.2
2026-05-14T2300,2246A,130.3114,47.3388,鹤岗市,东山纸板厂,颗粒物(PM10),65,70,157,25,32,75,75,123,108,6,19,8,12,0.2,0.4
2026-05-14T2300,2263A,127.4832,50.2524,黑河市,交通局,颗粒物(PM10),72,80,101,39,32,44,44,79,58,50,16,61,10,0.4,0.5
2026-05-14T2300,2264A,127.5146,50.2339,黑河市,环保局,,36,32,72,25,32,84,84,79,56,9,17,7,14,0.3,0.4
2026-05-14T2300,1074A,115.6839,37.754,衡水市,电机北厂,细颗粒物(PM2.5),88,91,80,54,44,163,163,195,187,18,11,3,3,0.4,0.4
2026-05-14T2300,1075A,115.6303,37.7318,衡水市,市监测站,"颗粒物(PM10),细颗粒物(PM2.5)",78,89,87,49,38,148,148,188,181,18,14,7,8,0.7,0.7
2026-05-14T2300,3188A,115.6684,37.7216,衡水市,市城管局,细颗粒物(PM2.5),103,95,78,63,41,130,130,187,174,28,14,6,4,0.5,0.4
2026-05-14T2300,3459A,115.599,37.5491,衡水市,地表水厂,颗粒物(PM10),73,81,74,33,26,98,98,193,165,40,17,5,6,0.5,0.4
2026-05-14T2300,2457A,112.6209,26.9268,衡阳市,衡阳化工总厂,颗粒物(PM10),52,52,30,34,18,56,56,76,64,12,7,8,8,1.0,0.8
2026-05-14T2300,2458A,112.621,26.8957,衡阳市,珠晖区环保局,,35,35,27,20,17,59,59,80,65,16,13,6,9,0.7,0.6
2026-05-14T2300,2459A,112.628,26.8654,衡阳市,市委党校,,36,33,25,25,18,66,66,82,76,8,5,8,10,0.9,0.8
2026-05-14T2300,2460A,112.6007,26.8977,衡阳市,市监测站,,45,34,30,31,19,60,60,74,64,12,10,8,9,0.9,0.8
2026-05-14T2300,2461A,112.5658,26.9013,衡阳市,真空机电公司,,42,42,28,28,19,63,63,84,68,18,11,7,7,1.1,0.9
2026-05-14T2300,3399A,112.6703,26.8817,衡阳市,师范学院,,34,34,25,23,17,75,75,85,80,4,4,7,10,0.7,0.7
2026-05-14T2300,3038A,103.3757,23.3679,红河哈尼族彝族自治州,州图书馆,,29,29,20,20,13,72,72,100,85,6,5,4,4,0.3,0.2
2026-05-14T2300,4154A,103.401,23.3561,红河哈尼族彝族自治州,蒙自市朝阳路,,25,NA,12,17,12,70,70,103,85,6,4,7,7,0.3,0.4
2026-05-14T2300,1090A,111.6506,40.7517,呼和浩特市,呼市一监,颗粒物(PM10),75,85,74,37,32,74,74,154,118,10,17,9,11,0.2,0.4
2026-05-14T2300,1094A,111.7516,40.8369,呼和浩特市,如意水处理厂,颗粒物(PM10),72,80,71,30,28,72,72,156,119,14,19,8,9,0.4,0.5
2026-05-14T2300,1095A,111.727798,40.806187,呼和浩特市,二十九中,颗粒物(PM10),57,59,68,25,30,83,83,145,114,13,18,9,10,0.5,0.6
2026-05-14T2300,1097A,111.717,40.7617,呼和浩特市,化肥厂生活区,颗粒物(PM10),64,69,77,28,38,81,81,156,122,15,19,8,9,0.4,0.5
2026-05-14T2300,3699A,111.6519,40.8389,呼和浩特市,海东办,细颗粒物(PM2.5),82,70,68,51,37,78,78,148,114,6,21,4,8,0.4,0.5
2026-05-14T2300,4275A,111.591512,40.827312,呼和浩特市,成吉思汗西街8号,颗粒物(PM10),67,73,79,22,34,66,66,146,100,20,32,4,8,0.2,0.4
2026-05-14T2300,4276A,111.6597,40.8077,呼和浩特市,公园东路75号,颗粒物(PM10),67,73,74,30,28,81,81,147,124,11,17,7,9,0.4,0.5
2026-05-14T2300,4277A,111.5427,40.7846,呼和浩特市,金海路35号,颗粒物(PM10),66,72,83,25,32,80,80,142,107,9,21,4,9,0.4,0.5
2026-05-14T2300,3061A,119.7511,49.1576,呼伦贝尔市,国华电力东,,32,32,53,11,14,99,99,89,88,5,7,5,5,0.4,0.3
2026-05-14T2300,4279A,119.7569,49.2222,呼伦贝尔市,伊敏大街东7号,,39,39,52,21,15,94,94,84,83,6,9,6,6,0.4,0.4
2026-05-14T2300,1250A,120.075,30.867,湖州市,城西水厂,,37,37,28,21,17,75,75,103,91,16,16,6,6,0.4,0.4
2026-05-14T2300,2873A,120.083,30.8929,湖州市,仁皇山新区,,34,34,28,19,17,66,66,94,83,15,19,6,6,0.4,0.4
2026-05-14T2300,2907A,120.1846,30.8592,湖州市,吴兴区站,,35,35,25,22,17,56,56,94,NA,16,15,6,7,0.3,0.3
2026-05-14T2300,3562A,120.4146,30.8538,湖州市,南浔区站,,40,30,25,28,16,56,56,92,72,13,13,8,8,0.5,0.5
2026-05-14T2300,1607A,120.904878,40.721091,葫芦岛市,龙港区,,34,26,32,21,21,108,108,141,133,10,10,9,9,0.4,0.4
2026-05-14T2300,1608A,120.8382,40.7521,葫芦岛市,化工街,,44,44,42,23,21,95,95,135,124,15,16,5,7,0.4,0.4
2026-05-14T2300,1609A,120.8339,40.7078,葫芦岛市,新区,,46,46,37,27,22,100,100,139,129,10,10,9,10,0.5,0.5
2026-05-14T2300,1610A,120.8697,40.7679,葫芦岛市,东城区,细颗粒物(PM2.5),62,NA,39,41,24,102,102,140,130,14,16,9,9,0.6,0.5
2026-05-14T2300,2483A,109.9297,27.5383,怀化市,河西地税局,,36,35,26,25,19,27,27,52,44,15,10,6,6,/,/
2026-05-14T2300,2484A,109.9783,27.5342,怀化市,市四医院,,42,41,27,29,19,29,29,48,NA,11,8,8,6,0.6,0.4
2026-05-14T2300,2485A,109.9971,27.5579,怀化市,监测楼,,44,44,27,28,19,20,20,41,34,10,7,6,6,0.5,0.4
2026-05-14T2300,1210A,119.0566,33.5991,淮安市,钵池山,,25,24,33,16,24,77,77,92,78,12,12,10,9,0.4,0.5
2026-05-14T2300,1211A,119.0083,33.578,淮安市,北京南路,,34,34,36,18,24,77,77,94,78,8,9,6,6,0.3,0.3
2026-05-14T2300,1212A,118.9938,33.6083,淮安市,市监测站,,28,22,29,19,25,81,81,99,83,10,10,5,6,0.3,0.4
2026-05-14T2300,1213A,119.135,33.5038,淮安市,楚州区监测站,,28,22,33,13,22,87,87,96,86,7,8,5,6,0.2,0.3
2026-05-14T2300,3426A,118.8757,33.2897,淮安市,新华书店,,25,25,32,12,20,74,74,93,83,9,7,6,6,0.7,0.8
2026-05-14T2300,4092A,119.119691,33.550006,淮安市,枚皋中路89号,,28,28,32,17,24,85,85,95,83,4,5,7,7,0.6,0.6
2026-05-14T2300,4206A,119.028838,33.631911,淮安市,承德北路606号,,29,29,35,16,25,80,80,92,80,7,8,6,6,0.3,0.3
2026-05-14T2300,2282A,116.8005,33.9749,淮北市,监测站,NA,NA,NA,52,13,31,91,91,148,128,8,5,4,7,0.4,0.3
2026-05-14T2300,2283A,116.8094,33.9008,淮北市,烈山区政府,,42,42,68,16,42,86,86,136,116,5,3,7,7,0.4,0.6
2026-05-14T2300,4017A,116.7926,33.9534,淮北市,市博物馆,,41,41,54,14,35,90,90,148,124,5,6,4,6,0.5,0.7
2026-05-14T2300,4100A,116.8322,33.9884,淮北市,杜集区第一实验学校,,43,43,69,15,38,94,94,152,125,6,7,5,6,0.5,0.7
2026-05-14T2300,2277A,116.8304,32.7726,淮南市,潘集区政府,细颗粒物(PM2.5),66,54,68,43,51,82,82,152,113,14,16,7,8,0.6,0.8
2026-05-14T2300,2279A,116.8569,32.5949,淮南市,谢家集区政府,,46,45,62,32,49,100,100,152,131,20,20,13,12,0.5,0.6
2026-05-14T2300,2280A,116.8279,32.6333,淮南市,八公山区政府,细颗粒物(PM2.5),82,62,72,51,59,87,87,153,119,12,11,4,6,0.5,0.6
2026-05-14T2300,2894A,117.0561,32.6536,淮南市,经济技术开发区消防队,,48,43,56,33,49,83,83,131,108,17,18,7,8,0.5,0.7
2026-05-14T2300,3329A,117.011,32.5891,淮南市,山南新区,颗粒物(PM10),65,70,72,38,60,99,99,149,130,14,14,9,10,0.4,0.6
2026-05-14T2300,4209A,117.003137,32.644456,淮南市,国庆中路369号,颗粒物(PM10),75,84,87,40,50,91,91,137,117,11,12,8,10,0.3,0.4
2026-05-14T2300,2446A,114.9021,30.474,黄冈市,职工中心,细颗粒物(PM2.5),76,63,37,48,25,61,61,102,87,22,13,9,8,1.1,0.8
2026-05-14T2300,2929A,114.8858,30.4519,黄冈市,红卫路,细颗粒物(PM2.5),88,65,34,54,25,58,58,101,84,22,12,6,6,0.7,0.4
2026-05-14T2300,3398A,114.9134,30.4446,黄冈市,市林业局,细颗粒物(PM2.5),96,77,42,58,30,60,60,98,81,30,14,10,7,0.8,0.6
2026-05-14T2300,2672A,102.02,35.5101,黄南藏族自治州,同仁县隆务镇,颗粒物(PM10),116,160,72,57,34,95,95,104,101,3,3,7,7,0.2,0.2
2026-05-14T2300,2295A,118.2905,29.6965,黄山市,延安路89号,,10,9,17,3,12,30,30,81,73,13,6,5,5,0.3,0.4
2026-05-14T2300,2297A,118.1369,30.2755,黄山市,黄山区政府5号楼,,27,8,27,3,22,85,85,80,80,2,5,2,3,0.2,0.4
2026-05-14T2300,4210A,118.335445,29.720283,黄山市,滨江东路7-2号,,24,21,28,3,14,76,76,90,89,5,5,/,/,/,/
2026-05-14T2300,2423A,115.0547,30.2332,黄石市,沈家营,颗粒物(PM10),52,52,47,33,19,80,80,75,75,8,14,4,4,0.4,0.4
2026-05-14T2300,2426A,114.899,30.211,黄石市,铁山,细颗粒物(PM2.5),52,50,36,36,19,86,86,84,79,7,9,8,11,1.3,1.2
2026-05-14T2300,2427A,115.0259,30.2108,黄石市,团城山,细颗粒物(PM2.5),66,57,41,43,21,94,94,98,97,4,9,4,4,0.7,0.7
2026-05-14T2300,3149A,115.0174,30.1591,黄石市,笔架山北路,颗粒物(PM10),71,79,49,40,19,77,77,86,83,8,8,4,5,0.4,0.4
2026-05-14T2300,4185A,115.078022,30.21118,黄石市,磁湖东路29号,颗粒物(PM10),55,57,50,34,24,103,103,101,101,7,14,4,4,0.4,0.4
2026-05-14T2300,1392A,114.4181,23.0528,惠州市,河南岸金山湖子站,,23,23,14,10,6,22,22,67,48,18,13,6,6,0.6,0.6
2026-05-14T2300,1393A,114.4055,23.0824,惠州市,下埔横江三路子站,,33,33,19,17,8,25,25,68,51,19,11,5,5,0.7,0.6
2026-05-14T2300,1395A,114.4645,22.7832,惠州市,惠阳区承修路船湖子站,,16,16,13,7,7,35,35,52,35,9,10,5,5,0.4,0.4
2026-05-14T2300,1396A,114.5316,22.7423,惠州市,大亚湾管委会子站,,23,23,18,6,6,36,36,51,35,4,4,4,4,0.4,0.4
2026-05-14T2300,3314A,114.4334,22.8134,惠州市,惠阳秋长,,19,19,18,8,6,38,38,58,37,9,12,/,/,/,/
2026-05-14T2300,3452A,114.6521,22.7755,惠州市,大亚湾霞涌,,13,12,12,3,5,41,41,52,41,3,6,/,/,/,/
2026-05-14T2300,4300A,114.4089,23.1147,惠州市,文华一路1号,,22,22,14,13,7,28,28,68,51,15,12,/,/,/,/
2026-05-14T2300,2240A,130.9618,45.2926,鸡西市,环保局,,33,NA,38,23,22,102,102,133,120,10,20,11,11,0.3,0.4
2026-05-14T2300,2243A,130.9294,45.2959,鸡西市,第一中学,,32,32,36,19,23,100,100,131,122,7,16,9,9,0.1,0.1
2026-05-14T2300,3707A,131.0069,45.2988,鸡西市,欧美日汽修厂,,30,29,27,21,26,88,88,126,106,14,19,8,8,0.2,0.2
2026-05-14T2300,2367A,114.9753,27.0803,吉安市,红声器材厂,,40,40,43,24,20,58,58,85,79,8,12,8,6,0.6,0.5
2026-05-14T2300,2369A,114.9903,27.1313,吉安市,市环境监测站,,39,37,33,27,19,55,55,79,74,6,10,12,10,/,/
2026-05-14T2300,2370A,115.009527,27.096792,吉安市,青原区法院,,40,40,36,22,18,55,55,78,72,8,14,8,6,0.4,0.4
2026-05-14T2300,1772A,126.54,43.8622,吉林市,哈达湾,颗粒物(PM10),64,69,47,39,22,80,80,161,135,33,13,6,6,0.8,0.7
2026-05-14T2300,1773A,126.5843,43.8358,吉林市,东局子,细颗粒物(PM2.5),72,61,29,46,32,91,91,166,130,29,17,5,4,0.6,0.7
2026-05-14T2300,1774A,126.5051,43.8243,吉林市,电力学院,颗粒物(PM10),85,98,58,49,35,43,43,184,125,48,20,6,5,1.0,0.8
2026-05-14T2300,1775A,126.6133,43.8971,吉林市,江北,颗粒物(PM10),60,63,54,35,29,84,84,156,129,18,15,6,9,0.7,0.8
2026-05-14T2300,1776A,126.5549,43.8304,吉林市,江南公园,颗粒物(PM10),60,64,44,36,29,84,84,160,132,23,12,7,7,0.6,0.5
2026-05-14T2300,2868A,126.4737,43.953,吉林市,九站,,47,46,50,27,28,150,150,174,156,12,18,7,11,0.4,0.4
2026-05-14T2300,1299A,116.9866,36.6118,济南市,科干所,,47,34,56,17,36,148,148,222,190,13,16,7,8,0.3,0.5
2026-05-14T2300,1300A,116.9379,36.6652,济南市,农科所,,43,42,70,14,42,136,136,221,168,17,21,4,4,0.3,0.4
2026-05-14T2300,1301A,117.1265,36.6736,济南市,开发区,,50,37,73,15,41,159,159,186,175,9,18,7,6,0.5,0.7
2026-05-14T2300,1303A,117.0616,36.6865,济南市,省种子仓库,颗粒物(PM10),56,58,84,20,40,158,158,224,191,16,21,6,8,0.5,0.6
2026-05-14T2300,1304A,116.9495185,36.644937,济南市,机床二厂,颗粒物(PM10),53,54,83,17,64,142,142,209,161,15,19,7,7,0.5,0.6
2026-05-14T2300,1305A,117.0496,36.6629,济南市,市监测站,,49,46,78,19,38,154,154,213,184,13,19,4,5,0.6,0.7
2026-05-14T2300,1306A,116.7674,36.5458,济南市,长清党校,细颗粒物(PM2.5),70,73,65,45,36,171,171,192,187,14,13,7,6,1.2,0.9
2026-05-14T2300,1961A,117.5323,36.6865,济南市,东山小学,,46,42,73,13,32,145,145,216,177,10,15,5,7,0.4,0.5
2026-05-14T2300,3059A,117.7181,36.205,济南市,泰兴公司,,46,46,52,31,28,119,119,184,153,16,29,8,14,0.4,0.7
2026-05-14T2300,3064A,117.6861,36.2172,济南市,莱芜战役纪念馆,颗粒物(PM10),55,56,52,33,28,132,132,190,165,12,22,6,13,0.4,0.6
2026-05-14T2300,3494A,117.1673,36.9782,济南市,济阳区政府,颗粒物(PM10),81,93,82,22,40,114,114,202,153,37,30,7,8,0.7,0.7
2026-05-14T2300,3495A,117.1168,36.6299,济南市,锦屏中学,,48,29,63,15,35,153,153,192,182,7,10,7,8,0.3,0.4
2026-05-14T2300,4108A,117.7107,36.2385,济南市,山财大街5号,,46,41,48,32,31,132,132,185,160,13,24,4,8,0.3,0.6
2026-05-14T2300,4109A,116.9744,36.6889,济南市,无影山路12号,颗粒物(PM10),60,63,72,13,41,146,146,208,169,15,22,7,7,0.8,0.9
2026-05-14T2300,1653A,116.6229,35.4288,济宁市,火炬城,颗粒物(PM10),54,55,58,34,33,113,113,189,170,17,12,5,6,0.7,0.8
2026-05-14T2300,3500A,116.5808,35.3703,济宁市,北湖一中,,44,41,67,20,31,139,139,203,184,12,16,2,7,0.3,0.5
2026-05-14T2300,3501A,116.8251,35.5592,济宁市,服务中心,颗粒物(PM10),59,62,64,30,36,131,131,202,183,11,10,3,2,0.4,0.6
2026-05-14T2300,3678A,116.5907,35.4054,济宁市,市第七中学,,46,46,65,26,34,138,138,207,186,14,13,8,10,0.4,0.5
2026-05-14T2300,4111A,116.6075,35.4566,济宁市,任和路,颗粒物(PM10),62,66,69,29,34,128,128,215,192,15,9,8,5,0.7,0.7
2026-05-14T2300,4112A,116.5648,35.3921,济宁市,文体南路1号,颗粒物(PM10),54,55,73,26,34,141,141,199,180,6,7,4,6,0.6,0.7
2026-05-14T2300,4122A,112.6071,35.1015,济源市,市委党校,NA,NA,85,60,12,11,48,48,128,112,NA,NA,8,9,1.0,0.7
2026-05-14T2300,4123A,112.596,35.0702,济源市,沁园中路1号,,32,32,43,22,26,65,65,128,108,15,13,2,8,0.8,0.7
2026-05-14T2300,2255A,130.2749,46.8028,佳木斯市,佳纺,颗粒物(PM10),88,102,64,35,21,80,80,144,120,6,18,3,3,0.3,0.4
2026-05-14T2300,2257A,130.3258,46.7975,佳木斯市,环保局,颗粒物(PM10),85,99,50,36,27,78,78,145,126,5,18,6,6,0.4,0.5
2026-05-14T2300,4285A,130.363,46.806,佳木斯市,顺和街,颗粒物(PM10),68,75,49,33,27,81,81,140,122,5,22,2,2,0.4,0.4
2026-05-14T2300,4286A,130.3952,46.8268,佳木斯市,长安路196号,颗粒物(PM10),76,86,46,27,26,81,81,145,126,4,11,2,3,0.3,0.3
2026-05-14T2300,1252A,120.7439,30.778,嘉兴市,清河小学,,38,38,25,22,9,60,60,84,66,14,17,7,8,0.3,0.3
2026-05-14T2300,1253A,120.7261,30.7477,嘉兴市,嘉兴学院,,34,34,24,20,13,59,59,89,72,19,19,6,7,0.4,0.4
2026-05-14T2300,2872A,120.7845,30.7524,嘉兴市,南湖区残联,,29,29,19,18,12,64,64,93,72,10,10,6,7,0.4,0.4
2026-05-14T2300,3407A,120.6915,30.7741,嘉兴市,秀洲住建,,32,32,21,18,9,64,64,98,76,16,16,7,8,0.5,0.5
2026-05-14T2300,1945A,98.291,39.7705,嘉峪关市,气象局,,30,24,27,18,16,93,93,118,114,17,9,4,15,0.4,0.6
2026-05-14T2300,2884A,98.2672,39.7978,嘉峪关市,酒钢宾馆,,32,24,33,14,15,101,101,116,115,16,12,9,21,0.3,0.9
2026-05-14T2300,3248A,98.2644,39.7723,嘉峪关市,雄关区,,37,37,40,11,14,90,90,110,108,21,16,6,11,0.1,0.4
2026-05-14T2300,1383A,113.1063,22.6058,江门市,北街,,39,NA,18,27,9,16,16,42,30,23,11,/,/,/,/
2026-05-14T2300,1384A,113.073,22.5835,江门市,西区,,22,21,20,15,9,28,28,48,38,20,15,/,/,/,/
2026-05-14T2300,1385A,113.0218,22.531,江门市,圭峰西,,22,22,22,14,10,12,12,49,35,21,14,/,/,/,/
2026-05-14T2300,1386A,113.0826,22.5947,江门市,东湖,,28,28,20,16,8,21,21,48,35,16,11,6,7,0.5,0.3
2026-05-14T2300,3311A,113.1077,22.5647,江门市,江海富民,,34,34,37,20,9,27,27,51,40,19,13,/,/,0.5,0.3
2026-05-14T2300,3449A,113.0496,22.4669,江门市,新会银湖,,23,20,20,16,9,3,3,45,21,36,19,7,7,0.5,0.4
2026-05-14T2300,3335A,113.3137,35.2643,焦作市,马村街道办,,43,41,61,30,37,74,74,143,120,19,13,8,12,0.6,0.6
2026-05-14T2300,3336A,113.2464,35.2374,焦作市,焦作技师学院,,36,36,59,17,33,86,86,144,122,11,12,5,9,0.8,0.8
2026-05-14T2300,3477A,113.1656,35.2536,焦作市,中站许衡医院,,43,34,70,30,40,73,73,142,120,18,20,8,14,0.6,0.8
2026-05-14T2300,3981A,113.2456,35.18,焦作市,原李万街道办,颗粒物(PM10),51,51,49,25,27,61,61,140,119,25,11,4,7,0.6,0.4
2026-05-14T2300,4264A,113.234,35.219,焦作市,新安路1731号,,45,38,52,31,32,71,71,140,119,17,15,8,11,0.6,0.5
2026-05-14T2300,4295A,113.2722,35.2121,焦作市,人民路3066号,,39,33,50,27,30,62,62,136,112,23,16,2,6,0.5,0.4
2026-05-14T2300,1708A,116.3701,23.5345,揭阳市,新兴,,21,21,18,8,5,36,36,49,41,15,13,5,5,0.6,0.6
2026-05-14T2300,1709A,116.3261,23.5442,揭阳市,西马,,12,9,17,8,4,38,38,52,45,12,11,4,4,0.7,0.6
2026-05-14T2300,1710A,116.361,23.5627,揭阳市,东兴,,12,11,15,7,4,38,38,49,42,11,8,4,3,/,/
2026-05-14T2300,1711A,116.4151,23.5295,揭阳市,渔湖,,13,NA,12,9,5,36,36,55,42,15,14,2,3,/,/
2026-05-14T2300,3320A,116.4028,23.5699,揭阳市,曲溪,,16,12,15,11,4,37,37,52,42,13,8,5,2,0.6,0.5
2026-05-14T2300,1944A,102.1691,38.5166,金昌市,天庆家园,,33,17,118,3,35,105,105,114,112,5,4,8,10,0.2,0.2
2026-05-14T2300,4022A,102.1648,38.5369,金昌市,金川区人防中心,,32,NA,115,11,34,102,102,112,110,4,3,4,6,0.3,0.3
2026-05-14T2300,4239A,102.193042,38.531887,金昌市,长春路96号,细颗粒物(PM2.5),56,NA,142,38,49,107,107,109,108,2,2,6,10,0.3,0.3
2026-05-14T2300,1262A,119.6478,29.0773,金华市,十五中,,33,9,25,3,13,104,104,74,NA,6,15,1,2,0.4,0.6
2026-05-14T2300,1263A,119.6859,29.1032,金华市,监测站,,32,11,26,3,13,102,102,76,76,5,13,3,4,0.4,0.5
2026-05-14T2300,3659A,119.656,29.1132,金华市,气象局,,25,10,22,3,13,79,79,66,65,17,17,3,4,0.4,0.5
2026-05-14T2300,1767A,121.1114,41.0879,锦州市,南山,,40,39,41,28,21,108,108,142,130,14,13,9,7,0.5,0.4
2026-05-14T2300,1768A,121.060361,40.842794,锦州市,开发区,颗粒物(PM10),73,82,70,29,22,100,100,139,126,26,20,6,9,0.5,0.5
2026-05-14T2300,1769A,121.1836,41.1118,锦州市,百股街道,,46,41,37,32,22,105,105,138,128,16,11,19,9,0.5,0.5
2026-05-14T2300,1770A,121.1176,41.1224,锦州市,天安街道,,44,44,46,26,21,110,110,142,132,13,13,6,7,0.4,0.4
2026-05-14T2300,1771A,121.1303,41.1385,锦州市,北湖公园,,48,40,45,33,23,110,110,141,132,11,12,9,9,0.4,0.4
2026-05-14T2300,2160A,112.8496,35.5051,晋城市,自来水公司,,46,46,60,13,27,88,88,161,141,19,13,3,2,0.3,0.4
2026-05-14T2300,2162A,112.8509,35.4886,晋城市,市环保局,颗粒物(PM10),58,60,66,19,29,78,78,152,129,18,16,3,3,0.4,0.4
2026-05-14T2300,3620A,112.8258,35.4804,晋城市,泽州一中,,30,23,62,14,27,94,94,154,133,19,16,3,4,0.3,0.6
2026-05-14T2300,4078A,112.8246,35.5152,晋城市,前书院路,,34,34,61,12,28,61,61,146,123,28,14,1,2,0.3,0.4
2026-05-14T2300,4079A,112.8864,35.4773,晋城市,祥云街666号,颗粒物(PM10),55,57,67,17,34,53,53,148,123,43,19,3,4,0.4,0.4
2026-05-14T2300,2174A,112.6992,37.6984,晋中市,榆次区政府,颗粒物(PM10),63,68,71,41,35,101,101,169,144,12,13,6,8,0.7,0.7
2026-05-14T2300,2865A,112.7195,37.683,晋中市,榆次三中,颗粒物(PM10),67,73,77,33,36,113,113,176,148,10,16,7,8,0.8,0.8
2026-05-14T2300,4080A,112.7375,37.7215,晋中市,广安街188号,颗粒物(PM10),65,70,83,32,35,102,102,155,130,12,16,5,7,0.4,0.4
2026-05-14T2300,4200A,112.7478,37.6954,晋中市,迎宾街26号,颗粒物(PM10),67,73,79,38,36,114,114,173,148,13,18,6,7,0.6,0.5
2026-05-14T2300,2439A,112.2012,31.048,荆门市,竹园小学,,40,39,46,28,29,38,38,94,76,18,13,4,4,0.5,0.5
2026-05-14T2300,2440A,112.1968,30.9892,荆门市,掇刀,,43,43,45,25,32,49,49,99,85,23,13,13,10,0.8,0.8
2026-05-14T2300,3012A,112.1849,31.0361,荆门市,西山林语,,49,48,45,34,29,37,37,95,85,10,8,6,6,0.7,0.8
2026-05-14T2300,3547A,112.1631,31.0134,荆门市,龙泉中学南校,,39,39,35,20,24,58,58,103,87,10,8,5,5,0.7,0.8
2026-05-14T2300,4124A,112.2213,31.0654,荆门市,新台西路6号,,48,48,45,32,32,31,31,98,70,24,12,8,8,0.7,0.8
2026-05-14T2300,1844A,112.2493,30.3198,荆州市,市图书馆,细颗粒物(PM2.5),66,62,41,43,34,49,49,108,98,36,20,6,6,0.7,0.4
2026-05-14T2300,1845A,112.2009,30.3543,荆州市,市委党校,细颗粒物(PM2.5),84,62,49,52,35,54,54,99,88,27,14,7,7,0.7,0.5
2026-05-14T2300,3194A,112.2749,30.3124,荆州市,管委会,细颗粒物(PM2.5),80,64,43,50,36,33,33,99,81,41,18,8,8,0.7,0.4
2026-05-14T2300,4268A,112.1722,30.3366,荆州市,学苑路85号,细颗粒物(PM2.5),86,64,44,53,34,61,61,108,95,14,7,2,2,0.7,0.3
2026-05-14T2300,2343A,117.2114,29.2931,景德镇市,老干部活动中心,,14,6,12,3,9,44,44,60,52,5,5,3,4,0.6,0.6
2026-05-14T2300,2344A,117.1893,29.2789,景德镇市,兽医站,,20,20,21,3,7,56,56,70,61,8,8,4,4,0.5,0.5
2026-05-14T2300,2346A,117.246,29.2958,景德镇市,陶研所,,15,9,10,8,7,46,46,65,55,7,7,4,3,0.9,0.9
2026-05-14T2300,4289A,117.154766,29.256967,景德镇市,青少年活动中心,,16,11,15,8,10,50,50,56,48,7,11,4,8,/,/
2026-05-14T2300,1803A,115.9873,29.6816,九江市,十里,,41,41,32,3,18,50,50,80,75,13,19,7,9,0.9,0.8
2026-05-14T2300,1804A,115.9583,29.7047,九江市,茅山头,,26,26,27,3,21,65,65,104,95,8,16,3,3,0.6,0.6
2026-05-14T2300,1805A,115.9877,29.7295,九江市,西园,,29,29,27,3,20,62,62,99,87,10,22,4,5,0.6,0.7
2026-05-14T2300,1808A,115.9112,29.6038,九江市,综合工业园,,42,33,24,29,16,35,35,84,73,64,32,4,6,0.6,0.5
2026-05-14T2300,3190A,116.0254,29.6995,九江市,外国语学校,,33,33,26,3,28,61,61,97,88,7,17,8,10,0.5,0.7
2026-05-14T2300,4253A,116.010205,29.659402,九江市,莲花大道8号,,20,18,18,3,17,64,64,90,86,5,10,5,5,0.5,0.6
2026-05-14T2300,4240A,98.495752,39.733935,酒泉市,玉门东路5号,,34,34,25,21,17,72,72,103,95,21,6,6,6,0.5,0.2
2026-05-14T2300,4241A,98.5099,39.7506,酒泉市,北大街108号,,30,19,26,14,14,94,94,102,100,16,7,9,9,0.2,0.2
2026-05-14T2300,2698A,76.0071,39.466,喀什地区,巡警大队,细颗粒物(PM2.5),183,210,312,138,163,93,93,118,114,20,8,4,4,0.3,0.2
2026-05-14T2300,2699A,75.9756,39.4693,喀什地区,吾办,颗粒物(PM10),130,198,286,85,125,89,89,115,112,9,5,7,5,0.5,0.4
2026-05-14T2300,4027A,75.9485,39.4688,喀什地区,老干局,细颗粒物(PM2.5),139,187,267,102,125,84,84,112,109,5,3,3,3,0.3,0.3
2026-05-14T2300,1824A,114.3389,34.778,开封市,肿瘤医院,,40,40,78,24,54,110,110,199,NA,18,22,6,8,0.7,0.9
2026-05-14T2300,1826A,114.2884,34.7966,开封市,世纪星幼儿园,,36,36,66,16,47,107,107,186,149,20,19,6,8,0.6,0.8
2026-05-14T2300,3147A,114.3434,34.8101,开封市,龙亭公园,,39,39,79,26,51,102,102,189,156,34,31,8,10,0.6,0.7
2026-05-14T2300,3210A,114.3645,34.7955,开封市,汴京公园,,50,50,86,28,53,105,105,194,157,15,17,3,5,0.6,0.8
2026-05-14T2300,3473A,114.2485,34.8306,开封市,技师学院,颗粒物(PM10),58,60,83,31,52,50,50,180,142,67,29,5,7,0.8,1
2026-05-14T2300,3592A,114.4518,34.7503,开封市,祥符区生态环境局,,47,47,62,20,56,98,98,189,146,22,26,9,10,0.8,0.9
2026-05-14T2300,1951A,84.886,45.6029,克拉玛依市,长征新村,,26,10,12,3,6,82,82,102,99,7,5,6,6,0.4,0.4
2026-05-14T2300,1952A,84.8894,45.5827,克拉玛依市,南林小区,,26,12,17,3,2,81,81,96,93,6,10,2,2,0.1,0.2
2026-05-14T2300,1954A,84.896,44.3328,克拉玛依市,独山子区,,35,31,29,14,9,112,112,122,122,9,9,7,7,0.4,0.4
2026-05-14T2300,1955A,85.6888,46.0909,克拉玛依市,乌尔禾区商贸楼,NA,NA,NA,19,NA,8,NA,NA,99,96,6,8,4,4,0.2,0.2
2026-05-14T2300,3612A,85.1045,45.6895,克拉玛依市,白碱滩区新站,,33,10,15,3,3,103,103,110,109,4,7,8,8,0.2,0.2
2026-05-14T2300,2697A,76.1457,39.7143,克孜勒苏柯尔克孜自治州,市人民政府,细颗粒物(PM2.5),169,181,358,128,168,60,60,119,114,40,4,5,5,0.2,0.1
2026-05-14T2300,3665A,76.1654,39.7157,克孜勒苏柯尔克孜自治州,克州文化中心,细颗粒物(PM2.5),241,199,389,191,181,95,95,118,116,12,4,4,3,0.3,0.2
2026-05-14T2300,1450A,102.8203,24.889,昆明市,呈贡新区,,25,20,22,14,12,79,79,113,95,14,10,4,4,0.2,0.3
2026-05-14T2300,1452A,102.7253,25.0904,昆明市,龙泉镇,,49,49,35,21,16,21,21,102,77,54,28,5,5,0.6,0.4
2026-05-14T2300,1453A,102.7267,25.0378,昆明市,东风东路,,26,24,26,15,14,82,82,105,94,8,11,3,3,0.4,0.5
2026-05-14T2300,1454A,102.6744,25.0671,昆明市,金鼎山,,25,25,30,14,15,73,73,100,91,16,16,5,5,0.4,0.5
2026-05-14T2300,1455A,102.6643,25.0401,昆明市,碧鸡广场,,42,42,28,19,15,46,46,94,80,41,19,6,6,0.5,0.5
2026-05-14T2300,3179A,102.7491,25.012,昆明市,官渡区博物馆,,25,17,27,12,14,79,79,104,91,13,14,4,4,0.4,0.5
2026-05-14T2300,3375A,102.8016,24.8336,昆明市,青年创业园,,34,34,25,19,13,77,77,107,96,8,9,4,5,0.4,0.5
2026-05-14T2300,3550A,102.8,24.9787,昆明市,昆明学院,,29,29,25,14,12,76,76,106,92,13,11,5,5,0.4,0.5
2026-05-14T2300,3551A,102.5969,24.6738,昆明市,晋宁区生态环境分局,,46,46,20,24,14,81,81,100,94,8,6,1,2,0.5,0.5
2026-05-14T2300,3552A,102.6673,24.9861,昆明市,云天化总部,NA,NA,18,25,12,11,NA,NA,105,97,9,21,5,5,0.3,0.4
2026-05-14T2300,1456A,91.132,29.6515,拉萨市,八廓街,,37,16,12,6,6,117,117,124,122,9,5,6,5,0.3,0.4
2026-05-14T2300,1457A,91.1221,29.6748,拉萨市,市环保局,,36,21,13,8,6,114,114,117,116,8,10,5,4,0.4,0.4
2026-05-14T2300,1458A,91.0874,29.6476,拉萨市,区监测站,,31,16,9,7,6,99,99,119,117,9,9,5,5,0.4,0.2
2026-05-14T2300,1459A,91.1774,29.6541,拉萨市,西藏大学,,29,12,11,9,8,92,92,118,111,22,9,6,6,0.3,0.3
2026-05-14T2300,1460A,90.9798,29.6586,拉萨市,区辐射站,,33,27,14,8,8,103,103,106,104,18,12,5,5,0.4,0.4
2026-05-14T2300,1461A,91.0831,29.6292,拉萨市,拉萨火车站,,40,18,14,6,7,125,125,126,126,6,7,4,4,0.4,0.4
2026-05-14T2300,2520A,109.2203,23.7252,来宾市,来宾技工学校,颗粒物(PM10),51,51,37,34,25,69,69,129,117,22,6,9,7,0.7,0.8
2026-05-14T2300,3535A,109.1781,23.7293,来宾市,兴宾区政府,细颗粒物(PM2.5),64,67,47,42,24,70,70,135,121,27,9,19,8,0.7,0.7
2026-05-14T2300,4002A,109.2312,23.7428,来宾市,中南小学,,47,47,49,31,25,75,75,133,117,23,13,5,5,0.6,0.6
2026-05-14T2300,1479A,103.8309,36.0467,兰州市,铁路设计院,颗粒物(PM10),109,142,240,60,95,87,87,91,90,12,17,10,7,0.7,0.6
2026-05-14T2300,3241A,103.7439,36.0841,兰州市,百合公园,颗粒物(PM10),94,111,181,50,71,92,92,98,95,8,17,6,8,0.3,0.6
2026-05-14T2300,3242A,103.9613,35.9985,兰州市,和平,颗粒物(PM10),112,149,275,42,98,103,103,105,104,4,8,13,10,0.4,0.5
2026-05-14T2300,4236A,103.629272,36.093822,兰州市,庄浪东路808号,颗粒物(PM10),101,122,211,52,74,99,99,102,100,4,12,6,10,0.2,0.2
2026-05-14T2300,4237A,103.7251,36.104344,兰州市,安宁西路88号,颗粒物(PM10),95,113,211,55,67,102,102,108,107,4,13,7,10,0.2,0.2
2026-05-14T2300,4238A,103.846982,36.067567,兰州市,北滨河东路1号,颗粒物(PM10),108,140,230,60,87,90,90,93,91,12,18,13,13,0.6,0.5
2026-05-14T2300,1067A,116.6712,39.5109,廊坊市,药材公司,细颗粒物(PM2.5),88,82,92,54,60,103,103,190,163,18,15,4,6,0.5,0.8
2026-05-14T2300,1068A,116.7215,39.5592,廊坊市,开发区,颗粒物(PM10),80,91,113,43,56,114,114,192,167,16,21,2,3,0.4,0.8
2026-05-14T2300,1070A,116.7246,39.5273,廊坊市,北华航天学院,细颗粒物(PM2.5),60,55,70,40,53,102,102,187,160,15,15,2,4,0.4,0.7
2026-05-14T2300,2919A,116.7022,39.5454,廊坊市,河北工业大学,细颗粒物(PM2.5),68,57,80,44,53,109,109,189,165,14,15,3,5,0.4,0.7
2026-05-14T2300,2536A,103.7629,29.5844,乐山市,牛耳桥,细颗粒物(PM2.5),62,52,49,41,36,36,36,107,60,33,22,6,6,0.7,0.6
2026-05-14T2300,2537A,103.7501,29.6002,乐山市,市第三水厂,细颗粒物(PM2.5),54,43,44,37,36,54,54,99,61,24,20,6,5,0.7,0.7
2026-05-14T2300,2538A,103.7571,29.5664,乐山市,市监测站,,45,44,45,31,31,28,28,105,59,33,18,4,3,0.8,0.7
2026-05-14T2300,3361A,103.7313,29.563,乐山市,理工大学,,38,32,40,26,32,34,34,107,62,24,19,9,10,0.7,0.6
2026-05-14T2300,2599A,100.2497,26.8802,丽江市,丽江古城,,27,18,17,15,8,86,86,100,98,8,8,9,7,0.4,0.4
2026-05-14T2300,2600A,100.2203,26.8906,丽江市,市中心,,27,11,12,11,7,86,86,100,92,8,8,5,6,0.4,0.4
2026-05-14T2300,1267A,119.9141,28.4513,丽水市,监测站大楼,,29,6,16,3,9,90,90,84,84,7,11,4,4,0.3,0.4
2026-05-14T2300,1268A,119.93,28.4589,丽水市,莲都小学,,34,6,16,3,9,108,108,94,94,4,10,/,/,/,/
2026-05-14T2300,1269A,119.8794,28.4232,丽水市,余庄前,,17,10,17,3,8,54,54,65,64,5,11,4,4,0.3,0.4
2026-05-14T2300,1173A,119.1759,34.5885,连云港市,市环境监测站,,30,NA,28,9,24,96,96,122,96,5,10,7,8,0.4,0.5
2026-05-14T2300,3000A,119.3577,34.6971,连云港市,德源药业,,32,27,34,12,20,100,100,101,96,12,18,5,5,0.2,0.4
2026-05-14T2300,3007A,119.178,34.8442,连云港市,新城一中,,33,27,30,12,13,103,103,130,104,9,7,3,4,0.5,0.4
2026-05-14T2300,3008A,119.3607,34.7519,连云港市,胡沟管理处,,29,19,17,7,15,90,90,112,85,23,24,9,9,0.5,0.5
2026-05-14T2300,3009A,119.1478,34.5913,连云港市,矿山设计院,,31,22,39,9,25,97,97,122,97,1,7,2,3,0.5,0.6
2026-05-14T2300,3434A,119.2414,34.6539,连云港市,工贸学校,,30,17,25,17,21,93,93,127,100,4,7,3,3,0.6,0.5
2026-05-14T2300,3664A,119.4171,34.734,连云港市,连云街道,,34,17,26,10,22,106,106,109,103,4,12,8,9,0.5,0.6
2026-05-14T2300,2573A,102.2629,27.8981,凉山彝族自治州,西昌市政府,,25,25,23,15,13,75,75,109,100,7,7,3,5,0.4,0.4
2026-05-14T2300,2574A,102.2686,27.885,凉山彝族自治州,凉山州政府,,33,33,24,19,15,48,48,93,84,19,10,4,6,0.6,0.5
2026-05-14T2300,4229A,102.2342,27.8859,凉山彝族自治州,凯乐南路30号,,30,30,29,18,16,61,61,96,90,11,18,5,7,0.6,0.6
2026-05-14T2300,2212A,123.1978,41.2036,辽阳市,宏伟区,,40,8,30,8,9,126,126,144,138,6,7,6,6,0.4,0.4
2026-05-14T2300,2213A,123.1684,41.2497,辽阳市,新华园,,38,30,34,8,10,121,121,148,140,11,8,4,3,0.4,0.4
2026-05-14T2300,2214A,123.2355,41.2663,辽阳市,滨河路,颗粒物(PM10),56,58,30,8,9,110,110,130,124,12,10,6,6,0.2,0.2
2026-05-14T2300,4083A,123.153,41.2874,辽阳市,铁西路150号,,39,29,43,11,13,123,123,141,137,6,6,6,6,0.4,0.4
2026-05-14T2300,2227A,125.1359,42.8845,辽源市,环保局,,42,42,39,17,19,133,133,167,146,10,19,7,8,0.3,0.4
2026-05-14T2300,4085A,125.0998,42.9134,辽源市,安宁大街333号,,40,37,45,22,19,126,126,161,145,10,14,2,3,0.4,0.4
2026-05-14T2300,1625A,115.9789,36.4372,聊城市,区政府,颗粒物(PM10),67,73,69,37,35,149,149,204,184,18,18,8,9,0.7,0.7
2026-05-14T2300,3200A,115.9772,36.4986,聊城市,监控中心,"颗粒物(PM10),细颗粒物(PM2.5)",70,78,67,45,38,152,152,203,185,25,13,8,10,0.5,0.5
2026-05-14T2300,3513A,116.0443,36.436,聊城市,九州社区,颗粒物(PM10),76,86,78,43,40,146,146,200,187,26,20,5,6,0.5,0.5
2026-05-14T2300,4018A,116.0564,36.4609,聊城市,星美广场,细颗粒物(PM2.5),84,82,74,52,43,138,138,200,176,27,18,6,8,0.6,0.5
2026-05-14T2300,4113A,116.0091,36.4495,聊城市,利民路,臭氧1小时(O3_1h),65,58,57,41,42,172,172,208,200,19,16,8,9,0.4,0.5
2026-05-14T2300,2632A,94.3683,29.6373,林芝市,林芝监测站,,21,NA,6,12,7,65,65,83,80,6,4,4,4,0.6,0.5
2026-05-14T2300,2633A,94.3616,29.6634,林芝市,林芝人民医院,,25,NA,8,17,6,66,66,90,84,5,4,3,3,0.5,0.5
2026-05-14T2300,2603A,100.0779,23.8981,临沧市,市环保局,,46,45,30,32,24,49,49,90,78,12,9,9,6,0.6,0.5
2026-05-14T2300,2604A,100.0894,23.882,临沧市,市气象局,,49,45,31,34,26,49,49,91,78,13,11,6,6,0.8,0.7
2026-05-14T2300,1733A,111.5552,36.0791,临汾市,临钢医院,颗粒物(PM10),67,73,71,33,29,70,70,112,91,25,20,10,12,1.1,1
2026-05-14T2300,1734A,111.4984,36.0734,临汾市,技工学校,细颗粒物(PM2.5),74,66,66,47,40,79,79,118,96,25,20,9,12,1.1,1
2026-05-14T2300,1736A,111.5017,36.0857,临汾市,市委,颗粒物(PM10),77,87,77,40,31,80,80,120,97,26,22,7,11,1.1,1
2026-05-14T2300,3018A,111.5048,36.1015,临汾市,唐尧大酒店,颗粒物(PM10),72,80,90,33,30,67,67,118,95,28,20,7,10,1.1,0.9
2026-05-14T2300,4244A,111.4879,36.053,临汾市,启星学校,颗粒物(PM10),68,74,68,43,36,58,58,110,85,30,23,7,10,1.4,1.2
2026-05-14T2300,4271A,103.2464,35.6123,临夏回族自治州,滨河东路1号,颗粒物(PM10),135,210,189,77,68,52,52,80,61,10,16,9,11,0.3,0.3
2026-05-14T2300,4310A,103.207136,35.599807,临夏回族自治州,新华街21号,颗粒物(PM10),137,214,194,92,72,64,64,80,72,5,5,5,7,0.6,0.4
2026-05-14T2300,1618A,118.3429,35.0532,临沂市,沂河小区,,30,19,63,9,35,94,94,135,96,8,19,8,11,0.2,0.9
2026-05-14T2300,1619A,118.2962,35.0568,临沂市,鲁南制药厂,,30,9,60,8,35,96,96,142,102,8,18,8,10,0.1,0.8
2026-05-14T2300,1620A,118.2793,34.9976,临沂市,新光毛纺厂,,32,9,42,7,33,100,100,147,105,11,22,7,9,0.1,0.7
2026-05-14T2300,1621A,118.3955,35.0889,临沂市,河东保险公司,,30,17,56,10,39,96,96,131,97,10,20,7,11,0.1,0.9
2026-05-14T2300,3370A,118.3563,35.0215,临沂市,十里堡居委,,33,14,51,9,35,105,105,142,102,5,16,7,9,0.3,1
2026-05-14T2300,3496A,118.359,35.1067,临沂市,南坊新区,,30,14,69,11,43,93,93,131,95,9,22,7,10,0.1,1
2026-05-14T2300,3860A,118.3915,35.0297,临沂市,皇山花园小区,,33,12,55,7,37,103,103,135,100,7,19,7,9,0.4,1.1
2026-05-14T2300,1870A,109.4854,24.3898,柳州市,柳东小学,,36,30,26,25,16,43,43,105,88,26,9,12,5,0.6,0.6
2026-05-14T2300,1871A,109.4109,24.3304,柳州市,环保监测站,,30,NA,36,21,18,53,53,109,98,20,11,5,5,0.7,0.7
2026-05-14T2300,1872A,109.3886,24.3408,柳州市,河西水厂,,37,37,29,19,20,53,53,113,94,17,9,9,9,0.8,0.6
2026-05-14T2300,1873A,109.4263,24.2951,柳州市,市四中,,42,38,32,29,21,58,58,112,95,16,11,6,6,0.7,0.7
2026-05-14T2300,1874A,109.396,24.3658,柳州市,市九中,,43,43,32,22,17,53,53,108,91,13,8,6,5,0.8,0.7
2026-05-14T2300,1875A,109.4912,24.3164,柳州市,古亭山,,36,NA,32,25,18,33,33,100,75,27,10,4,4,0.7,0.7
2026-05-14T2300,3402A,109.5422,24.3994,柳州市,市二中,,45,38,28,31,16,19,19,108,78,48,13,26,11,0.7,0.6
2026-05-14T2300,2307A,116.5078,31.7369,六安市,监测大楼,,41,41,44,25,46,115,115,146,141,12,14,5,5,0.4,0.4
2026-05-14T2300,2308A,116.4738,31.7642,六安市,皖西学院,,39,37,49,22,42,122,122,154,149,10,12,7,6,0.3,0.4
2026-05-14T2300,2309A,116.4997,31.7904,六安市,朝阳厂,,36,34,43,25,45,111,111,139,136,14,17,7,7,0.3,0.3
2026-05-14T2300,2310A,116.5566,31.7885,六安市,开发区,,37,32,45,22,43,118,118,155,149,12,16,7,7,0.4,0.5
2026-05-14T2300,2577A,104.8293,26.592,六盘水市,黄土坡,,32,32,30,20,20,97,97,112,109,8,11,7,7,0.2,0.4
2026-05-14T2300,2579A,104.8481,26.5898,六盘水市,民中,,30,24,28,20,22,93,93,106,104,7,16,5,4,0.4,0.7
2026-05-14T2300,2580A,104.9541,26.5506,六盘水市,双水,,29,22,28,20,17,84,84,102,100,6,11,3,4,0.1,0.2
2026-05-14T2300,4151A,104.8899,26.5685,六盘水市,钟山大道中段564号,,38,38,39,17,20,93,93,106,105,5,14,4,4,0.7,0.8
2026-05-14T2300,2336A,117.022,25.1031,龙岩市,龙岩市监测站,,18,NA,6,3,3,55,55,80,68,7,8,7,5,0.4,0.5
2026-05-14T2300,2337A,117.0257,25.0662,龙岩市,闽西职业技术学院,,17,7,6,6,3,52,52,72,63,5,6,8,6,0.5,0.6
2026-05-14T2300,2338A,117.0195,25.0306,龙岩市,龙岩学院,,11,8,6,7,3,34,34,70,56,7,7,4,4,/,/
2026-05-14T2300,2885A,104.9344,33.3827,陇南市,滨江中学,,45,45,41,29,16,84,84,103,95,6,7,6,6,0.6,0.6
2026-05-14T2300,3247A,104.9551,33.3709,陇南市,市总工会,,33,33,30,16,16,80,80,99,90,7,6,5,5,0.5,0.5
2026-05-14T2300,2488A,111.9984,27.7346,娄底市,市监测站,,40,40,22,22,13,36,36,64,56,33,14,13,8,0.4,0.4
2026-05-14T2300,2491A,111.9888,27.7035,娄底市,市政府,,26,26,17,18,8,53,53,71,66,16,6,6,4,0.4,0.4
2026-05-14T2300,4127A,111.9812,27.7591,娄底市,涟钢职大,,30,30,15,9,8,45,45,73,64,15,8,2,2,0.6,0.6
2026-05-14T2300,4128A,112.0303,27.7457,娄底市,娄底体校,NA,NA,NA,23,19,11,NA,NA,69,66,11,7,4,4,0.6,0.3
2026-05-14T2300,1894A,105.4427,28.9063,泸州市,小市上码头,细颗粒物(PM2.5),115,132,80,76,50,85,85,112,110,18,18,6,8,0.6,0.7
2026-05-14T2300,1895A,105.4241,28.8573,泸州市,兰田宪桥,细颗粒物(PM2.5),172,195,107,130,70,80,80,119,110,20,20,7,7,0.9,0.7
2026-05-14T2300,1896A,105.4378,28.8833,泸州市,市环监站,细颗粒物(PM2.5),120,116,74,81,49,86,86,116,112,24,21,9,10,1.2,1
2026-05-14T2300,4272A,105.3689,28.7783,泸州市,纳溪中医医院,细颗粒物(PM2.5),147,NA,81,111,71,71,71,112,104,20,23,6,7,1.0,0.8
2026-05-14T2300,2183A,111.1447,37.5212,吕梁市,环保局,,46,46,74,27,25,98,98,142,121,18,24,6,7,0.3,0.4
2026-05-14T2300,2185A,111.1285,37.5338,吕梁市,自来水公司,,46,46,66,23,26,96,96,142,121,22,24,5,7,0.5,0.6
2026-05-14T2300,2867A,111.1225,37.5093,吕梁市,马茂庄小学,颗粒物(PM10),52,52,74,19,23,106,106,145,124,11,26,3,4,0.4,0.6
2026-05-14T2300,1812A,112.3934,34.6517,洛阳市,市委党校,细颗粒物(PM2.5),58,NA,31,39,25,86,86,113,104,21,13,7,8,0.7,0.6
2026-05-14T2300,1815A,112.494,34.6883,洛阳市,河南林校,NA,NA,NA,40,NA,22,72,72,110,NA,NA,13,10,9,NA,0.6
2026-05-14T2300,1816A,112.3843,34.623,洛阳市,开发区管委会,,48,38,30,33,24,86,86,118,102,16,10,10,12,0.5,0.5
2026-05-14T2300,1817A,112.4263,34.6249,洛阳市,市委新办公区,细颗粒物(PM2.5),64,48,33,42,26,75,75,110,98,22,12,9,10,0.3,0.2
2026-05-14T2300,3340A,112.6005,34.6323,洛阳市,伊滨,细颗粒物(PM2.5),74,66,41,47,25,58,58,107,94,27,11,8,8,0.4,0.3
2026-05-14T2300,3341A,112.495,34.6338,洛阳市,中移产业园,,50,45,29,35,24,66,66,112,101,22,10,7,8,0.8,0.6
2026-05-14T2300,3593A,112.5736,34.8993,洛阳市,吉利监测站,,46,46,38,22,23,51,51,118,97,21,12,8,10,0.4,0.4
2026-05-14T2300,3635A,112.3678,34.6623,洛阳市,河科大西苑校区,细颗粒物(PM2.5),54,37,30,37,25,93,93,122,112,23,14,9,10,0.7,0.6
2026-05-14T2300,3636A,112.4387,34.678,洛阳市,英才小学,细颗粒物(PM2.5),52,42,33,36,27,81,81,113,102,16,12,7,7,0.5,0.5
2026-05-14T2300,4214A,112.460027,34.694929,洛阳市,春都路1号院,细颗粒物(PM2.5),56,44,34,38,28,79,79,116,105,20,11,7,7,0.3,0.3
2026-05-14T2300,2399A,114.051,33.5721,漯河市,三五一五工厂,,36,36,38,19,26,77,77,112,104,24,13,7,6,0.4,0.4
2026-05-14T2300,2400A,114.0055,33.5698,漯河市,漯河大学,,42,30,31,29,32,86,86,112,106,23,15,8,6,0.5,0.5
2026-05-14T2300,2401A,114.0134,33.5826,漯河市,市水利局,,33,31,39,23,32,80,80,107,99,21,13,8,5,0.6,0.6
2026-05-14T2300,2402A,114.0261,33.5697,漯河市,市广电局,,32,32,37,21,25,80,80,110,104,21,12,7,5,0.5,0.5
2026-05-14T2300,3478A,113.9691,33.568,漯河市,市图书馆,,41,41,48,25,29,65,65,105,99,22,8,8,7,0.7,0.8
2026-05-14T2300,4250A,114.089259,33.588274,漯河市,韶山路11号,,50,50,50,27,32,50,50,101,85,31,13,10,7,0.6,0.6
2026-05-14T2300,1798A,118.5084,31.6838,马鞍山市,湖东路四小,,26,22,54,9,36,81,81,120,109,14,17,11,8,0.3,0.5
2026-05-14T2300,1799A,118.5019,31.6449,马鞍山市,开发区,,27,27,53,10,35,74,74,120,109,21,20,18,8,0.4,0.6
2026-05-14T2300,3633A,118.4914,31.681,马鞍山市,雨山,,26,14,43,12,23,81,81,120,111,18,18,9,6,0.4,0.6
2026-05-14T2300,4191A,118.527362,31.722269,马鞍山市,慈湖高新区,,25,22,58,10,35,79,79,120,110,20,20,11,7,0.4,0.6
2026-05-14T2300,1686A,111.0285,21.469,茂名市,电白南海,,29,29,25,11,12,54,54,87,80,8,7,5,5,0.8,0.8
2026-05-14T2300,1687A,110.9294,21.6533,茂名市,茂石化七小,,38,31,29,26,16,46,46,81,67,12,9,7,6,0.6,0.5
2026-05-14T2300,1688A,110.9108,21.6688,茂名市,健康路,,33,NA,21,23,14,52,52,84,NA,10,8,15,5,0.6,0.7
2026-05-14T2300,1689A,110.8592,21.6826,茂名市,高岭,,35,31,31,24,17,54,54,92,80,9,8,6,4,/,/
2026-05-14T2300,3450A,111.0101,21.5165,茂名市,电白水东,,24,24,17,10,12,49,49,77,71,6,6,2,3,/,/
2026-05-14T2300,2540A,103.8414,30.0871,眉山市,气象局,颗粒物(PM10),65,71,66,34,40,44,44,91,72,38,35,6,5,0.8,0.7
2026-05-14T2300,3148A,103.829,30.0563,眉山市,区人社局,细颗粒物(PM2.5),60,58,66,40,48,41,41,91,68,35,33,6,7,0.5,0.5
2026-05-14T2300,4148A,103.8836,30.0695,眉山市,眉职院,颗粒物(PM10),65,70,76,36,40,48,48,89,75,24,25,8,9,0.8,0.8
2026-05-14T2300,1690A,116.1248,24.3307,梅州市,梅江月梅,,14,6,16,3,6,43,43,65,52,5,9,/,/,/,/
2026-05-14T2300,1691A,116.0798,24.2719,梅州市,梅县新城,,11,8,13,3,6,33,33,72,50,14,12,8,8,0.4,0.4
2026-05-14T2300,3315A,116.1234,24.2994,梅州市,梅龙,,16,6,10,3,5,49,49,70,56,5,7,6,6,0.4,0.5
2026-05-14T2300,1878A,104.7775,31.4741,绵阳市,富乐山,细颗粒物(PM2.5),72,55,51,46,34,80,80,103,100,23,20,10,8,0.8,0.8
2026-05-14T2300,1880A,104.6698,31.4668,绵阳市,高新区自来水公司,细颗粒物(PM2.5),103,97,63,63,38,65,65,98,92,27,30,10,8,0.8,0.7
2026-05-14T2300,3491A,104.6899,31.5324,绵阳市,西科大附属小学,颗粒物(PM10),72,80,67,40,41,63,63,101,92,27,28,11,6,0.6,0.6
2026-05-14T2300,3492A,104.5647,31.5343,绵阳市,安州区旅游局,颗粒物(PM10),75,85,73,38,44,76,76,105,98,11,16,9,5,0.8,0.8
2026-05-14T2300,4146A,104.7092,31.4972,绵阳市,科技城新区公安局,细颗粒物(PM2.5),84,91,64,52,39,59,59,96,89,34,26,9,6,0.7,0.7
2026-05-14T2300,4226A,104.765114,31.453094,绵阳市,绵阳市气象局,细颗粒物(PM2.5),80,81,56,50,34,66,66,92,89,38,30,10,8,0.6,0.5
2026-05-14T2300,1784A,129.61,44.561,牡丹江市,环保大楼,,31,31,24,14,14,77,77,129,108,13,10,3,4,0.2,0.2
2026-05-14T2300,1787A,129.6364,44.6075,牡丹江市,机车工厂,,40,39,39,28,22,58,58,123,102,24,14,8,8,0.3,0.3
2026-05-14T2300,1788A,129.6386,44.5462,牡丹江市,第一中学,,37,37,26,15,14,51,51,125,94,21,10,4,4,0.4,0.4
2026-05-14T2300,4287A,129.5992,44.5964,牡丹江市,东晓云街98号,,40,40,32,16,19,49,49,125,96,16,11,5,5,0.3,0.2
2026-05-14T2300,2531A,105.0703,29.61,内江市,市监测站,细颗粒物(PM2.5),130,109,55,93,49,83,83,121,117,22,18,12,12,0.6,0.4
2026-05-14T2300,2533A,105.0657,29.5807,内江市,内江二中,细颗粒物(PM2.5),127,102,64,89,52,77,77,117,112,29,22,9,8,0.6,0.5
2026-05-14T2300,2534A,105.0407,29.5828,内江市,内江日报社,细颗粒物(PM2.5),119,NA,57,80,50,85,85,128,120,23,18,14,14,0.7,0.5
2026-05-14T2300,4147A,105.0433,29.6105,内江市,玉峰路西段888号,细颗粒物(PM2.5),123,NA,53,85,49,78,78,119,115,28,20,12,11,0.7,0.6
2026-05-14T2300,2628A,92.0653,31.4846,那曲市,那曲监测站,,32,23,30,20,19,101,101,109,107,12,14,20,20,0.7,0.8
2026-05-14T2300,4243A,92.0515,31.4787,那曲市,那曲市委宣传部,,30,NA,17,19,13,94,94,104,102,13,12,7,7,0.6,0.6
2026-05-14T2300,1291A,115.8887,28.7006,南昌市,省林业公司,,26,NA,12,18,14,39,39,70,62,17,11,3,3,0.6,0.5
2026-05-14T2300,1292A,115.813,28.7443,南昌市,林科所,,20,NA,15,14,13,39,39,66,55,2,7,7,7,0.5,0.4
2026-05-14T2300,1294A,115.8518,28.687,南昌市,建工学校,,22,17,15,15,14,47,47,70,63,11,6,6,6,0.8,0.7
2026-05-14T2300,1295A,115.8926,28.6425,南昌市,象湖,,30,NA,7,21,15,42,42,72,60,17,11,7,7,0.6,0.6
2026-05-14T2300,3046A,115.9084,28.6062,南昌市,机电学校,,29,22,22,20,17,41,41,76,62,13,12,4,5,0.6,0.6
2026-05-14T2300,3690A,115.9718,28.7032,南昌市,外国语学校,,29,NA,15,20,16,43,43,68,61,15,8,9,9,0.7,0.7
2026-05-14T2300,4106A,115.7923,28.6873,南昌市,工业二路,NA,NA,33,24,18,16,NA,NA,70,64,27,7,5,5,0.6,0.6
2026-05-14T2300,4192A,115.931587,28.686774,南昌市,南京东路235号,,29,NA,13,20,14,48,48,73,65,13,9,6,6,0.6,0.5
2026-05-14T2300,1906A,106.0791,30.8022,南充市,南充市委,细颗粒物(PM2.5),106,84,73,66,54,34,34,106,86,35,18,6,6,0.6,0.6
2026-05-14T2300,1907A,106.1038,30.8215,南充市,南充炼油厂,细颗粒物(PM2.5),96,95,75,58,54,57,57,110,100,30,19,6,6,0.5,0.5
2026-05-14T2300,4227A,106.108336,30.788436,南充市,梨树横街98号,细颗粒物(PM2.5),96,80,74,58,56,50,50,114,101,41,24,7,7,0.8,0.7
2026-05-14T2300,4304A,106.1172,30.843,南充市,清泉寺北路188号,细颗粒物(PM2.5),110,88,77,71,56,81,81,110,107,16,15,9,9,0.5,0.5
2026-05-14T2300,4305A,106.067,30.7616,南充市,同庆路1号,细颗粒物(PM2.5),102,80,71,62,57,32,32,112,89,48,23,7,7,0.8,0.6
2026-05-14T2300,1151A,118.8033,32.1085,南京市,迈皋桥,,28,28,49,12,26,84,84,138,122,21,22,2,4,0.2,0.3
2026-05-14T2300,1152A,118.7487,32.057,南京市,草场门,,39,39,42,14,28,84,84,131,118,16,19,5,6,0.4,0.6
2026-05-14T2300,1154A,118.770105,32.004342,南京市,中华门,,29,29,41,16,27,73,73,122,109,10,14,7,7,0.4,0.5
2026-05-14T2300,1155A,118.8059,32.0329,南京市,瑞金路,,36,36,48,11,26,72,72,120,107,14,19,11,11,0.6,0.9
2026-05-14T2300,1156A,118.7946,32.0774,南京市,玄武湖,,38,38,43,11,24,70,70,109,99,16,17,4,5,0.0,0.2
2026-05-14T2300,1157A,118.6415,32.0964,南京市,浦口,,36,36,43,13,28,74,74,119,108,20,31,4,5,0.3,0.5
2026-05-14T2300,1158A,118.730129,32.000956,南京市,奥体中心,,44,44,49,11,23,58,58,109,96,22,22,10,11,0.5,0.6
2026-05-14T2300,1159A,118.9072,32.1047,南京市,仙林大学城,,46,46,52,12,26,80,80,134,116,16,19,10,11,0.6,0.8
2026-05-14T2300,3422A,118.8443,31.919,南京市,江宁彩虹桥,,34,34,41,12,21,75,75,122,111,14,16,5,4,0.5,0.6
2026-05-14T2300,3427A,118.8497,32.3599,南京市,六合雄州,,37,37,47,15,27,41,41,145,106,39,25,4,4,0.7,0.8
2026-05-14T2300,4086A,118.7641,32.0841,南京市,新模范马路66号,,36,36,51,9,21,89,89,138,125,14,18,4,3,0.4,0.6
2026-05-14T2300,4249A,118.8707617,31.34017673,南京市,汶溪路181号,,30,29,38,3,20,96,96,109,108,11,15,6,10,0.1,0.2
2026-05-14T2300,4312A,119.019,31.6512,南京市,中山西路1号,,24,24,31,7,19,67,67,92,86,16,18,4,4,0.4,0.5
2026-05-14T2300,1401A,108.3098,22.788,南宁市,二十一中,,40,38,33,28,22,78,78,107,98,10,9,2,2,0.6,0.5
2026-05-14T2300,1402A,108.3135,22.8529,南宁市,北湖,NA,NA,NA,39,40,21,86,86,124,109,NA,4,5,4,0.6,0.4
2026-05-14T2300,1403A,108.3205,22.8222,南宁市,市监测站,颗粒物(PM10),51,51,40,28,22,92,92,123,112,6,5,2,1,0.7,0.7
2026-05-14T2300,1404A,108.3828,22.8038,南宁市,大自然花园,颗粒物(PM10),54,55,34,31,18,82,82,111,NA,13,8,5,4,0.5,0.5
2026-05-14T2300,1406A,108.2397,22.8462,南宁市,区农职院,颗粒物(PM10),53,54,37,29,22,82,82,120,106,8,7,3,2,0.7,0.6
2026-05-14T2300,1407A,108.3285,22.7356,南宁市,英华嘉园,,41,41,36,25,20,83,83,112,105,9,11,4,4,0.6,0.6
2026-05-14T2300,3401A,108.4829,22.762,南宁市,红星社区,,43,40,32,30,19,86,86,108,104,9,8,6,5,0.6,0.5
2026-05-14T2300,4132A,108.2927,23.1477,南宁市,起凤路9号,,49,49,39,33,25,80,80,134,116,12,12,5,5,0.6,0.6
2026-05-14T2300,4221A,108.2177,22.7774,南宁市,乐贤路16号,颗粒物(PM10),52,52,43,32,22,70,70,118,100,18,10,6,5,0.8,0.8
2026-05-14T2300,2332A,118.1682,26.6371,南平市,南平市监测站,,15,14,11,10,7,14,14,65,42,17,8,6,5,0.5,0.4
2026-05-14T2300,2334A,118.1757,26.6276,南平市,南平七中,,13,13,13,9,5,12,12,58,41,13,7,3,3,0.6,0.5
2026-05-14T2300,1168A,120.9056,31.9669,南通市,狼山街道,,27,12,18,6,7,85,85,96,86,6,8,4,4,0.5,0.5
2026-05-14T2300,1170A,120.8635,32.0231,南通市,城中,,25,16,24,3,8,78,78,92,83,8,6,4,3,0.4,0.4
2026-05-14T2300,1171A,120.9376,31.9301,南通市,星湖花园,,26,16,17,6,8,82,82,91,81,10,11,3,3,0.4,0.4
2026-05-14T2300,1172A,120.8053,32.046,南通市,紫琅学院,,25,9,14,6,9,80,80,90,80,4,7,4,4,0.5,0.6
2026-05-14T2300,3291A,121.0631,32.0644,南通市,通州监测站,,27,17,19,8,6,85,85,95,87,2,3,3,4,0.5,0.5
2026-05-14T2300,3432A,120.9348,31.9874,南通市,环境教育馆,,41,41,24,7,8,74,74,92,82,11,13,4,4,0.4,0.5
2026-05-14T2300,4091A,120.8692,31.9885,南通市,洪江路,,26,15,18,8,8,82,82,92,82,7,9,3,4,0.7,0.7
2026-05-14T2300,2404A,112.5338,33.0086,南阳市,瓦房庄,,31,31,24,14,13,71,71,93,91,8,5,4,4,0.4,0.3
2026-05-14T2300,2405A,112.5002,32.9734,南阳市,汉画馆,,39,39,27,20,11,62,62,85,84,10,7,5,4,0.5,0.4
2026-05-14T2300,2406A,112.5778,33.0144,南阳市,气象站,,35,35,18,18,13,62,62,84,82,6,3,6,5,0.2,0.2
2026-05-14T2300,2407A,112.548,32.9687,南阳市,理工学院,,33,33,23,15,14,78,78,93,93,8,6,5,5,0.3,0.3
2026-05-14T2300,4008A,112.5233,32.9921,南阳市,卧龙区政府,,29,29,21,15,13,71,71,92,91,9,7,7,6,0.5,0.4
2026-05-14T2300,1234A,121.8352,29.9111,宁波市,区环保大楼,,40,40,23,19,8,38,38,58,27,44,29,7,6,2.2,0.5
2026-05-14T2300,1235A,121.5595,29.8208,宁波市,万里学院,,22,18,17,15,8,60,60,73,62,19,11,3,4,0.5,0.4
2026-05-14T2300,1236A,121.713,29.9564,宁波市,龙赛医院,,42,42,22,23,9,28,28,74,20,45,24,10,7,0.3,0.3
2026-05-14T2300,1240A,121.5855,29.8635,宁波市,太古小学,,41,41,20,25,8,37,37,67,56,36,11,3,3,0.6,0.6
2026-05-14T2300,1241A,121.5239,29.8673,宁波市,市环境监测中心,,25,25,18,14,9,64,64,66,60,19,15,10,9,0.4,0.4
2026-05-14T2300,2871A,121.6156,29.9015,宁波市,万里国际学校,,36,36,18,23,8,13,13,76,57,65,13,8,5,0.5,0.3
2026-05-14T2300,3710A,121.5593,29.8976,宁波市,白沙活动中心,,33,21,15,21,7,16,16,73,56,65,15,8,6,0.3,0.2
2026-05-14T2300,4095A,121.8962,29.7529,宁波市,中科路88号,,27,26,13,11,3,86,86,76,66,13,13,6,7,0.4,0.3
2026-05-14T2300,2341A,119.5387,26.6611,宁德市,宁德市监测站,,32,32,30,3,18,82,82,71,65,17,23,8,8,0.4,0.8
2026-05-14T2300,3209A,119.5231,26.6562,宁德市,宁德一中,,28,NA,18,3,20,88,88,76,66,9,16,8,7,0.3,0.7
2026-05-14T2300,2618A,98.859,25.8541,怒江傈僳族自治州,州监测站,细颗粒物(PM2.5),68,NA,28,44,23,56,56,99,87,17,12,6,6,0.5,0.4
2026-05-14T2300,2619A,98.8607,25.8168,怒江傈僳族自治州,泸水一中,NA,NA,NA,32,40,27,39,39,78,64,23,19,NA,5,0.6,0.5
2026-05-14T2300,1888A,101.6891,26.571,攀枝花市,弄弄坪,,43,43,40,14,15,64,64,101,86,14,22,3,5,0.5,0.7
2026-05-14T2300,1889A,101.577,26.5914,攀枝花市,河门口,,32,32,33,21,17,59,59,113,96,16,16,7,26,0.5,0.7
2026-05-14T2300,1891A,101.7365,26.4986,攀枝花市,仁和,"颗粒物(PM10),细颗粒物(PM2.5)",60,64,28,40,16,39,39,93,77,12,11,6,7,0.5,0.4
2026-05-14T2300,2835A,101.7222,26.567,攀枝花市,四十中小,,29,29,31,16,16,67,67,102,83,21,19,8,13,0.8,0.7
2026-05-14T2300,1604A,122.0303,41.1489,盘锦市,开发区,,35,17,32,14,21,112,112,133,124,8,12,8,9,0.4,0.6
2026-05-14T2300,1605A,122.0486,41.0883,盘锦市,兴隆台,,42,NA,31,29,39,93,93,118,NA,12,17,7,9,0.5,0.8
2026-05-14T2300,1606A,121.8297,41.1026,盘锦市,新生街道,,35,NA,24,24,32,108,108,121,116,13,16,7,8,0.3,0.4
2026-05-14T2300,1832A,113.3257,33.7423,平顶山市,新华旅馆,,49,49,33,26,21,59,59,104,94,26,12,5,3,0.7,0.6
2026-05-14T2300,1833A,113.2917,33.737,平顶山市,规划设计院,NA,NA,NA,69,22,22,68,68,102,92,11,8,8,8,0.7,0.7
2026-05-14T2300,1834A,113.182,33.7738,平顶山市,平顶山工学院,,34,34,21,21,23,91,91,102,100,9,6,6,5,0.4,0.5
2026-05-14T2300,3594A,112.8736,33.9068,平顶山市,石龙区,,45,45,28,31,23,68,68,102,82,14,8,9,8,0.6,0.6
2026-05-14T2300,4116A,113.284,33.7139,平顶山市,姚电大道23号,,43,43,27,29,22,66,66,106,99,19,10,7,6,0.5,0.5
2026-05-14T2300,2656A,106.6633,35.5338,平凉市,聚贤嘉苑,颗粒物(PM10),180,309,240,108,79,84,84,99,94,11,12,9,10,0.4,0.5
2026-05-14T2300,2657A,106.7021,35.5307,平凉市,博物馆,颗粒物(PM10),158,265,208,114,92,80,80,101,96,12,10,9,10,0.4,0.5
2026-05-14T2300,2348A,113.8384,27.6436,萍乡市,中医院,,30,30,20,21,13,66,66,85,77,10,10,8,6,0.6,0.6
2026-05-14T2300,2350A,113.8677,27.6438,萍乡市,市环保局,NA,NA,31,23,24,17,64,64,82,74,10,11,NA,18,0.4,0.6
2026-05-14T2300,2351A,113.8663,27.6202,萍乡市,安源区政府,,32,31,23,22,16,62,62,84,75,11,10,11,8,0.6,0.6
2026-05-14T2300,4107A,113.8686,27.6668,萍乡市,联洪村委会,,36,33,22,25,11,67,67,77,73,7,8,7,6,0.4,0.4
2026-05-14T2300,2319A,119.0142,25.4324,莆田市,荔城区仓后路,,38,NA,15,26,9,54,54,63,57,17,12,/,/,/,/
2026-05-14T2300,2320A,119.0016,25.4553,莆田市,莆田市监测站,,36,NA,12,25,7,54,54,62,56,14,7,3,2,0.5,0.5
2026-05-14T2300,2321A,119.112,25.4561,莆田市,涵江区六中,,38,NA,14,26,10,65,65,75,70,16,16,/,/,0.8,0.6
2026-05-14T2300,2322A,119.1014,25.3215,莆田市,秀屿区政府,,43,NA,15,30,10,79,79,77,75,6,9,4,4,0.5,0.6
2026-05-14T2300,2392A,115.0312,35.7636,濮阳市,环保局,细颗粒物(PM2.5),80,63,66,50,44,162,162,186,181,17,15,5,5,0.8,0.8
2026-05-14T2300,3021A,115,35.7667,濮阳市,濮水河管理处,细颗粒物(PM2.5),76,72,61,48,42,166,166,177,174,16,14,4,3,0.9,0.9
2026-05-14T2300,4118A,115.0552,35.7816,濮阳市,中原东路68号,"颗粒物(PM10),臭氧1小时(O3_1h)",74,83,83,36,41,179,179,198,193,13,13,5,5,0.5,0.5
2026-05-14T2300,4216A,115.0923632,35.76857718,濮阳市,任丘路479号,颗粒物(PM10),73,82,76,46,46,169,169,197,188,11,12,4,3,1.1,0.9
2026-05-14T2300,2601A,100.9801,22.7634,普洱市,市环保局,,48,48,40,19,18,67,67,99,90,6,9,5,5,0.7,0.7
2026-05-14T2300,2602A,100.9763,22.8237,普洱市,普洱第二中学,颗粒物(PM10),58,60,42,32,17,38,38,100,81,25,13,6,6,0.8,0.7
2026-05-14T2300,3345A,131.0413,45.7795,七台河市,中波台,细颗粒物(PM2.5),62,54,51,41,24,112,112,130,119,13,12,3,4,0.3,0.3
2026-05-14T2300,3637A,131.0136,45.7688,七台河市,人民广场,颗粒物(PM10),55,56,41,21,13,73,73,129,108,22,15,9,9,0.6,0.5
2026-05-14T2300,3684A,130.8639,45.8144,七台河市,新建矿广场,,39,39,43,26,19,75,75,124,103,21,17,5,7,0.5,0.4
2026-05-14T2300,1779A,123.9307,47.3641,齐齐哈尔市,安居小区,NA,NA,NA,59,NA,27,NA,NA,108,NA,NA,8,NA,9,NA,0.7
2026-05-14T2300,1780A,123.9497,47.3389,齐齐哈尔市,中心广场,NA,NA,66,159,3,36,65,65,172,86,NA,7,8,11,0.1,0.4
2026-05-14T2300,1781A,123.9483,47.3229,齐齐哈尔市,农牧车辆厂,颗粒物(PM10),58,61,140,3,27,65,65,174,90,3,10,5,7,0.2,0.2
2026-05-14T2300,1783A,123.9442,47.2994,齐齐哈尔市,市环境监测站,颗粒物(PM10),62,66,147,9,36,61,61,167,86,5,9,3,5,0.3,0.5
2026-05-14T2300,3662A,123.6341,47.2079,齐齐哈尔市,富区青少年活动中心,颗粒物(PM10),55,56,150,14,35,66,66,168,96,2,9,3,6,0.3,0.5
2026-05-14T2300,2591A,107.9765,26.5724,黔东南苗族侗族自治州,市环境监测站,,46,32,31,32,24,36,36,47,44,6,4,2,3,0.7,0.6
2026-05-14T2300,2881A,107.8909,26.531,黔东南苗族侗族自治州,凯里学院,,35,34,33,24,22,40,40,54,50,6,5,2,1,0.6,0.6
2026-05-14T2300,2593A,107.5223,26.2371,黔南布依族苗族自治州,小围寨,,49,36,44,34,26,18,18,57,48,9,10,5,5,0.5,0.4
2026-05-14T2300,3538A,107.5175,26.2977,黔南布依族苗族自治州,沙坝,,48,34,35,33,25,16,16,58,46,10,7,4,4,0.8,0.7
2026-05-14T2300,2589A,104.9022,25.0943,黔西南布依族苗族自治州,场坝街,,28,23,22,19,13,83,83,102,99,5,9,7,9,0.4,0.4
2026-05-14T2300,2590A,104.8812,25.0994,黔西南布依族苗族自治州,坪东大道,,38,26,23,26,15,82,82,97,93,6,12,5,5,0.4,0.4
2026-05-14T2300,2502A,108.6238,21.9667,钦州市,市环保站,,39,39,37,19,14,71,71,99,91,11,8,2,3,0.6,0.6
2026-05-14T2300,2503A,108.655,21.9481,钦州市,沙埠小学,,44,44,41,23,22,70,70,101,86,11,7,1,2,0.6,0.6
2026-05-14T2300,2504A,108.5989,21.7435,钦州市,港区一小,,46,46,47,20,19,98,98,87,87,10,10,2,3,0.5,0.6
2026-05-14T2300,3404A,108.5959,21.9634,钦州市,北职校,,42,42,40,22,19,66,66,99,87,14,8,6,4,0.6,0.6
2026-05-14T2300,1046A,119.5247,39.9346,秦皇岛市,建设大厦,颗粒物(PM10),52,52,50,32,26,19,19,122,104,94,10,5,5,0.4,0.3
2026-05-14T2300,3132A,119.5979,39.938,秦皇岛市,文明里,颗粒物(PM10),64,69,53,30,27,86,86,123,116,29,11,10,9,0.3,0.2
2026-05-14T2300,4066A,119.7458,39.9952,秦皇岛市,南园路157号,颗粒物(PM10),59,62,46,28,22,70,70,120,113,42,19,6,7,0.3,0.2
2026-05-14T2300,4067A,119.5131,39.8858,秦皇岛市,翠岛大街1号,,42,42,37,24,20,105,105,121,119,19,12,9,9,0.3,0.3
2026-05-14T2300,4198A,119.509013,39.825305,秦皇岛市,北戴河轮滑馆,,39,39,39,14,17,116,116,120,120,14,10,7,8,0.2,0.3
2026-05-14T2300,1310A,120.404,36.0625,青岛市,市南区东部子站,,30,12,21,10,11,96,96,115,96,4,7,4,5,0.4,0.4
2026-05-14T2300,1311A,120.362344,36.10282,青岛市,四方区子站,,36,19,22,12,13,113,113,134,114,7,10,5,6,0.4,0.5
2026-05-14T2300,1312A,120.294373,36.054183,青岛市,市南区西部子站,,31,19,22,8,12,98,98,113,90,7,17,4,4,0.4,0.4
2026-05-14T2300,1313A,120.4581,36.0858,青岛市,崂山区子站,,35,12,15,8,11,110,110,131,110,7,7,8,8,0.3,0.3
2026-05-14T2300,1315A,120.3945,36.3083,青岛市,城阳区子站,,32,14,25,7,13,102,102,123,113,7,10,5,6,0.6,0.7
2026-05-14T2300,3642A,120.3454,36.0735,青岛市,市北区南部,,35,21,23,10,12,110,110,132,111,2,5,3,4,0.5,0.6
2026-05-14T2300,3643A,120.3897,36.18,青岛市,李沧区北部,,30,17,22,9,12,96,96,113,100,8,10,8,8,0.4,0.5
2026-05-14T2300,4110A,120.5222,36.4089,青岛市,盟旺路653号,,35,19,20,10,13,110,110,124,115,1,2,4,4,0.5,0.5
2026-05-14T2300,4290A,120.196923,35.954556,青岛市,珠江路669号,,30,19,22,13,13,95,95,135,107,11,10,4,4,0.5,0.5
2026-05-14T2300,4291A,120.0424,35.8656,青岛市,黄岛区人民政府广场,,31,9,18,8,9,98,98,131,110,13,13,8,8,0.5,0.5
2026-05-14T2300,1703A,113.0218,23.7086,清远市,凤城街办,,16,16,22,9,12,35,35,75,57,18,22,/,/,/,/
2026-05-14T2300,3025A,113.0479,23.6343,清远市,技师学院,,32,32,20,16,10,14,14,81,50,38,21,10,5,0.3,0.3
2026-05-14T2300,3318A,112.9898,23.7403,清远市,清新太和,NA,NA,14,23,9,13,NA,NA,78,68,20,18,6,9,0.5,0.5
2026-05-14T2300,3455A,113.076,23.72,清远市,清城东城,,15,15,20,3,8,41,41,76,61,14,19,/,/,/,/
2026-05-14T2300,2661A,107.6325,35.7357,庆阳市,庆阳五中,,44,44,39,20,19,74,74,96,87,8,8,4,4,0.4,0.4
2026-05-14T2300,2662A,107.6361,35.7067,庆阳市,市环保局,,47,47,40,25,21,91,91,109,100,12,11,4,4,0.5,0.4
2026-05-14T2300,1916A,103.7897,25.5036,曲靖市,环境监测站,,32,32,25,19,12,88,88,128,116,15,10,5,5,0.4,0.4
2026-05-14T2300,1917A,103.8013,25.5357,曲靖市,烟厂办公区,,30,30,25,16,13,81,81,120,111,11,12,6,7,0.4,0.4
2026-05-14T2300,3376A,103.7926,25.4651,曲靖市,南苑二区,,26,20,20,13,11,81,81,116,106,11,11,4,4,0.2,0.3
2026-05-14T2300,3377A,103.7442,25.5259,曲靖市,曲靖师范学院,,33,33,28,16,15,77,77,124,113,18,14,3,6,0.4,0.4
2026-05-14T2300,1264A,118.8694,28.94,衢州市,环保大楼,NA,NA,11,21,7,14,NA,NA,77,77,12,14,/,/,/,/
2026-05-14T2300,1266A,118.8622,28.9809,衢州市,衢州学院,,24,9,20,3,15,74,74,78,78,18,17,5,6,0.3,0.4
2026-05-14T2300,4097A,118.9646,28.9832,衢州市,衢州三中,,23,12,21,9,16,71,71,73,73,16,19,7,7,0.5,0.6
2026-05-14T2300,1611A,118.5818,24.9116,泉州市,涂山街,,18,14,10,12,8,54,54,60,53,11,16,3,3,0.4,0.6
2026-05-14T2300,1612A,118.597,24.8976,泉州市,津头埔,,28,NA,9,19,9,34,34,64,46,32,17,2,2,0.7,0.6
2026-05-14T2300,1613A,118.6669,24.9422,泉州市,万安,,23,20,11,16,8,44,44,66,55,12,12,3,3,0.3,0.4
2026-05-14T2300,4105A,118.6355,24.9148,泉州市,霞新路6号,,23,18,11,16,8,26,26,59,48,33,23,/,/,0.5,0.6
2026-05-14T2300,2626A,88.8873,29.2723,日喀则市,日喀则监测站,,32,20,21,7,6,101,101,116,115,9,5,8,8,0.5,0.5
2026-05-14T2300,3726A,88.8775,29.2425,日喀则市,林业技术推广中心,,37,24,25,6,2,118,118,123,123,2,3,8,8,0.3,0.3
2026-05-14T2300,1659A,119.4711,35.421,日照市,监测站,,34,24,13,14,12,107,107,132,106,8,10,7,7,0.3,0.3
2026-05-14T2300,1660A,119.523,35.4216,日照市,市政府广场,,33,12,17,11,11,104,104,128,104,6,8,4,4,0.6,0.6
2026-05-14T2300,1661A,119.5511,35.4113,日照市,港务局,,35,22,20,8,10,112,112,137,111,6,6,4,4,0.6,0.6
2026-05-14T2300,3507A,119.5326,35.4627,日照市,职业技术学院,,35,19,20,11,11,110,110,132,108,8,11,6,6,0.5,0.5
2026-05-14T2300,3604A,119.3267,35.1043,日照市,岚山环保分局,,33,27,25,9,14,104,104,128,104,12,12,8,8,0.5,0.5
2026-05-14T2300,1835A,111.1922,34.7752,三门峡市,市政府,,43,34,30,30,17,81,81,93,86,11,8,8,8,0.5,0.5
2026-05-14T2300,1836A,111.1588,34.794,三门峡市,开发区,,42,42,33,26,22,68,68,96,87,14,11,9,8,0.6,0.5
2026-05-14T2300,3039A,111.1911,34.7829,三门峡市,三门峡市第一小学,,33,32,33,23,20,83,83,92,86,11,8,9,8,0.5,0.4
2026-05-14T2300,3598A,111.1031,34.719,三门峡市,富达温泉假日酒店,颗粒物(PM10),52,52,42,24,21,35,35,89,72,20,10,7,8,0.3,0.5
2026-05-14T2300,2324A,117.621,26.2626,三明市,三钢,,25,25,16,10,11,12,12,87,54,24,17,5,6,0.7,0.9
2026-05-14T2300,2325A,117.6352,26.2714,三明市,三明二中,,29,29,16,12,11,17,17,85,58,20,13,4,4,0.6,0.8
2026-05-14T2300,2326A,117.6028,26.2377,三明市,三元区政府,,31,31,20,18,14,3,3,83,48,32,20,6,9,1.4,1.6
2026-05-14T2300,1877A,109.4962,18.2682,三亚市,河西子站,NA,NA,24,25,17,15,60,60,67,67,NA,3,3,3,0.3,0.3
2026-05-14T2300,3540A,109.7348,18.3443,三亚市,君悦子站,,18,18,23,12,12,53,53,67,64,3,6,3,3,0.4,0.4
2026-05-14T2300,4135A,109.1714,18.3739,三亚市,城东小学站,,36,36,29,17,16,56,56,85,79,5,7,/,/,/,/
2026-05-14T2300,2624A,91.7592,29.234,山南市,山南监测站,,39,6,5,3,3,122,122,120,120,3,4,10,9,0.3,0.3
2026-05-14T2300,2625A,91.7701,29.2436,山南市,山南人民医院,,38,7,10,7,3,121,121,119,119,2,3,9,8,0.2,0.2
2026-05-14T2300,1674A,116.6795,23.3666,汕头市,金平子站,,17,16,9,7,4,53,53,63,59,7,9,4,4,0.6,0.7
2026-05-14T2300,1675A,116.7248,23.3632,汕头市,龙湖子站,,17,15,10,6,5,52,52,62,58,2,5,5,6,/,/
2026-05-14T2300,1676A,116.7257,23.2774,汕头市,濠江子站,,18,18,12,6,5,45,45,61,54,9,13,7,7,/,/
2026-05-14T2300,1677A,116.7518,23.4712,汕头市,澄海子站,,16,11,14,3,6,51,51,60,55,8,10,5,5,0.8,0.7
2026-05-14T2300,1678A,116.6088,23.2539,汕头市,潮阳子站,,18,18,11,3,6,56,56,67,59,2,4,6,6,0.4,0.5
2026-05-14T2300,3444A,116.4539,23.2684,汕头市,潮南峡山,,15,9,6,3,3,47,47,58,54,3,2,6,6,0.5,0.7
2026-05-14T2300,3624A,116.4069,23.2533,汕头市,潮南子站,,13,9,6,7,2,41,41,50,43,14,8,6,5,/,/
2026-05-14T2300,1693A,115.3653,22.7751,汕尾市,市环保局,,14,7,18,3,5,42,42,58,48,4,4,5,5,0.4,0.5
2026-05-14T2300,1695A,115.362,22.7926,汕尾市,新城中学,,12,NA,15,7,5,37,37,64,51,6,4,6,6,0.4,0.4
2026-05-14T2300,2645A,109.9155,33.8714,商洛市,监测站,,24,24,22,12,12,52,52,88,71,20,7,5,5,0.8,0.6
2026-05-14T2300,3045A,109.9647,33.8486,商洛市,商州区中学,,25,25,27,12,12,61,61,90,68,18,13,6,5,0.6,0.4
2026-05-14T2300,2408A,115.6701,34.4283,商丘市,环境监测站,颗粒物(PM10),64,69,74,31,34,115,115,190,162,8,7,3,5,0.5,0.6
2026-05-14T2300,2409A,115.6458,34.4047,商丘市,粮食局,颗粒物(PM10),60,64,68,30,40,109,109,185,149,10,11,6,7,0.4,0.6
2026-05-14T2300,3171A,115.6069,34.4465,商丘市,梁园区档案局,颗粒物(PM10),61,65,67,30,39,112,112,184,152,9,9,3,3,0.6,0.8
2026-05-14T2300,4119A,115.6701,34.3767,商丘市,北海东路185号,颗粒物(PM10),68,75,67,29,42,110,110,191,150,10,8,4,5,0.5,0.7
2026-05-14T2300,4120A,115.6172,34.3704,商丘市,中山大街3号,颗粒物(PM10),79,90,75,33,39,102,102,188,144,16,11,6,7,0.4,0.6
2026-05-14T2300,1141A,121.401,31.2382,上海市,普陀,,27,26,20,13,12,84,84,88,NA,13,12,5,5,0.3,0.3
2026-05-14T2300,1142A,121.4774,31.2043,上海市,十五厂,,25,24,20,16,13,80,80,84,76,10,12,5,5,0.5,0.5
2026-05-14T2300,1143A,121.4673,31.3011,上海市,虹口,,35,35,22,15,12,75,75,81,72,14,12,4,4,0.7,0.7
2026-05-14T2300,1147A,121.4253,31.226,上海市,静安监测站,,27,26,18,13,12,85,85,88,80,13,13,8,8,0.6,0.6
2026-05-14T2300,1148A,121.7029,31.1905,上海市,浦东川沙,,28,28,22,13,11,71,71,86,79,25,20,9,8,0.5,0.5
2026-05-14T2300,1149A,121.5339,31.229,上海市,浦东新区监测站,,24,24,17,11,10,75,75,79,72,12,12,6,6,0.4,0.4
2026-05-14T2300,1150A,121.5776,31.2038,上海市,浦东张江,,27,25,19,12,11,84,84,84,80,11,12,6,6,0.0,0.1
2026-05-14T2300,3265A,121.4242,31.3303,上海市,宝山庙行,,30,30,25,15,12,79,79,84,74,10,10,7,7,0.2,0.2
2026-05-14T2300,3266A,121.8789,31.4662,上海市,崇明上实东滩,,27,15,12,9,7,85,85,105,97,8,8,5,5,0.1,0.2
2026-05-14T2300,3268A,121.316,31.2839,上海市,嘉定南翔,,25,18,16,11,10,80,80,86,76,7,8,5,5,0.3,0.3
2026-05-14T2300,3269A,121.3357,30.7455,上海市,金山新城,,22,22,15,12,9,58,58,84,69,18,10,4,4,0.5,0.5
2026-05-14T2300,3270A,121.4996,31.0741,上海市,闵行浦江,,26,20,17,10,10,81,81,80,78,8,11,6,6,0.2,0.2
2026-05-14T2300,3271A,121.2886,31.1663,上海市,青浦徐泾,,30,17,15,13,10,94,94,99,84,7,9,5,5,0.3,0.3
2026-05-14T2300,3272A,121.2193,31.0382,上海市,松江图书馆,,27,27,25,13,13,78,78,88,75,10,11,6,7,0.4,0.4
2026-05-14T2300,3273A,121.3904,31.206,上海市,长宁仙霞,,27,17,18,12,11,85,85,83,77,9,12,5,5,0.1,0.2
2026-05-14T2300,3274A,121.7964,31.0507,上海市,浦东惠南,,28,18,15,9,9,88,88,95,93,9,10,7,7,0.5,0.5
2026-05-14T2300,3544A,121.4891,30.925,上海市,奉贤南桥新城,,25,20,16,13,12,78,78,82,71,11,16,3,3,0.2,0.2
2026-05-14T2300,4183A,121.417401,31.16637,上海市,冠生园路458号,,27,15,17,10,11,84,84,78,76,9,13,5,5,0.4,0.4
2026-05-14T2300,4205A,121.541914,31.268301,上海市,宁武路151号,,42,42,35,20,16,60,60,68,64,26,22,6,6,0.3,0.3
2026-05-14T2300,2382A,117.9758,28.4439,上饶市,市监测站,,22,15,29,3,12,69,69,69,66,12,10,4,5,/,/
2026-05-14T2300,2383A,117.9521,28.4637,上饶市,凤凰光学,,19,12,22,9,13,59,59,65,60,20,15,16,10,0.6,0.7
