timepoint,stationcode,longitude,latitude,area,positionname,primarypollutant,aqi,pm10,pm10_24h,pm2_5,pm2_5_24h,o3,o3_24h,o3_8h,o3_8h_24h,no2,no2_24h,so2,so2_24h,co,co_24h
2026-07-01T0000,2568A,102.2503,31.8896,阿坝藏族羌族自治州,马师校,,39,39,25,8,8,16,16,78,54,5,6,3,3,0.3,0.3
2026-07-01T0000,3994A,102.2174,31.9016,阿坝藏族羌族自治州,马尔康中学西区,,12,12,14,7,7,20,20,79,58,7,6,2,2,0.2,0.2
2026-07-01T0000,2695A,80.2899,41.1684,阿克苏地区,电视台,颗粒物(PM10),102,125,92,44,37,77,77,139,123,32,17,3,4,1.1,0.9
2026-07-01T0000,2696A,80.2592,41.1541,阿克苏地区,艺术中心,细颗粒物(PM2.5),117,154,67,78,35,24,24,147,121,82,19,5,4,1.4,0.8
2026-07-01T0000,2205A,105.699,38.8409,阿拉善盟,蒙二幼,,36,17,23,7,8,113,113,134,127,2,4,10,10,0.3,0.3
2026-07-01T0000,2206A,105.7198,38.8508,阿拉善盟,环保局新楼,,38,15,21,3,5,119,119,130,126,3,3,9,8,0.4,0.4
2026-07-01T0000,2708A,88.1266,47.8515,阿勒泰地区,市站,,44,44,25,12,5,74,74,119,NA,19,10,7,7,0.4,0.3
2026-07-01T0000,4166A,88.1198,47.7931,阿勒泰地区,阿勒泰路33号,,44,44,23,11,4,68,68,112,105,22,6,7,7,0.5,0.4
2026-07-01T0000,2630A,80.1171,32.4999,阿里地区,阿里监测站,,47,21,14,3,3,149,149,149,146,4,5,5,4,0.2,0.2
2026-07-01T0000,3192A,80.0906,32.5029,阿里地区,阿里藏医院,,48,14,11,3,3,151,151,153,151,3,2,6,6,0.5,0.5
2026-07-01T0000,2644A,109.0088,32.6974,安康市,汉滨区检察院,,39,39,27,15,14,25,25,88,62,8,7,1,2,0.5,0.5
2026-07-01T0000,4054A,109.0324,32.6913,安康市,市邮政管理局,,33,33,27,16,17,33,33,89,62,8,7,3,3,0.6,0.6
2026-07-01T0000,2291A,117.0806,30.5181,安庆市,环科院,,27,9,12,3,5,85,85,94,70,6,11,8,8,0.4,0.4
2026-07-01T0000,2292A,117.0331,30.5118,安庆市,马山宾馆,,22,7,17,6,13,68,68,96,73,21,16,2,2,0.4,0.4
2026-07-01T0000,2294A,116.9897,30.6146,安庆市,安庆大学,,23,NA,14,16,9,69,69,80,68,14,7,4,3,0.4,0.4
2026-07-01T0000,3173A,117.0598,30.5351,安庆市,市人大,,26,7,14,3,11,82,82,98,84,9,10,4,5,0.4,0.4
2026-07-01T0000,3123A,105.9408,26.2431,安顺市,凤凰山,,14,12,14,3,10,43,43,70,58,11,7,8,10,0.5,0.5
2026-07-01T0000,3124A,105.9443,26.2567,安顺市,金钟山,,12,10,10,8,10,35,35,66,52,11,5,6,10,0.4,0.4
2026-07-01T0000,3125A,105.8983,26.248,安顺市,娄家坡,,15,9,11,8,10,45,45,70,56,6,6,6,9,0.7,0.7
2026-07-01T0000,1819A,114.3552,36.1017,安阳市,红庙街,,31,22,53,13,29,97,97,186,139,8,10,8,11,1.2,1
2026-07-01T0000,1820A,114.361,36.0681,安阳市,银杏小区,,33,NA,50,18,29,104,104,189,145,6,7,5,6,0.9,0.8
2026-07-01T0000,3141A,114.3921,36.0879,安阳市,信访局,,32,28,56,22,33,102,102,198,154,11,10,6,7,1.3,1.1
2026-07-01T0000,3669A,114.4706,36.0634,安阳市,左辅环卫站,,32,32,58,21,33,78,78,170,131,15,16,2,7,1.0,1.3
2026-07-01T0000,4117A,114.2918,36.0769,安阳市,钢三路198号,,31,31,58,17,27,98,98,175,137,5,9,4,7,1.0,0.9
2026-07-01T0000,1748A,123.0441,41.1201,鞍山市,深沟寺,,35,30,20,24,14,62,62,88,76,6,5,6,6,0.5,0.5
2026-07-01T0000,1749A,123.011,41.0931,鞍山市,太阳城,,36,29,21,25,15,62,62,90,78,8,7,7,7,0.8,0.7
2026-07-01T0000,1750A,123.0483,41.1445,鞍山市,太平,,42,42,25,24,14,66,66,87,75,10,10,7,7,0.7,0.7
2026-07-01T0000,1751A,122.964,41.0968,鞍山市,铁西三道街,颗粒物(PM10),63,67,31,32,17,65,65,98,79,18,11,6,5,0.8,0.7
2026-07-01T0000,1753A,123.0219,41.0822,鞍山市,明达新区,,39,36,22,27,15,74,74,92,83,8,7,5,6,0.6,0.6
2026-07-01T0000,4201A,122.944647,41.082639,鞍山市,兴盛南路290号,颗粒物(PM10),61,65,41,36,18,54,54,98,73,22,14,6,7,0.7,0.6
2026-07-01T0000,2195A,107.4206,40.7609,巴彦淖尔市,附二中,颗粒物(PM10),60,63,38,28,18,77,77,141,116,22,11,11,14,0.8,0.6
2026-07-01T0000,2196A,107.37,40.7372,巴彦淖尔市,市环保大楼,颗粒物(PM10),58,61,43,18,14,53,53,138,107,30,9,10,10,0.7,0.6
2026-07-01T0000,1956A,86.1476,41.7529,巴音郭楞蒙古自治州,孔雀公园,颗粒物(PM10),63,67,64,19,16,107,107,124,113,24,14,6,5,0.2,0.4
2026-07-01T0000,1957A,86.1971,41.7166,巴音郭楞蒙古自治州,棉纺厂,NA,NA,NA,NA,NA,NA,NA,NA,NA,NA,NA,NA,NA,NA,NA,NA
2026-07-01T0000,1958A,86.236,41.7172,巴音郭楞蒙古自治州,经济开发区,颗粒物(PM10),59,62,43,30,15,106,106,129,112,12,9,3,3,0.1,0.1
2026-07-01T0000,3181A,106.776805,31.852614,巴中市,市五中,,22,20,20,15,15,68,68,87,75,5,7,8,9,0.7,0.7
2026-07-01T0000,3183A,106.7419,31.8654,巴中市,圣泉水务公司,,25,18,22,17,15,68,68,91,77,6,7,10,10,0.5,0.5
2026-07-01T0000,3616A,106.7617,31.8343,巴中市,市中心医院,,27,27,27,15,16,68,68,96,80,6,7,7,8,0.7,0.7
2026-07-01T0000,2235A,122.7909,45.608,白城市,洮北区环保局,,39,32,26,27,22,85,85,144,123,10,6,3,4,0.3,0.3
2026-07-01T0000,2236A,122.8741,45.5725,白城市,市环保局,,36,NA,23,25,20,82,82,142,116,11,8,4,4,0.3,0.2
2026-07-01T0000,2231A,126.4219,41.9172,白山市,喜丰,,42,42,51,8,10,76,76,120,99,8,16,12,13,0.6,0.6
2026-07-01T0000,2232A,126.4082,41.9416,白山市,环保局,NA,NA,28,24,14,9,NA,NA,120,89,8,8,9,11,0.4,0.4
2026-07-01T0000,2647A,104.1727,36.5448,白银市,第三小学,颗粒物(PM10),74,83,43,27,16,62,62,134,113,35,15,12,18,0.5,0.5
2026-07-01T0000,2648A,104.1467,36.5482,白银市,动力公司,颗粒物(PM10),53,54,32,16,11,101,101,133,120,8,11,2,9,0.2,0.4
2026-07-01T0000,2512A,106.6102,23.901,百色市,市监测站,,8,8,12,3,7,24,24,41,27,7,8,6,8,0.3,0.4
2026-07-01T0000,2513A,106.6524,23.8842,百色市,市中心血站,,16,16,15,10,10,11,11,45,26,16,8,14,9,0.5,0.5
2026-07-01T0000,4133A,106.6273,23.8798,百色市,龙景西路,,14,14,16,9,9,9,9,42,25,15,10,10,11,0.8,0.8
2026-07-01T0000,2270A,117.396,32.9389,蚌埠市,工人疗养院,,26,22,29,8,15,83,83,121,106,13,9,6,5,0.4,0.4
2026-07-01T0000,2271A,117.3606,32.9428,蚌埠市,百货大楼,,25,14,25,3,14,78,78,121,104,11,8,7,7,0.6,0.6
2026-07-01T0000,2273A,117.4183,32.8909,蚌埠市,蚌埠学院,,27,7,19,3,15,85,85,119,104,10,5,5,5,0.5,0.4
2026-07-01T0000,2274A,117.3534,32.9672,蚌埠市,淮上区政府,,28,19,26,9,14,87,87,127,111,9,7,5,5,0.4,0.4
2026-07-01T0000,2275A,117.3143,32.8977,蚌埠市,高新区,,23,14,26,11,16,72,72,120,100,14,9,8,8,0.4,0.4
2026-07-01T0000,3715A,117.3091,32.9314,蚌埠市,蚌埠田家炳中学,,27,27,32,11,19,74,74,124,102,11,8,9,7,0.6,0.5
2026-07-01T0000,1585A,109.8761,40.6533,包头市,市环境监测站,细颗粒物(PM2.5),62,NA,31,41,20,22,22,169,111,81,32,9,13,1.0,0.6
2026-07-01T0000,1587A,109.9992,40.5843,包头市,包头八中,颗粒物(PM10),71,79,38,38,22,12,12,149,100,83,27,12,18,0.8,0.7
2026-07-01T0000,1589A,109.8641,40.6288,包头市,惠龙物流,细颗粒物(PM2.5),72,49,35,46,20,51,51,168,122,62,26,10,15,0.7,0.5
2026-07-01T0000,1590A,110.0376,40.5546,包头市,东河鸿龙湾,颗粒物(PM10),58,61,28,36,19,42,42,153,109,63,21,12,16,0.9,0.6
2026-07-01T0000,3283A,109.9154,40.5684,包头市,滨河大厦,细颗粒物(PM2.5),60,58,27,40,21,22,22,150,90,82,26,9,14,1.0,0.6
2026-07-01T0000,3419A,109.9449,40.6259,包头市,包头市委党校,颗粒物(PM10),52,52,26,31,22,26,26,153,104,82,35,10,16,1.0,0.8
2026-07-01T0000,3683A,109.8332,40.6577,包头市,昆区政府,颗粒物(PM10),51,51,34,18,20,58,58,150,106,45,32,6,13,0.7,0.9
2026-07-01T0000,1931A,107.0802,34.3129,宝鸡市,竹园沟,,28,25,42,19,24,44,44,141,82,11,8,6,7,0.5,0.5
2026-07-01T0000,1933A,107.1429,34.3549,宝鸡市,监测站,颗粒物(PM10),52,52,50,32,25,66,66,155,117,12,9,7,7,0.5,0.5
2026-07-01T0000,1934A,107.1172,34.3759,宝鸡市,技工学校,,44,44,48,28,26,86,86,169,140,13,8,6,6,0.6,0.6
2026-07-01T0000,1936A,107.2025,34.3518,宝鸡市,文理学院,颗粒物(PM10),54,55,50,31,26,112,112,161,141,18,12,8,8,0.6,0.6
2026-07-01T0000,1937A,107.2396,34.3626,宝鸡市,三迪小学,,50,50,49,34,25,133,133,162,143,19,14,8,8,0.6,0.6
2026-07-01T0000,4155A,107.1721,34.3558,宝鸡市,滨河北路,颗粒物(PM10),52,52,49,28,26,80,80,149,118,15,9,6,6,0.6,0.6
2026-07-01T0000,4308A,107.3898,34.3601,宝鸡市,陈仓区北开路21号,颗粒物(PM10),59,62,46,37,24,108,108,140,126,19,9,6,5,0.6,0.5
2026-07-01T0000,1051A,115.4803,38.8568,保定市,游泳馆,,46,43,38,32,28,110,110,151,137,10,10,5,3,0.4,0.2
2026-07-01T0000,1052A,115.509,38.8895,保定市,华电二区,,49,36,38,34,27,129,129,156,140,10,10,3,2,0.8,0.7
2026-07-01T0000,1053A,115.4588,38.9037,保定市,接待中心,细颗粒物(PM2.5),52,46,42,36,31,121,121,149,138,10,7,1,2,0.5,0.5
2026-07-01T0000,1054A,115.4484,38.8344,保定市,地表水厂,颗粒物(PM10),67,73,58,34,29,121,121,160,149,12,7,3,2,0.6,0.6
2026-07-01T0000,3581A,115.3136,38.9511,保定市,满城区生态环境分局,,49,46,37,34,28,77,77,139,123,23,9,2,2,0.1,0.1
2026-07-01T0000,3582A,115.4709,38.7628,保定市,清苑区第二中学,颗粒物(PM10),53,54,50,25,26,112,112,157,138,14,10,4,4,0.4,0.4
2026-07-01T0000,3583A,115.6231,39.0223,保定市,徐水物探局,,36,30,37,23,25,113,113,144,130,17,12,4,4,0.5,0.5
2026-07-01T0000,4004A,115.4199,38.8665,保定市,双鹰农机,,46,38,34,32,31,129,129,157,148,11,8,3,3,0.3,0.3
2026-07-01T0000,4034A,115.515,38.8589,保定市,植保所站,,43,41,36,30,29,133,133,169,154,12,9,2,6,0.4,0.4
2026-07-01T0000,2594A,99.1589,25.1137,保山市,市环境监测站,,13,13,13,9,10,36,36,62,49,5,8,4,6,0.3,0.3
2026-07-01T0000,2595A,99.1616,25.1381,保山市,市环保局,,28,NA,15,19,19,36,36,60,48,4,5,5,5,0.2,0.2
2026-07-01T0000,1867A,109.1435,21.4085,北海市,海滩公园,,19,10,14,6,9,59,59,61,53,6,7,1,2,0.5,0.5
2026-07-01T0000,1868A,109.0983,21.466,北海市,新市环保局,,14,14,18,3,9,43,43,72,61,11,9,6,5,0.5,0.4
2026-07-01T0000,1869A,109.1775,21.5232,北海市,北海工业园,,40,36,22,28,17,24,24,58,43,17,11,13,5,0.5,0.4
2026-07-01T0000,3400A,109.1844,21.4396,北海市,龙潭自来水厂,,17,17,16,3,8,49,49,55,41,4,5,3,3,0.7,0.7
2026-07-01T0000,1001A,116.3611,39.8786,北京市,万寿西宫,,35,31,24,18,16,110,110,164,133,13,8,3,3,0.5,0.5
2026-07-01T0000,1003A,116.4174,39.9289,北京市,东四,,37,25,20,20,15,117,117,179,148,16,12,3,3,0.3,0.3
2026-07-01T0000,1004A,116.4073,39.8858,北京市,天坛,,26,25,22,18,15,53,53,148,94,10,10,1,1,0.7,0.6
2026-07-01T0000,1005A,116.4622,39.9364,北京市,农展馆,,34,30,22,19,15,108,108,157,135,16,13,3,3,0.5,0.4
2026-07-01T0000,1006A,116.3399,39.9293,北京市,官园,,43,43,23,30,17,112,112,170,146,12,8,4,4,0.6,0.5
2026-07-01T0000,1007A,116.2879,39.9613,北京市,海淀万柳,,42,42,24,26,16,96,96,153,123,13,14,4,4,0.5,0.4
2026-07-01T0000,1008A,116.6635,40.1349,北京市,顺义新城,,19,14,21,10,19,60,60,141,104,12,7,1,1,0.4,0.6
2026-07-01T0000,1009A,116.6275,40.327,北京市,怀柔镇,,16,13,23,8,17,50,50,127,83,6,6,1,1,0.4,0.5
2026-07-01T0000,1010A,116.2295,40.217,北京市,昌平镇,,24,14,15,12,12,76,76,145,117,9,11,3,3,0.9,0.9
2026-07-01T0000,1011A,116.3968,39.982,北京市,奥体中心,,39,35,22,27,16,112,112,137,124,8,8,4,4,0.6,0.5
2026-07-01T0000,3418A,116.8336,40.4095,北京市,密云新城,,17,8,23,3,17,52,52,116,57,4,4,1,1,0.5,0.6
2026-07-01T0000,3671A,116.0879,39.9725,北京市,门头沟三家店,,23,22,18,12,12,71,71,139,89,11,12,2,2,0.6,0.6
2026-07-01T0000,3672A,116.1507,39.8246,北京市,丰台云岗,,32,32,26,14,14,49,49,136,84,18,7,3,3,0.5,0.5
2026-07-01T0000,3674A,115.9578,39.7602,北京市,房山燕山,,22,22,28,15,21,58,58,126,90,7,7,1,1,0.6,0.6
2026-07-01T0000,3675A,116.4669,39.7734,北京市,大兴旧宫,,40,19,29,13,21,126,126,153,132,8,10,1,1,0.5,0.7
2026-07-01T0000,3694A,115.9859,40.4562,北京市,延庆石河营,,15,15,12,10,9,39,39,108,80,12,8,2,2,0.4,0.3
2026-07-01T0000,3695A,116.6151,40.3052,北京市,怀柔新城,,16,9,20,7,16,51,51,120,79,3,4,1,1,0.6,0.7
2026-07-01T0000,3696A,116.2542,39.8764,北京市,丰台小屯,,30,28,22,21,16,64,64,146,101,14,6,2,3,0.6,0.5
2026-07-01T0000,3697A,116.8399,40.3843,北京市,密云镇,,15,15,24,8,18,29,29,113,66,21,8,2,4,0.5,0.6
2026-07-01T0000,4057A,115.9423,40.4431,北京市,延庆百泉,,17,12,11,6,7,53,53,119,90,7,6,1,1,0.3,0.3
2026-07-01T0000,4058A,116.6598,39.9164,北京市,通州新华,,37,25,29,14,18,117,117,145,136,14,10,3,3,0.7,0.7
2026-07-01T0000,4182A,116.1942,39.9158,北京市,石景山八角,,38,38,22,22,16,99,99,162,132,9,8,4,3,0.5,0.5
2026-07-01T0000,4194A,117.078628,40.151726,北京市,平谷新城,,30,24,31,21,27,65,65,130,100,4,3,3,1,0.6,0.7
2026-07-01T0000,1761A,123.8274146,41.31234549,本溪市,大峪,,27,27,22,18,11,50,50,103,81,19,12,6,6,0.3,0.3
2026-07-01T0000,1763A,123.7169,41.3094,本溪市,彩屯,,39,36,30,27,16,58,58,92,70,13,15,8,8,1.5,1.2
2026-07-01T0000,1764A,123.7672166,41.28649327,本溪市,东明,,25,23,28,17,11,68,68,107,90,14,12,5,6,0.4,0.4
2026-07-01T0000,1765A,123.799345,41.266614,本溪市,新立屯,,26,26,19,15,11,39,39,101,66,28,19,8,8,0.6,0.5
2026-07-01T0000,1766A,123.829144,41.336777,本溪市,威宁,,47,47,30,14,14,38,38,102,74,25,11,8,8,0.5,0.4
2026-07-01T0000,2587A,105.287,27.3133,毕节市,八中,,20,19,22,14,10,30,30,77,50,9,8,7,8,0.5,0.5
2026-07-01T0000,2588A,105.3079,27.2987,毕节市,师专,,18,18,18,11,9,20,20,70,49,17,8,3,3,0.7,0.6
2026-07-01T0000,4263A,105.3688,27.3598,毕节市,工业大道,,18,15,17,12,7,30,30,73,49,7,8,6,6,/,/
2026-07-01T0000,1629A,117.9961,37.3604,滨州市,第二水厂,,42,9,38,3,37,132,132,139,120,2,12,5,7,0.7,0.9
2026-07-01T0000,1630A,117.9789,37.3931,滨州市,北中新校,,45,14,37,3,33,141,141,148,128,5,15,10,12,0.6,0.8
2026-07-01T0000,3514A,117.9379,37.3959,滨州市,中海酒店,,48,6,29,3,30,151,151,155,140,9,19,7,10,0.0,0.4
2026-07-01T0000,3515A,117.9381509,37.35547456,滨州市,开发区一中,,42,7,36,3,32,133,133,148,121,11,19,9,10,0.4,0.6
2026-07-01T0000,3516A,118.0914,37.6938,滨州市,金海六路,,43,6,39,3,35,137,137,134,133,6,13,4,6,0.2,0.4
2026-07-01T0000,4028A,117.9955,37.3752,滨州市,滨州市西街道办事处,,43,6,30,3,34,137,137,142,125,1,10,3,4,0.3,0.6
2026-07-01T0000,2311A,115.8071,33.8399,亳州市,污水处理厂,,23,16,41,16,37,71,71,161,120,14,13,4,5,0.4,0.4
2026-07-01T0000,2312A,115.7789,33.8519,亳州市,三国揽胜宫,,31,31,52,20,39,77,77,157,128,10,10,4,4,0.3,0.5
2026-07-01T0000,3332A,115.7631,33.803,亳州市,亳州学院,,25,17,42,17,41,69,69,170,129,12,10,4,4,0.4,0.6
2026-07-01T0000,2693A,82.0482,44.8553,博尔塔拉蒙古自治州,市党校,,35,35,29,3,7,102,102,113,111,6,5,3,3,0.2,0.2
2026-07-01T0000,2694A,82.0805,44.8966,博尔塔拉蒙古自治州,市环保局,颗粒物(PM10),63,67,36,18,9,79,79,112,106,23,10,7,6,0.7,0.5
2026-07-01T0000,1071A,116.8733,38.2922,沧州市,沧县城建局,,32,NA,32,12,29,102,102,146,126,6,9,5,5,0.3,0.5
2026-07-01T0000,1072A,116.8462,38.3189,沧州市,电视转播站,,34,23,46,14,29,107,107,134,124,8,10,3,3,0.3,0.4
2026-07-01T0000,1073A,116.8588,38.3161,沧州市,市环保局,,33,29,57,18,32,103,103,139,122,6,9,2,4,0.2,0.3
2026-07-01T0000,3324A,116.8011,38.294,沧州市,河北水利电力学院,,31,NA,32,20,31,98,98,138,122,9,10,7,8,0.4,0.5
2026-07-01T0000,2622A,97.1813,31.1289,昌都市,昌都监测站,,23,9,5,3,2,71,71,107,89,6,8,8,8,0.6,0.7
2026-07-01T0000,3719A,97.1707,31.1428,昌都市,昌都会议中心,,26,6,6,3,4,83,83,116,101,4,4,5,5,0.4,0.4
2026-07-01T0000,2692A,87.2722,44.0298,昌吉回族自治州,新区政务中心,,31,31,22,20,15,29,29,132,NA,55,14,8,9,0.8,0.5
2026-07-01T0000,3613A,87.3069,44.0093,昌吉回族自治州,亚心广场,颗粒物(PM10),67,73,31,24,13,22,22,134,103,80,21,8,9,1.0,0.4
2026-07-01T0000,4164A,87.2057,43.9289,昌吉回族自治州,财政所,,39,39,24,22,7,58,58,133,111,11,9,7,7,0.1,0.2
2026-07-01T0000,1120A,125.2874,43.9024,长春市,客车厂,,45,45,33,20,22,63,63,134,100,33,20,6,6,0.5,0.5
2026-07-01T0000,1121A,125.2943,43.8508,长春市,邮电学院,,28,25,30,19,22,71,71,144,113,18,12,6,6,0.5,0.5
2026-07-01T0000,1122A,125.3648,43.8745,长春市,劳动公园,,29,26,29,18,24,92,92,152,126,18,17,7,7,0.5,0.5
2026-07-01T0000,1123A,125.3233,43.8781,长春市,园林处,,30,30,31,16,20,85,85,150,121,15,15,4,4,0.4,0.4
2026-07-01T0000,1124A,125.4604,43.7904,长春市,净月潭,,28,28,25,19,20,39,39,134,94,15,10,6,6,0.3,0.3
2026-07-01T0000,1126A,125.38,43.8422,长春市,经开区环卫处,,35,35,29,20,20,83,83,144,119,19,20,5,5,0.4,0.4
2026-07-01T0000,1127A,125.234,43.7761,长春市,高新区管委会,,30,30,31,19,20,57,57,136,103,20,17,5,6,0.5,0.5
2026-07-01T0000,1128A,125.1695,43.83,长春市,岱山公园,,35,35,34,19,24,82,82,146,108,24,21,3,3,0.4,0.5
2026-07-01T0000,4281A,125.334645,43.916281,长春市,北亚泰大街1068号,颗粒物(PM10),80,91,37,24,25,49,49,142,98,55,26,5,5,0.5,0.5
2026-07-01T0000,1335A,113.082,28.2421,长沙市,经开区环保局,,20,18,27,14,20,58,58,70,66,9,10,4,4,0.6,0.6
2026-07-01T0000,1336A,112.8873,28.2202,长沙市,高开区环保局,,21,14,25,12,17,65,65,73,71,7,7,3,3,0.5,0.4
2026-07-01T0000,1337A,113.0785,28.2012,长沙市,马坡岭,,20,18,28,14,21,56,56,76,68,15,12,6,6,0.6,0.5
2026-07-01T0000,1338A,112.9448,28.1894,长沙市,湖南师范大学,,20,19,25,12,18,63,63,78,73,6,6,8,8,0.2,0.2
2026-07-01T0000,1339A,113.0177,28.1322,长沙市,雨花区环保局,,21,13,27,11,21,66,66,72,70,3,5,4,4,0.9,1
2026-07-01T0000,1340A,112.9795,28.2593,长沙市,伍家岭,,22,22,27,13,17,66,66,76,73,6,7,3,3,0.4,0.4
2026-07-01T0000,1341A,113.002,28.1944,长沙市,火车新站,,20,17,27,14,18,57,57,72,69,7,6,8,8,0.5,0.5
2026-07-01T0000,1342A,112.9846,28.1177,长沙市,天心区环保局,,22,13,25,10,22,68,68,79,76,10,12,3,4,0.3,0.6
2026-07-01T0000,1343A,112.8906,28.1307,长沙市,湖南中医药大学,,19,NA,24,13,19,50,50,76,71,13,8,6,6,0.6,0.5
2026-07-01T0000,1727A,113.1146,36.1547,长治市,清华站,,38,15,25,8,15,119,119,155,146,8,9,7,8,0.4,0.6
2026-07-01T0000,1730A,113.0887,36.2126,长治市,审计局,,35,11,25,8,16,112,112,150,138,3,8,8,10,0.5,0.7
2026-07-01T0000,1731A,113.0845,36.1856,长治市,长治八中,,34,23,34,10,16,107,107,151,138,9,12,11,12,0.7,0.8
2026-07-01T0000,2845A,113.1561,36.1912,长治市,德盛苑,,35,14,23,12,15,112,112,156,145,11,12,10,11,0.5,0.5
2026-07-01T0000,3568A,113.0603,36.0464,长治市,向阳小学,,37,10,34,3,16,116,116,154,141,2,4,1,3,0.6,0.8
2026-07-01T0000,3569A,112.8788,36.315,长治市,屯留一中,,32,NA,22,14,14,100,100,139,122,6,11,7,10,0.7,0.8
2026-07-01T0000,4189A,113.113092,36.199482,长治市,英华南巷50号,,39,12,31,3,17,122,122,158,145,5,10,8,11,0.7,0.8
2026-07-01T0000,4190A,113.23666,36.33435,长治市,学府街1号,,33,17,37,9,19,103,103,160,137,13,13,9,14,0.7,0.8
2026-07-01T0000,1854A,111.696,28.9725,常德市,市二中,,18,17,17,12,9,35,35,76,48,8,5,7,8,1.0,0.9
2026-07-01T0000,3138A,111.7152,29.0288,常德市,武陵区永安,,18,13,16,7,10,55,55,82,50,3,3,6,7,0.8,0.8
2026-07-01T0000,3139A,111.6891,28.9881,常德市,鼎城区玉霞,,15,14,14,10,8,38,38,78,48,8,5,9,9,0.7,0.8
2026-07-01T0000,3140A,111.6651,29.0526,常德市,武陵区长庚,,16,13,18,9,9,49,49,71,46,6,6,8,8,0.6,0.6
2026-07-01T0000,1196A,119.9524,31.7586,常州市,市监测站,,49,49,19,22,10,44,44,77,50,21,21,10,10,0.7,0.4
2026-07-01T0000,1200A,119.9351,31.703,常州市,武进监测站,,36,NA,14,25,10,41,41,70,49,17,18,6,7,0.8,0.7
2026-07-01T0000,3002A,119.9701,31.813,常州市,行政中心,,32,NA,11,22,9,35,35,75,45,20,16,5,6,0.6,0.4
2026-07-01T0000,3003A,120.0434,31.7726,常州市,经开区,,38,37,20,26,10,41,41,76,42,20,20,3,2,1.1,0.9
2026-07-01T0000,3010A,119.8919,31.7892,常州市,钟楼,,39,38,26,27,14,48,48,80,52,21,18,7,7,0.8,0.6
2026-07-01T0000,3429A,119.8595,31.706,常州市,武进经发区,,42,42,20,21,11,42,42,68,49,12,14,7,7,0.9,0.9
2026-07-01T0000,3430A,119.5812,31.7256,常州市,金坛城区,,22,22,13,15,11,57,57,83,77,12,8,6,6,1.0,0.9
2026-07-01T0000,4089A,119.9551,31.863,常州市,崇义南街5-H号,,49,NA,13,34,14,39,39,68,41,24,22,6,6,1.0,0.9
2026-07-01T0000,2220A,120.4318,41.588,朝阳市,西梁,,36,34,30,25,20,58,58,82,61,13,10,10,7,1.3,0.8
2026-07-01T0000,2221A,120.452,41.565,朝阳市,河畔小区,,40,NA,25,28,25,70,70,85,73,13,10,11,9,0.6,0.5
2026-07-01T0000,2222A,120.4176,41.5648,朝阳市,八里堡,,48,NA,26,33,23,67,67,77,70,14,14,4,2,1.4,0.8
2026-07-01T0000,3026A,116.6179,23.6608,潮州市,市政府,,19,19,16,12,9,25,25,66,44,8,7,5,5,0.2,0.2
2026-07-01T0000,4036A,116.646,23.676,潮州市,金山,,16,14,15,11,7,17,17,68,43,8,5,2,2,0.3,0.3
2026-07-01T0000,2473A,113.0116,25.8228,郴州市,市职中,,9,9,18,3,8,27,27,60,43,7,9,6,7,0.6,0.7
2026-07-01T0000,2475A,113.0381,25.8074,郴州市,市审计局,,11,11,16,3,8,34,34,66,44,8,8,2,3,/,/
2026-07-01T0000,2476A,113.0348,25.7757,郴州市,市环保局,,12,6,15,3,7,37,37,65,45,4,6,5,6,0.7,0.7
2026-07-01T0000,4252A,113.0138,25.8011,郴州市,好美居路49号,,11,10,16,3,4,34,34,63,44,7,8,7,6,/,/
2026-07-01T0000,1431A,103.9727,30.7242,成都市,金泉两河,,48,33,29,33,21,70,70,148,110,17,15,2,3,0.3,0.3
2026-07-01T0000,1432A,104.1423,30.6765,成都市,十里店,细颗粒物(PM2.5),88,NA,25,54,20,76,76,134,100,14,12,4,4,0.6,0.5
2026-07-01T0000,1433A,104.0594,30.5765,成都市,三瓦窑,细颗粒物(PM2.5),54,43,28,37,20,77,77,124,94,13,18,5,5,0.7,0.7
2026-07-01T0000,1434A,104.1122,30.6306,成都市,沙河铺,细颗粒物(PM2.5),56,44,30,38,19,70,70,122,91,17,14,4,4,0.5,0.5
2026-07-01T0000,2880A,104.0219,30.6561,成都市,大石西路,细颗粒物(PM2.5),58,43,33,39,23,78,78,129,98,11,14,4,4,0.6,0.5
2026-07-01T0000,3136A,104.2724,30.559,成都市,龙泉驿区区政府,,32,NA,12,22,15,70,70,100,86,11,9,7,7,0.4,0.4
2026-07-01T0000,3357A,104.0028,30.6891,成都市,金博路,,42,NA,19,29,20,75,75,141,106,15,16,7,7,0.6,0.6
2026-07-01T0000,3359A,104.056,30.5228,成都市,华阳,,50,NA,23,35,18,80,80,120,98,11,9,2,2,0.5,0.4
2026-07-01T0000,3488A,104.387954,30.746684,成都市,青白江技师分院,NA,NA,29,21,23,16,NA,NA,108,95,8,9,6,6,0.7,0.6
2026-07-01T0000,3489A,104.0788,30.4054,成都市,科学城,,28,28,22,19,14,75,75,96,92,10,7,5,5,0.4,0.3
2026-07-01T0000,4011A,103.8505,30.6946,成都市,光华大道三段,,39,35,30,27,20,72,72,144,112,12,11,5,7,0.5,0.5
2026-07-01T0000,4144A,104.3257,30.6406,成都市,八角井街185号,,40,34,25,28,16,81,81,106,94,12,12,4,5,0.5,0.5
2026-07-01T0000,4224A,104.2433276,30.53529463,成都市,鲸龙路1057号,,43,34,22,30,16,80,80,104,90,10,11,8,8,0.7,0.7
2026-07-01T0000,1062A,117.9531,40.908,承德市,铁路,,29,29,32,10,18,18,18,100,66,14,15,3,3,0.3,0.3
2026-07-01T0000,1063A,117.9397,40.9763,承德市,中国银行,,25,25,30,3,17,12,12,90,55,11,10,2,1,0.3,0.4
2026-07-01T0000,4073A,117.9462,40.95,承德市,杏林街1号,,23,23,26,3,21,14,14,107,62,15,8,2,3,0.3,0.4
2026-07-01T0000,4274A,117.7994,40.9605,承德市,滨河大街98号,,10,10,23,3,18,16,16,107,58,12,7,4,4,0.3,0.4
2026-07-01T0000,2314A,117.4698,30.6617,池州市,池州学院,,27,8,9,7,7,86,86,94,92,10,10,3,4,0.8,0.8
2026-07-01T0000,3237A,117.4918,30.6617,池州市,展览馆,,26,10,11,3,5,83,83,88,81,4,6,3,5,0.5,0.5
2026-07-01T0000,3333A,117.5626,30.695,池州市,第八中学,,24,9,10,6,7,76,76,89,78,4,8,4,4,0.3,0.4
2026-07-01T0000,3334A,117.5037,30.6242,池州市,第十二中学,,25,7,10,3,6,80,80,89,85,7,7,6,5,0.6,0.7
2026-07-01T0000,1744A,118.9229,42.2816,赤峰市,松山一中,,31,25,30,14,23,98,98,130,117,24,15,12,16,0.6,0.7
2026-07-01T0000,1745A,118.9588,42.2733,赤峰市,哈达街,,35,8,28,3,20,109,109,120,114,8,15,16,20,0.4,0.5
2026-07-01T0000,1746A,118.8792,42.2551,赤峰市,天义路,,32,20,21,13,19,101,101,121,107,14,16,12,12,0.5,0.6
2026-07-01T0000,3058A,119.2656,42.0356,赤峰市,银河街,,28,18,43,13,29,87,87,121,98,9,13,8,11,0.6,0.8
2026-07-01T0000,3286A,118.9359,42.3146,赤峰市,桥北物流园区,,27,21,30,15,23,86,86,131,111,11,14,3,10,0.6,0.6
2026-07-01T0000,2521A,107.3473,22.4137,崇左市,市环保局江州分局,,20,20,16,7,8,35,35,67,60,15,9,6,6,0.6,0.6
2026-07-01T0000,4256A,107.375,22.3736,崇左市,石景林东路7号,,12,6,13,3,6,36,36,64,58,18,10,6,6,0.5,0.5
2026-07-01T0000,3207A,118.31131,32.3033,滁州市,市政府原办公楼,,45,NA,12,31,17,68,68,129,98,10,6,6,6,0.5,0.5
2026-07-01T0000,3331A,118.3268,32.2633,滁州市,图书馆,,26,21,18,18,9,61,61,119,90,10,5,9,9,0.5,0.4
2026-07-01T0000,4101A,118.3196,32.3335,滁州市,银山路666号,,25,18,17,17,12,72,72,127,99,10,8,3,3,0.3,0.2
2026-07-01T0000,4102A,118.3426,32.2979,滁州市,黄山路555号,,30,NA,21,21,12,58,58,121,89,16,8,9,10,0.4,0.4
2026-07-01T0000,2606A,101.5379,25.0492,楚雄彝族自治州,市经济开发区,,32,32,16,12,9,59,59,64,61,8,7,2,2,0.6,0.5
2026-07-01T0000,4153A,101.5536,25.0343,楚雄彝族自治州,团结路562号,,26,23,16,18,11,59,59,71,67,7,7,6,6,0.6,0.6
2026-07-01T0000,2549A,107.5087,31.2186,达州市,市环境监测站,,44,44,36,15,11,21,21,67,55,40,26,6,7,0.5,0.5
2026-07-01T0000,2550A,107.4988,31.2132,达州市,凤凰小区,,44,44,39,16,13,28,28,69,57,34,20,8,7,0.5,0.5
2026-07-01T0000,2551A,107.5081,31.1987,达州市,达县机关宾馆,,46,46,41,15,16,24,24,70,50,44,33,5,7,0.4,0.5
2026-07-01T0000,2552A,107.4644,31.2124,达州市,市政中心,颗粒物(PM10),56,58,38,17,9,30,30,79,65,30,17,5,5,0.3,0.3
2026-07-01T0000,2614A,100.2168,25.5818,大理白族自治州,大理市环境监测站,,25,NA,8,9,8,80,80,83,77,5,8,5,5,0.5,0.5
2026-07-01T0000,2615A,100.1542,25.7055,大理白族自治州,大理古城,,19,13,11,10,6,60,60,72,57,8,8,6,4,0.6,0.6
2026-07-01T0000,1109A,121.6119,38.974,大连市,甘井子,,25,24,24,17,18,56,56,86,72,18,10,8,8,0.6,0.6
2026-07-01T0000,1110A,121.565,38.9509,大连市,周水子,,26,26,27,17,21,59,59,93,70,17,16,14,14,0.7,0.7
2026-07-01T0000,1111A,121.5637,38.8849,大连市,星海三站,,34,34,35,14,16,71,71,89,82,8,12,6,6,0.8,0.8
2026-07-01T0000,1112A,121.6301,38.9117,大连市,青泥洼桥,,23,22,24,16,18,60,60,92,74,10,9,6,7,0.6,0.6
2026-07-01T0000,1113A,121.6248,38.8643,大连市,傅家庄,,20,20,21,14,17,62,62,86,80,17,11,12,11,0.4,0.5
2026-07-01T0000,1114A,121.5117,38.8636,大连市,七贤岭,,26,26,24,16,17,66,66,85,74,11,14,4,4,0.7,0.8
2026-07-01T0000,1116A,121.7507,39.1339,大连市,金州,NA,NA,NA,24,NA,21,NA,NA,94,76,NA,10,NA,9,NA,0.6
2026-07-01T0000,1117A,121.7811,39.0495,大连市,开发区,,32,32,35,20,20,47,47,85,56,27,21,9,8,0.4,0.4
2026-07-01T0000,1118A,121.9762,39.0631,大连市,双D港,,16,14,22,11,15,39,39,78,61,5,7,6,6,0.5,0.5
2026-07-01T0000,4082A,121.2548,38.8188,大连市,旅顺,,28,28,29,19,20,63,63,83,75,9,11,6,6,0.4,0.4
2026-07-01T0000,1789A,124.8085,46.0381,大庆市,大同区,,30,24,36,17,19,93,93,150,124,18,14,5,5,0.7,0.7
2026-07-01T0000,1790A,125.1166,46.5255,大庆市,龙凤区,,42,42,37,28,22,62,62,143,96,20,13,8,11,0.1,0.1
2026-07-01T0000,1791A,124.8894,46.4007,大庆市,红岗区,,36,NA,31,25,17,67,67,147,107,11,8,8,9,0.6,0.5
2026-07-01T0000,1792A,125.1391,46.578,大庆市,萨尔图区,,48,47,39,33,24,65,65,152,103,21,14,5,5,0.4,0.5
2026-07-01T0000,1793A,124.9026,46.6217,大庆市,让胡路区,,43,42,38,30,28,68,68,154,118,22,11,13,6,0.7,0.7
2026-07-01T0000,3481A,125.127,46.6277,大庆市,萨区政府监测点,,40,39,41,28,28,79,79,162,118,12,7,6,8,0.4,0.4
2026-07-01T0000,1723A,113.2926,40.0759,大同市,云冈宾馆,,34,16,21,7,9,108,108,152,121,13,13,6,8,0.3,0.3
2026-07-01T0000,1724A,113.3437,40.0921,大同市,大同大学,,28,22,23,10,15,87,87,151,116,21,14,5,6,0.5,0.5
2026-07-01T0000,1725A,113.2637,40.129,大同市,安家小村,,29,18,24,10,13,91,91,149,119,15,12,7,7,0.3,0.4
2026-07-01T0000,3282A,113.3399,40.0586,大同市,大同市卫生学校,,32,21,30,3,15,100,100,157,121,16,14,8,9,0.5,0.6
2026-07-01T0000,3565A,113.1371,40.1122,大同市,云冈站,,35,35,21,12,10,42,42,139,106,22,9,6,7,0.6,0.6
2026-07-01T0000,3566A,113.1186,40.2556,大同市,图书馆,,34,34,19,19,10,77,77,150,123,17,10,7,7,0.7,0.6
2026-07-01T0000,3567A,113.5931,40.0459,大同市,区一中,,25,NA,17,10,10,77,77,152,114,6,10,7,8,0.4,0.4
2026-07-01T0000,4199A,113.2798248,40.09972476,大同市,魏都大道141号,,31,22,21,6,11,98,98,153,122,20,16,6,8,0.4,0.4
2026-07-01T0000,2269A,124.1068,50.4091,大兴安岭地区,科技局,,32,32,33,20,17,46,46,119,82,12,6,5,5,0.4,0.3
2026-07-01T0000,3663A,124.117,50.4279,大兴安岭地区,红旗社区,,23,22,21,16,10,61,61,136,90,10,11,7,7,0.2,0.2
2026-07-01T0000,1600A,124.33,40.0625,丹东市,江湾东路,,49,45,26,34,18,53,53,86,64,11,12,3,5,0.5,0.5
2026-07-01T0000,1601A,124.4242,40.1513,丹东市,临江后街,,48,48,33,28,16,48,48,96,65,8,8,5,5,0.4,0.4
2026-07-01T0000,1602A,124.3935,40.1461,丹东市,元宝山,颗粒物(PM10),80,92,45,41,18,53,53,92,63,8,11,4,5,0.7,0.6
2026-07-01T0000,1603A,124.3634,40.1093,丹东市,民主桥,颗粒物(PM10),59,62,39,38,20,53,53,84,61,11,10,10,8,1.1,0.8
2026-07-01T0000,3541A,109.5726195,19.51688767,儋州市,第一中学子站,,11,6,14,3,6,35,35,54,48,6,5,2,2,0.7,0.6
2026-07-01T0000,3542A,109.5567,19.5187,儋州市,东坡学校子站,,14,6,15,3,7,42,42,58,51,2,4,5,5,0.7,0.6
2026-07-01T0000,2616A,98.5611,24.4273,德宏傣族景颇族自治州,德宏州监测站,NA,NA,NA,12,3,12,52,52,63,51,5,6,6,7,0.4,0.5
2026-07-01T0000,3677A,98.5887,24.4366,德宏傣族景颇族自治州,芒市人民政府综合楼,,14,12,33,3,10,43,43,56,43,7,7,2,3,0.5,0.5
2026-07-01T0000,1901A,104.424,31.1209,德阳市,东山公园,,33,NA,20,23,20,69,69,138,108,8,10,3,3,0.7,0.7
2026-07-01T0000,1902A,104.3827,31.1318,德阳市,西小区,,30,28,32,21,20,58,58,128,98,17,15,8,8,0.9,1
2026-07-01T0000,1904A,104.3553,31.1091,德阳市,耐火材料厂,,39,31,31,27,23,71,71,160,120,10,12,3,4,0.5,0.5
2026-07-01T0000,4145A,104.4144,31.1495,德阳市,市林业局,,38,32,32,26,21,73,73,163,125,15,15,10,10,0.9,0.9
2026-07-01T0000,1622A,116.3034,37.4675,德州市,儿童乐园,,39,19,59,12,42,123,123,180,128,7,13,9,11,0.7,0.9
2026-07-01T0000,1624A,116.2992,37.4449,德州市,监理站,,39,14,61,11,40,122,122,176,134,7,13,13,15,0.3,0.5
2026-07-01T0000,3066A,116.2722,37.438,德州市,九衢泉纯净水厂,,37,17,56,10,42,117,117,167,129,13,18,2,10,0.7,0.9
2026-07-01T0000,3371A,116.3693,37.44,德州市,开发区人民医院,,37,19,56,12,46,116,116,165,126,11,16,9,11,0.5,0.7
2026-07-01T0000,3511A,116.5687,37.3331,德州市,陵城艺术中心,,39,14,52,12,44,124,124,168,149,10,13,6,9,0.4,0.6
2026-07-01T0000,4292A,116.352738,37.420875,德州市,新河东路,,37,14,49,12,38,116,116,165,130,15,19,10,11,0.7,0.9
2026-07-01T0000,2621A,99.7054,27.8319,迪庆藏族自治州,迪庆州站,,20,11,15,3,8,64,64,97,69,6,7,7,7,0.2,0.2
2026-07-01T0000,3180A,99.7122,27.8129,迪庆藏族自治州,质量技术监督局,,22,10,13,6,7,68,68,101,71,6,7,10,10,0.3,0.3
2026-07-01T0000,4257A,104.6092,35.5962,定西市,将台街,颗粒物(PM10),54,55,42,23,14,83,83,152,124,22,14,5,6,0.1,0.2
2026-07-01T0000,4309A,104.6159,35.5701,定西市,正龙路62号,颗粒物(PM10),58,61,46,17,12,76,76,151,126,18,11,5,6,0.5,0.4
2026-07-01T0000,4071A,114.9883,38.5232,定州市,交通局,颗粒物(PM10),58,60,62,25,35,125,125,162,146,21,16,4,4,0.4,0.5
2026-07-01T0000,4072A,115.0045,38.5136,定州市,第五中学,颗粒物(PM10),59,62,67,32,36,108,108,161,140,24,15,3,4,0.4,0.5
2026-07-01T0000,1390A,113.7943,23.0132,东莞市,东城石井,,16,16,18,7,12,22,22,113,62,13,16,3,2,0.5,0.5
2026-07-01T0000,1391A,113.7384,22.9659,东莞市,南城西平,,14,14,19,3,8,25,25,93,48,19,25,5,4,0.6,0.6
2026-07-01T0000,3319A,113.7283,23.041,东莞市,万江金泰,,11,11,19,7,12,28,28,102,53,21,24,7,8,0.6,0.6
2026-07-01T0000,4129A,113.8666,23.1062,东莞市,裕兴路,,18,18,22,6,10,38,38,134,65,10,16,6,7,0.7,0.7
2026-07-01T0000,4130A,114.0076,22.9739,东莞市,教育路1号,,26,26,19,14,10,18,18,99,47,30,24,6,6,0.7,0.7
2026-07-01T0000,4131A,113.7981,22.8124,东莞市,长怡路1号,,27,27,23,13,9,22,22,81,46,20,20,4,4,0.6,0.6
2026-07-01T0000,1666A,118.6612,37.4313,东营市,市环保局,,38,7,26,3,23,121,121,136,122,7,11,2,5,0.5,0.5
2026-07-01T0000,3036A,118.6903,37.4337,东营市,开发区管委会,,36,7,28,3,22,114,114,139,123,9,13,7,9,0.5,0.6
2026-07-01T0000,3365A,118.5721,37.5654,东营市,垦利区民丰路,,43,7,31,3,20,137,137,128,128,5,11,12,13,0.3,0.4
2026-07-01T0000,3498A,118.5063,37.8606,东营市,河口城区,,44,7,19,3,33,140,140,141,136,6,10,2,4,0.7,0.9
2026-07-01T0000,3646A,118.4979,37.4623,东营市,胜利站,,45,10,27,3,22,143,143,136,128,4,11,6,7,0.6,0.8
2026-07-01T0000,3734A,118.5753,37.4405,东营市,理想之城,,36,7,26,3,39,114,114,134,123,8,13,6,7,0.3,0.5
2026-07-01T0000,1591A,110.0024,39.8127,鄂尔多斯市,综合楼,,41,41,30,28,13,110,110,156,137,32,18,23,13,0.8,0.6
2026-07-01T0000,1592A,109.9485,39.8259,鄂尔多斯市,巴音孟克林场办事处,,41,41,25,20,12,93,93,157,133,33,14,10,6,0.7,0.3
2026-07-01T0000,1593A,109.7734,39.5987,鄂尔多斯市,康泽苑,,31,31,25,14,9,61,61,161,133,28,12,12,11,0.4,0.3
2026-07-01T0000,1594A,109.8121,39.5987,鄂尔多斯市,华泰汽车城,,39,39,28,21,11,30,30,151,99,60,18,9,8,0.7,0.5
2026-07-01T0000,1595A,109.9734,39.7884,鄂尔多斯市,奥林花园,颗粒物(PM10),65,70,33,31,14,26,26,156,112,88,20,7,5,0.9,0.5
2026-07-01T0000,2436A,114.894,30.3989,鄂州市,市政府,,38,38,24,8,7,49,49,66,55,10,14,3,5,0.9,0.9
2026-07-01T0000,2437A,114.8986,30.3714,鄂州市,赵家坝,,26,26,15,11,6,60,60,74,63,10,14,8,9,0.9,0.9
2026-07-01T0000,3654A,114.8093,30.4091,鄂州市,精准医疗中心,,18,13,18,8,8,56,56,68,64,9,17,3,5,0.6,0.9
2026-07-01T0000,2454A,109.4978,30.2979,恩施土家族苗族自治州,湖北民院,,21,21,20,14,9,7,7,51,27,9,6,5,4,0.5,0.5
2026-07-01T0000,3549A,109.5061,30.3771,恩施土家族苗族自治州,龙凤新区,,18,16,17,12,11,10,10,43,24,9,10,6,6,0.5,0.5
2026-07-01T0000,2499A,108.3411,21.6159,防城港市,沙万,,31,31,22,15,10,22,22,56,44,27,16,5,4,1.0,0.8
2026-07-01T0000,2500A,108.3515,21.7733,防城港市,防城档案局,NA,NA,28,17,9,9,16,16,58,41,NA,8,5,7,0.6,0.6
2026-07-01T0000,2501A,108.3506,21.6414,防城港市,大海花园,,30,29,19,21,12,27,27,64,48,21,12,19,13,1.1,0.9
2026-07-01T0000,1371A,113.1293,23.0065,佛山市,湾梁,,10,7,11,6,8,29,29,78,46,20,18,/,/,/,/
2026-07-01T0000,1372A,113.1082,23.0477,佛山市,华材职中,,10,7,12,6,9,31,31,79,52,15,12,7,7,0.2,0.3
2026-07-01T0000,1373A,113.1439,23.045,佛山市,南海气象局,,14,11,16,7,9,26,26,67,41,27,21,/,/,/,/
2026-07-01T0000,1374A,113.2879,22.8094,佛山市,顺德苏岗,,14,NA,11,7,7,19,19,78,47,27,17,/,/,0.7,0.7
2026-07-01T0000,1376A,112.8384,22.8678,佛山市,高明孔堂,,18,18,20,7,8,31,31,73,45,11,9,/,/,/,/
2026-07-01T0000,1377A,112.8835,23.1584,佛山市,三水监测站,,22,22,18,12,15,6,6,72,24,33,27,3,5,0.6,0.6
2026-07-01T0000,1378A,112.8668,23.185,佛山市,三水云东海,,21,21,26,3,14,6,6,77,25,21,16,/,/,/,/
2026-07-01T0000,3625A,113.2568,22.7629,佛山市,容桂街道办,,12,NA,6,8,9,34,34,75,46,17,15,/,/,/,/
2026-07-01T0000,1282A,119.2681,26.0506,福州市,师大,,23,23,22,9,7,39,39,76,51,10,10,4,4,0.3,0.3
2026-07-01T0000,1283A,119.2983,26.1028,福州市,五四北路,,14,14,19,7,6,38,38,82,53,13,11,4,4,0.4,0.4
2026-07-01T0000,1284A,119.2648,26.0769,福州市,杨桥西路,,21,21,20,3,2,36,36,77,54,14,10,4,4,/,/
2026-07-01T0000,3048A,119.5799,26.0937,福州市,九龙,,22,22,22,3,5,18,18,74,43,6,6,6,6,0.2,0.2
2026-07-01T0000,3526A,119.5188,25.9666,福州市,吴航,,13,NA,0,9,6,23,23,77,47,13,8,6,6,0.5,0.5
2026-07-01T0000,4104A,119.3106,26.0648,福州市,路通桥巷6号,,21,21,16,12,8,31,31,84,49,11,8,/,/,/,/
2026-07-01T0000,1755A,123.7974,41.8494,抚顺市,望花区,,29,23,37,20,19,62,62,120,91,17,19,8,11,0.6,0.8
2026-07-01T0000,1756A,123.9161,41.8827,抚顺市,顺城区,,42,42,26,20,13,28,28,132,98,45,20,14,12,0.7,0.6
2026-07-01T0000,1757A,124.0437,41.8615,抚顺市,东洲区,,20,17,20,10,11,62,62,125,91,18,14,10,10,0.4,0.4
2026-07-01T0000,1758A,123.9246,41.8638,抚顺市,新抚区,,30,30,28,20,16,45,45,140,98,21,18,7,8,0.7,0.6
2026-07-01T0000,1759A,124.0972,41.8961,抚顺市,大伙房水库,,19,15,19,8,12,59,59,131,95,18,15,11,11,0.4,0.5
2026-07-01T0000,1760A,123.708,41.8386,抚顺市,沈抚新城,,28,28,31,18,15,41,41,128,93,37,24,10,10,0.6,0.7
2026-07-01T0000,2377A,116.3544,27.9833,抚州市,市站,,16,16,24,3,7,32,32,49,44,3,4,1,3,0.7,0.7
2026-07-01T0000,2378A,116.3562,27.9631,抚州市,血防站,,17,17,20,6,6,25,25,46,36,8,6,5,5,0.7,0.7
2026-07-01T0000,2379A,116.3561,28.0007,抚州市,采茶剧团,,12,12,20,3,4,32,32,55,48,8,6,6,5,0.5,0.6
2026-07-01T0000,2380A,116.3854,27.9648,抚州市,医学分院,,25,25,38,3,3,29,29,52,44,4,4,3,4,0.7,0.7
2026-07-01T0000,2207A,121.6095,41.9978,阜新市,工业园区,,30,NA,29,12,20,94,94,89,82,11,16,5,8,0.3,0.4
2026-07-01T0000,2208A,121.6567,42.0188,阜新市,长青街,,30,28,28,11,20,94,94,97,92,9,15,10,10,0.5,0.4
2026-07-01T0000,2209A,121.6672,42.07,阜新市,农业园区,,33,NA,34,23,21,70,70,87,81,12,11,5,5,0.8,0.8
2026-07-01T0000,2211A,121.6343,42.0455,阜新市,玉龙新城,,26,25,29,18,20,58,58,77,68,13,15,5,6,0.6,0.6
2026-07-01T0000,2301A,115.8276,32.8929,阜阳市,市监测站,,35,35,47,12,31,47,47,121,78,14,15,5,5,0.4,0.5
2026-07-01T0000,2303A,115.8551,32.8606,阜阳市,开发区,,17,17,50,10,31,43,43,116,78,15,14,4,4,0.3,0.5
2026-07-01T0000,2875A,115.783962,32.889217,阜阳市,阜阳职业技术学院,,40,40,53,14,32,50,50,127,86,11,8,4,4,0.4,0.6
2026-07-01T0000,3468A,115.79,32.8614,阜阳市,市规划展馆,,28,28,58,14,33,46,46,124,80,16,12,3,3,0.5,0.6
2026-07-01T0000,3469A,115.835101,32.918568,阜阳市,枣园社区,,31,31,50,14,39,46,46,122,80,16,13,2,2,0.3,0.4
2026-07-01T0000,2669A,102.9097,34.9841,甘南藏族自治州,州政府,颗粒物(PM10),63,68,35,29,15,10,10,132,96,56,16,4,4,0.4,0.3
2026-07-01T0000,3380A,102.8915,34.9618,甘南藏族自治州,甘肃民族师范学院,颗粒物(PM10),83,95,44,42,18,18,18,141,90,65,25,4,4,0.3,0.3
2026-07-01T0000,2570A,101.96,30.048,甘孜藏族自治州,水桥子,,18,14,19,8,12,12,12,72,38,35,21,2,2,0.1,0.1
2026-07-01T0000,3065A,101.9534,29.9976,甘孜藏族自治州,州环保局,,20,19,26,11,11,12,12,77,46,39,26,3,2,0.5,0.5
2026-07-01T0000,2363A,114.9368,25.8663,赣州市,地委,,21,21,21,12,9,41,41,72,52,3,6,3,4,0.5,0.5
2026-07-01T0000,2364A,114.946,25.8483,赣州市,气象台,,12,12,18,3,8,34,34,76,46,8,9,2,4,0.6,0.4
2026-07-01T0000,2365A,114.932,25.8332,赣州市,市图书馆,,12,8,16,3,7,37,37,70,49,6,5,4,5,0.7,0.6
2026-07-01T0000,2366A,114.8905,25.8472,赣州市,华坚鞋城,,13,13,21,7,8,39,39,65,47,6,8,2,1,0.2,0.2
2026-07-01T0000,3109A,115.0094,25.8614,赣州市,赣县区卫计委,,11,11,17,3,5,27,27,61,42,8,6,1,1,0.3,0.3
2026-07-01T0000,2684A,106.2753,36.0057,固原市,监测站,颗粒物(PM10),58,60,34,22,11,111,111,140,117,9,15,5,5,0.4,0.3
2026-07-01T0000,2685A,106.2384,36.0189,固原市,新区,,36,36,33,17,12,110,110,136,110,8,14,6,6,0.4,0.3
2026-07-01T0000,2544A,106.6307,30.4577,广安市,市委,细颗粒物(PM2.5),52,41,26,36,18,25,25,89,69,23,12,5,6,0.8,0.6
2026-07-01T0000,2545A,106.6266,30.4662,广安市,友谊中学,,39,34,21,27,15,35,35,92,73,22,11,8,9,0.7,0.5
2026-07-01T0000,2547A,106.6386,30.4551,广安市,广电花园,NA,NA,NA,18,26,17,NA,NA,85,75,26,12,8,8,0.8,0.6
2026-07-01T0000,2902A,106.6347,30.4868,广安市,北辰小学,,39,30,22,27,18,41,41,91,74,15,11,7,6,0.6,0.5
2026-07-01T0000,2524A,105.8211,32.4444,广元市,老城,,31,31,23,16,13,83,83,123,105,7,6,9,10,0.6,0.7
2026-07-01T0000,2526A,105.8629,32.429,广元市,监测站,,39,39,39,15,15,79,79,119,103,9,8,3,6,0.5,0.6
2026-07-01T0000,3617A,105.8047,32.4167,广元市,经开区,,24,23,25,14,16,74,74,114,95,12,8,5,7,0.6,0.6
2026-07-01T0000,1345A,113.2346,23.1423,广州市,广雅中学,,17,15,15,8,8,17,17,80,50,34,21,4,4,0.6,0.6
2026-07-01T0000,1346A,113.2611,23.105,广州市,市五中,,16,15,14,8,9,22,22,94,60,32,19,4,4,/,/
2026-07-01T0000,1348A,113.3477,23.0916,广州市,广东商学院,,25,25,18,6,8,5,5,84,47,45,23,8,5,0.5,0.5
2026-07-01T0000,1349A,113.4332,23.105,广州市,市八十六中,,20,20,18,13,11,17,17,89,44,34,31,12,8,/,/
2026-07-01T0000,1350A,113.3506,22.9488,广州市,番禺中学,,17,11,12,7,6,15,15,77,49,33,18,6,5,0.6,0.5
2026-07-01T0000,1351A,113.2147,23.3918,广州市,花都师范,,20,20,30,11,16,18,18,92,47,39,30,2,3,0.7,0.7
2026-07-01T0000,1352A,113.2599,23.1329,广州市,市监测站,,14,14,16,7,9,25,25,85,54,22,17,3,3,/,/
2026-07-01T0000,1353A,113.5618,23.3119,广州市,九龙镇镇龙,,15,15,19,10,12,21,21,100,49,20,19,6,7,0.6,0.6
2026-07-01T0000,1354A,113.2764,23.1544,广州市,麓湖,,16,14,15,6,8,20,20,78,54,31,19,7,7,0.5,0.5
2026-07-01T0000,2846A,113.3209,23.1323,广州市,体育西,,25,19,18,10,9,8,8,77,46,49,27,7,6,0.4,0.4
2026-07-01T0000,3298A,113.5718,23.5493,广州市,从化街口,,14,11,16,7,10,43,43,98,77,10,10,7,7,0.5,0.5
2026-07-01T0000,3299A,113.3463,23.369,广州市,白云竹料,,12,12,26,7,15,28,28,93,54,22,24,2,3,0.5,0.6
2026-07-01T0000,3300A,113.2981,23.2365,广州市,白云嘉禾,,19,14,24,7,13,12,12,91,47,37,31,15,14,/,/
2026-07-01T0000,3301A,113.4256,23.1716,广州市,黄埔科学城,,10,8,18,7,15,23,23,90,46,20,22,8,8,0.6,0.6
2026-07-01T0000,3302A,113.3942,23.0485,广州市,番禺大学城,,21,NA,17,6,7,9,9,88,51,42,23,5,5,0.5,0.4
2026-07-01T0000,3303A,113.4923,22.8169,广州市,南沙黄阁,,15,12,13,3,6,21,21,74,47,29,18,7,7,/,/
2026-07-01T0000,3304A,113.534,22.7893,广州市,南沙街,,18,17,13,12,6,15,15,72,47,24,19,7,8,0.5,0.4
2026-07-01T0000,3443A,113.2905,23.5541,广州市,花都梯面,,22,22,22,11,11,15,15,88,46,13,16,7,8,/,/
2026-07-01T0000,3445A,113.786,23.7479,广州市,从化良口,,42,42,18,8,9,30,30,55,47,8,10,4,4,/,/
2026-07-01T0000,3446A,113.805,23.2614,广州市,增城荔城,,10,10,16,3,10,15,15,103,50,13,13,7,8,0.5,0.5
2026-07-01T0000,2506A,109.604387,23.066791,贵港市,江南子站,,22,22,22,10,12,20,20,61,28,17,11,4,6,0.7,0.6
2026-07-01T0000,2508A,109.5669,23.1065,贵港市,荷城子站,,19,17,16,13,11,29,29,60,36,12,10,6,6,0.6,0.7
2026-07-01T0000,3405A,109.5886,23.1172,贵港市,新世纪学校,,20,17,16,14,12,19,19,59,30,15,11,/,/,0.6,0.5
2026-07-01T0000,4260A,109.5933,23.095,贵港市,中山路155-3号,,25,25,25,16,11,17,17,66,34,18,12,/,/,0.5,0.5
2026-07-01T0000,1439A,106.6863,26.6035,贵阳市,马鞍山,,14,14,10,7,6,20,20,41,31,9,10,10,10,/,/
2026-07-01T0000,1441A,106.6241,26.6266,贵阳市,鉴湖路,,27,27,22,6,5,31,31,48,36,11,9,6,7,1.0,0.8
2026-07-01T0000,1442A,106.7468,26.6344,贵阳市,燕子冲,,19,19,17,3,5,40,40,40,39,8,11,7,8,0.5,0.7
2026-07-01T0000,1443A,106.6556,26.4362,贵阳市,碧云窝,,27,27,24,3,7,26,26,48,38,9,12,4,5,/,/
2026-07-01T0000,1445A,106.6963,26.6063,贵阳市,红边门,,14,14,9,8,6,42,42,45,41,7,11,5,5,/,/
2026-07-01T0000,1446A,106.7162383,26.56964667,贵阳市,新华路,,14,12,17,6,4,44,44,52,48,7,9,7,6,0.6,0.6
2026-07-01T0000,1447A,106.6742,26.542,贵阳市,太慈桥,,19,19,16,12,7,5,5,38,28,17,13,2,2,/,/
2026-07-01T0000,4230A,106.688212,26.56952,贵阳市,花果园大街66号,,18,18,16,6,8,41,41,45,41,9,13,2,2,/,/
2026-07-01T0000,4231A,106.687268,26.516892,贵阳市,漓江路57号,,16,NA,10,11,7,29,29,40,34,10,13,1,1,0.8,0.9
2026-07-01T0000,1864A,110.3091,25.2705,桂林市,龙隐路小学,,12,12,22,3,11,38,38,50,43,6,5,3,4,0.5,0.6
2026-07-01T0000,1865A,110.2849361,25.22909545,桂林市,八中,,11,8,21,3,7,34,34,54,47,11,9,3,8,0.7,0.8
2026-07-01T0000,3531A,110.296,25.1254,桂林市,旅游学院,,23,23,25,3,9,31,31,52,39,3,4,7,8,0.3,0.4
2026-07-01T0000,4222A,110.1835,25.2444,桂林市,环湖路276号,,13,7,11,3,9,39,39,58,53,12,4,4,4,0.5,0.5
2026-07-01T0000,4301A,110.2803,25.2773,桂林市,信义路13号,,12,6,19,3,10,38,38,53,47,8,7,3,9,0.5,0.6
2026-07-01T0000,2674A,100.2262,34.4854,果洛藏族自治州,玛沁县大武镇,,34,28,35,7,10,108,108,126,115,1,2,15,14,0.3,0.3
2026-07-01T0000,1130A,126.5557,45.8109,哈尔滨市,松北商大,,44,44,44,29,33,29,29,140,92,36,22,6,6,0.6,0.5
2026-07-01T0000,1132A,126.6162,45.719,哈尔滨市,南岗学府路,细颗粒物(PM2.5),100,83,59,60,40,20,20,126,68,68,35,6,8,0.6,0.5
2026-07-01T0000,1133A,126.6894,45.7733,哈尔滨市,太平宏伟公园,颗粒物(PM10),63,67,53,34,21,16,16,126,82,80,33,6,7,0.5,0.4
2026-07-01T0000,1134A,126.6361,45.7672,哈尔滨市,道外承德广场,NA,NA,76,66,37,24,NA,NA,138,NA,51,32,5,6,0.3,0.6
2026-07-01T0000,1136A,126.644,45.7261,哈尔滨市,动力和平路,颗粒物(PM10),80,91,65,38,22,15,15,126,69,86,40,8,8,0.7,0.6
2026-07-01T0000,1137A,126.5933,45.7479,哈尔滨市,道里建国路,细颗粒物(PM2.5),64,68,59,42,27,34,34,142,89,68,29,4,9,2.3,1.6
2026-07-01T0000,1138A,126.6127,45.6119,哈尔滨市,平房东轻厂,,40,39,27,28,21,31,31,112,76,36,20,7,7,0.9,0.8
2026-07-01T0000,1139A,126.5875,45.9827,哈尔滨市,呼兰师专,颗粒物(PM10),58,60,52,28,22,27,27,136,87,48,25,3,3,0.8,0.6
2026-07-01T0000,1140A,126.6299,45.6799,哈尔滨市,省农科院,颗粒物(PM10),75,84,66,31,28,0,0,102,34,83,48,5,5,0.8,0.6
2026-07-01T0000,4282A,126.6769,45.7379,哈尔滨市,华山路1号,颗粒物(PM10),65,70,45,34,22,35,35,136,91,66,28,3,7,0.3,0.3
2026-07-01T0000,4283A,126.9717,45.5356,哈尔滨市,解放大街52号,颗粒物(PM10),53,54,43,20,12,62,62,123,89,31,22,4,4,0.5,0.5
2026-07-01T0000,2688A,93.5124,42.8176,哈密市,地区监测站,颗粒物(PM10),55,57,19,20,11,77,77,140,114,34,10,1,6,0.4,0.4
2026-07-01T0000,2689A,93.5014,42.8312,哈密市,哈密师范学校,颗粒物(PM10),92,108,34,47,16,42,42,129,98,54,15,8,8,0.7,0.1
2026-07-01T0000,2671A,100.9016,36.9464,海北藏族自治州,海晏县西海镇,,28,22,17,10,10,89,89,147,120,5,3,7,6,0.4,0.3
2026-07-01T0000,3867A,102.074,36.5056,海东市,平安区公安局北苑,,29,23,23,14,15,92,92,140,118,4,7,8,9,0.4,0.5
2026-07-01T0000,4163A,102.0984,36.5119,海东市,滨河路,,40,38,25,28,14,10,10,136,89,74,27,7,7,0.5,0.5
2026-07-01T0000,1410A,110.3189,20.0596,海口市,海南大学,,21,21,16,9,8,58,58,69,62,4,5,4,5,0.3,0.3
2026-07-01T0000,1411A,110.2827,20.0051,海口市,秀英海南医院,,16,16,14,9,8,43,43,70,61,20,12,5,5,0.3,0.3
2026-07-01T0000,1412A,110.3391,19.9979,海口市,海南师范大学,,24,24,17,7,7,49,49,64,58,5,4,3,3,0.4,0.4
2026-07-01T0000,1413A,110.3303,20.0359,海口市,龙华路环保局宿舍,,20,19,17,9,9,61,61,70,65,5,5,/,/,0.3,0.3
2026-07-01T0000,3539A,110.5111,19.9737,海口市,桂林洋子站,,19,19,17,8,8,47,47,61,54,4,4,/,/,/,/
2026-07-01T0000,4134A,110.1952,20.0451,海口市,长滨二路9号,,24,24,17,8,8,42,42,62,52,5,4,/,/,/,/
2026-07-01T0000,2673A,100.6158,36.2985,海南藏族自治州,共和县恰卜恰镇,,38,29,23,12,10,121,121,137,132,8,5,10,9,0.4,0.4
2026-07-01T0000,2676A,97.373,37.376,海西蒙古族藏族自治州,德令哈市,,37,32,90,18,36,117,117,128,122,2,2,16,19,0.3,0.3
2026-07-01T0000,1049A,114.492,36.5712,邯郸市,矿院,,38,29,51,26,43,80,80,211,146,10,9,10,8,1.7,1.1
2026-07-01T0000,1050A,114.4839,36.6136,邯郸市,丛台公园,,36,36,55,17,37,94,94,202,144,11,12,11,13,1.2,1
2026-07-01T0000,3458A,114.7893,36.5592,邯郸市,香泉濮院小区,NA,NA,NA,72,NA,60,NA,NA,196,NA,NA,23,NA,2,NA,0.7
2026-07-01T0000,3580A,114.1998,36.4439,邯郸市,峰峰矿区临水派出所,,34,32,36,18,25,106,106,188,NA,9,15,3,13,0.5,1
2026-07-01T0000,4068A,114.5209,36.7697,邯郸市,建安街268号,,35,35,61,18,35,83,83,208,142,18,18,2,4,0.5,0.7
2026-07-01T0000,4069A,114.5488,36.6177,邯郸市,丛台东路558号,,36,36,55,16,40,72,72,188,133,13,22,5,4,1.3,0.9
2026-07-01T0000,2635A,107.0155,33.0707,汉中市,市监测站,,29,29,39,17,25,89,89,145,120,14,12,8,5,0.4,0.5
2026-07-01T0000,2636A,107.0083,33.114,汉中市,鑫源开发区,,36,36,37,3,10,85,85,146,111,13,12,11,7,0.3,0.4
2026-07-01T0000,2637A,107.0072,33.0323,汉中市,南郑大河坎水厂,,34,34,34,23,22,70,70,133,109,16,12,3,4,0.5,0.7
2026-07-01T0000,1223A,120.2073,30.2111,杭州市,滨江,,18,18,20,10,12,22,22,41,25,16,19,5,4,0.6,0.6
2026-07-01T0000,1224A,120.0625,30.2737,杭州市,西溪,,29,29,13,12,6,2,2,32,14,8,9,4,4,0.8,0.9
2026-07-01T0000,1226A,120.3417,30.315,杭州市,下沙,,18,15,15,8,13,7,7,47,27,36,24,4,4,0.6,0.6
2026-07-01T0000,1227A,120.1252,30.2465,杭州市,卧龙桥,,14,14,17,3,10,1,1,28,8,9,13,5,5,0.5,0.5
2026-07-01T0000,1228A,120.1902,30.2691,杭州市,浙江农大,,13,13,12,8,11,8,8,41,23,26,21,6,6,0.5,0.5
2026-07-01T0000,1230A,120.1195,30.3121,杭州市,和睦小学,,13,12,13,9,11,16,16,44,30,14,10,7,8,0.6,0.6
2026-07-01T0000,1231A,120.3076,30.4146,杭州市,临平镇,,20,20,20,13,11,11,11,48,31,28,20,6,6,0.6,0.6
2026-07-01T0000,1232A,120.2753,30.1839,杭州市,城厢镇,,18,18,16,12,9,10,10,42,24,25,20,5,5,1.0,0.9
2026-07-01T0000,1233A,120.0883,30.1808,杭州市,云栖,,23,23,18,3,8,1,1,27,10,11,15,5,5,0.7,0.7
2026-07-01T0000,3557A,119.9463,30.0496,杭州市,镇二中,,18,18,13,12,10,3,3,36,19,29,20,5,5,0.9,0.8
2026-07-01T0000,3558A,119.7184,30.2367,杭州市,市府大楼,,12,10,9,8,8,5,5,42,22,14,9,7,7,0.6,0.6
2026-07-01T0000,3656A,120.1554,30.2863,杭州市,消防大队,,12,12,13,8,11,14,14,41,26,14,14,7,7,0.8,0.8
2026-07-01T0000,1270A,117.1957,31.7845,合肥市,明珠广场,,20,17,12,8,5,63,63,110,72,11,7,7,7,0.5,0.5
2026-07-01T0000,1271A,117.307,31.8765,合肥市,三里街,,22,14,15,9,5,70,70,105,79,14,10,9,9,0.5,0.5
2026-07-01T0000,1272A,117.2587,31.8703,合肥市,琥珀山庄,,23,14,13,7,4,71,71,115,85,11,6,6,6,0.6,0.5
2026-07-01T0000,1275A,117.2593,31.9376,合肥市,庐阳区,,27,9,15,3,4,84,84,125,90,11,12,7,9,0.5,0.4
2026-07-01T0000,1276A,117.345251,31.861615,合肥市,瑶海区,,19,12,14,9,4,58,58,108,72,16,9,8,8,0.5,0.5
2026-07-01T0000,1277A,117.3033,31.7967,合肥市,包河区,,19,14,10,7,3,60,60,104,79,18,7,8,8,0.6,0.6
2026-07-01T0000,1278A,117.278,31.7392,合肥市,滨湖新区,,19,7,6,3,2,58,58,103,74,19,6,11,11,0.6,0.6
2026-07-01T0000,1279A,117.1324,31.8395,合肥市,高新区,,22,14,15,7,5,69,69,116,81,4,4,6,6,0.5,0.5
2026-07-01T0000,3464A,117.3802,31.9148,合肥市,高教基地,,19,14,13,13,5,48,48,108,76,10,6,5,5,0.4,0.4
2026-07-01T0000,4098A,117.2518,31.8404,合肥市,中国科学技术大学,,20,14,9,8,4,63,63,119,85,19,7,9,9,0.5,0.5
2026-07-01T0000,3614A,79.9241,37.0878,和田地区,地区环保局,颗粒物(PM10),102,124,113,45,30,111,111,149,136,13,5,7,7,0.2,0.2
2026-07-01T0000,3615A,79.9132,37.1137,和田地区,市环保局,颗粒物(PM10),83,95,98,32,22,119,119,150,138,18,11,2,2,0.4,0.4
2026-07-01T0000,2517A,108.0496,24.6957,河池市,市环保站,,12,6,20,3,9,36,36,44,34,6,6,3,3,0.8,0.9
2026-07-01T0000,4302A,108.0901,24.6945,河池市,上任中路54号,,10,6,21,3,8,32,32,55,47,15,7,3,4,0.7,0.8
2026-07-01T0000,1697A,114.6962,23.7538,河源市,东埔,,45,45,25,18,9,21,21,58,37,8,6,10,5,0.6,0.6
2026-07-01T0000,1698A,114.6895,23.7232,河源市,老城,,16,16,16,3,7,22,22,59,37,16,7,6,8,0.5,0.2
2026-07-01T0000,3374A,115.5562,35.089,菏泽市,定陶老年大学,细颗粒物(PM2.5),96,80,66,58,50,140,140,206,190,15,11,2,3,0.6,0.5
2026-07-01T0000,4114A,115.4239,35.2593,菏泽市,黄河路600号,细颗粒物(PM2.5),94,85,69,57,50,129,129,181,168,10,8,4,4,0.6,0.5
2026-07-01T0000,4115A,115.5025,35.2727,菏泽市,菏泽市人社局,细颗粒物(PM2.5),80,81,63,50,47,121,121,173,164,19,15,6,6,0.5,0.5
2026-07-01T0000,4184A,115.479691,35.244011,菏泽市,永昌路1号,细颗粒物(PM2.5),80,77,67,50,47,149,149,196,186,12,12,6,6,0.4,0.3
2026-07-01T0000,4193A,115.471542,35.280012,菏泽市,长城路999号,颗粒物(PM10),88,102,62,49,48,124,124,188,174,15,11,4,8,0.5,0.6
2026-07-01T0000,2514A,111.5264,24.4178,贺州市,环保小区,,18,18,21,10,12,36,36,68,52,10,8,4,4,0.4,0.4
2026-07-01T0000,2515A,111.561,24.4074,贺州市,政协大楼,NA,NA,NA,NA,NA,NA,NA,NA,NA,NA,NA,NA,NA,NA,NA,NA
2026-07-01T0000,3534A,111.4744,24.455,贺州市,西湾,,28,28,34,7,9,29,29,60,42,14,9,8,8,0.3,0.4
2026-07-01T0000,2385A,114.17,35.9019,鹤壁市,市监测站,,37,36,49,25,32,116,116,172,150,5,6,3,6,0.4,0.6
2026-07-01T0000,2386A,114.2953,35.7512,鹤壁市,市交警支队,,37,24,50,24,30,116,116,168,149,15,13,5,7,0.4,0.6
2026-07-01T0000,2387A,114.2877,35.7302,鹤壁市,迎宾馆,,40,18,42,14,24,125,125,171,152,8,10,6,8,0.6,0.7
2026-07-01T0000,3474A,114.2616,35.6824,鹤壁市,大新区,,40,NA,46,16,33,125,125,171,154,10,12,6,7,0.5,0.6
2026-07-01T0000,3596A,114.1573,35.9607,鹤壁市,南山宾馆,,42,NA,38,29,37,98,98,169,143,7,8,8,11,0.4,0.6
2026-07-01T0000,2244A,130.2537,47.3416,鹤岗市,哈啤分公司,,34,34,23,20,11,57,57,111,87,16,10,3,3,0.1,0.1
2026-07-01T0000,2245A,130.2683,47.3087,鹤岗市,斯达机电,,45,45,26,14,12,48,48,113,89,24,10,5,5,0.2,0.2
2026-07-01T0000,2246A,130.3114,47.3388,鹤岗市,东山纸板厂,颗粒物(PM10),188,326,73,39,17,4,4,94,51,41,19,8,6,0.6,0.3
2026-07-01T0000,2263A,127.4832,50.2524,黑河市,交通局,,35,35,27,3,11,45,45,124,86,17,13,5,5,0.6,0.5
2026-07-01T0000,2264A,127.5146,50.2339,黑河市,环保局,颗粒物(PM10),52,52,28,17,14,42,42,124,95,28,13,9,7,0.3,0.3
2026-07-01T0000,1074A,115.6839,37.754,衡水市,电机北厂,,45,45,74,28,45,111,111,176,132,10,17,2,2,0.5,0.6
2026-07-01T0000,1075A,115.6303,37.7318,衡水市,市监测站,颗粒物(PM10),58,61,72,23,39,99,99,181,137,12,17,8,7,1.0,0.9
2026-07-01T0000,3188A,115.6684,37.7216,衡水市,市城管局,,50,50,67,24,41,103,103,178,132,9,16,2,4,0.5,0.5
2026-07-01T0000,3459A,115.599,37.5491,衡水市,地表水厂,颗粒物(PM10),52,52,67,30,37,126,126,183,138,10,16,8,7,0.3,0.4
2026-07-01T0000,2457A,112.6209,26.9268,衡阳市,衡阳化工总厂,,22,NA,22,15,10,57,57,70,57,6,7,3,6,0.8,0.8
2026-07-01T0000,2458A,112.621,26.8957,衡阳市,珠晖区环保局,,18,13,20,12,10,54,54,71,56,7,6,5,6,1.0,1
2026-07-01T0000,2459A,112.628,26.8654,衡阳市,市委党校,,19,NA,19,12,11,59,59,72,59,3,4,4,7,0.6,0.6
2026-07-01T0000,2460A,112.6007,26.8977,衡阳市,市监测站,,19,13,18,9,12,59,59,74,62,9,7,6,9,0.8,0.9
2026-07-01T0000,2461A,112.5658,26.9013,衡阳市,真空机电公司,,18,11,18,9,11,57,57,71,59,7,8,4,5,0.8,1
2026-07-01T0000,3399A,112.6703,26.8817,衡阳市,师范学院,,20,NA,19,12,11,61,61,73,60,6,6,8,9,0.8,0.8
2026-07-01T0000,3038A,103.3757,23.3679,红河哈尼族彝族自治州,州图书馆,,18,NA,20,12,14,42,42,55,46,5,7,3,4,0.4,0.5
2026-07-01T0000,4154A,103.401,23.3561,红河哈尼族彝族自治州,蒙自市朝阳路,,14,11,15,7,14,42,42,57,46,5,7,6,7,0.3,0.4
2026-07-01T0000,1090A,111.6506,40.7517,呼和浩特市,呼市一监,,30,29,21,21,12,48,48,145,85,25,11,7,7,0.6,0.4
2026-07-01T0000,1094A,111.7516,40.8369,呼和浩特市,如意水处理厂,,23,22,26,16,15,53,53,153,87,34,15,7,8,0.5,0.5
2026-07-01T0000,1095A,111.727798,40.806187,呼和浩特市,二十九中,,43,43,27,16,20,39,39,147,93,39,12,9,10,0.8,0.7
2026-07-01T0000,1097A,111.717,40.7617,呼和浩特市,化肥厂生活区,,33,24,26,23,20,41,41,145,83,40,15,10,11,0.7,0.6
2026-07-01T0000,3699A,111.6519,40.8389,呼和浩特市,海东办,,27,27,23,3,6,58,58,148,104,41,17,7,8,0.5,0.5
2026-07-01T0000,4275A,111.591512,40.827312,呼和浩特市,成吉思汗西街8号,,29,29,27,10,10,45,45,148,92,48,28,5,7,0.4,0.4
2026-07-01T0000,4276A,111.6597,40.8077,呼和浩特市,公园东路75号,,28,22,21,19,12,88,88,158,124,23,13,11,12,0.7,0.7
2026-07-01T0000,4277A,111.5427,40.7846,呼和浩特市,金海路35号,,41,41,30,10,15,55,55,134,91,41,21,5,7,0.5,0.6
2026-07-01T0000,3061A,119.7511,49.1576,呼伦贝尔市,国华电力东,,26,25,23,18,15,43,43,106,67,10,9,5,5,0.4,0.4
2026-07-01T0000,4279A,119.7569,49.2222,呼伦贝尔市,伊敏大街东7号,,34,34,27,10,15,47,47,100,62,17,14,7,6,0.6,0.5
2026-07-01T0000,1250A,120.075,30.867,湖州市,城西水厂,,20,17,20,14,14,60,60,68,NA,16,17,6,5,0.7,0.7
2026-07-01T0000,2873A,120.083,30.8929,湖州市,仁皇山新区,,23,17,19,16,15,46,46,51,49,32,18,5,5,0.6,0.6
2026-07-01T0000,2907A,120.1846,30.8592,湖州市,吴兴区站,,19,11,13,10,11,59,59,58,58,10,14,6,6,0.5,0.5
2026-07-01T0000,3562A,120.4146,30.8538,湖州市,南浔区站,,20,16,14,14,12,56,56,55,50,11,13,7,7,0.7,0.7
2026-07-01T0000,1607A,120.904878,40.721091,葫芦岛市,龙港区,,35,NA,30,24,21,98,98,105,98,5,7,8,8,0.5,0.5
2026-07-01T0000,1608A,120.8382,40.7521,葫芦岛市,化工街,,39,31,30,27,22,89,89,107,99,13,12,10,11,0.3,0.3
2026-07-01T0000,1609A,120.8339,40.7078,葫芦岛市,新区,,32,NA,29,20,21,101,101,99,NA,4,6,4,4,0.4,0.4
2026-07-01T0000,1610A,120.8697,40.7679,葫芦岛市,东城区,,39,29,29,27,24,86,86,104,93,13,10,2,2,0.6,0.5
2026-07-01T0000,2483A,109.9297,27.5383,怀化市,河西地税局,,22,16,18,15,13,27,27,76,47,11,8,8,10,/,/
2026-07-01T0000,2484A,109.9783,27.5342,怀化市,市四医院,,25,25,20,15,15,34,34,77,60,12,7,6,7,0.2,0.3
2026-07-01T0000,2485A,109.9971,27.5579,怀化市,监测楼,,26,22,20,18,12,38,38,72,60,10,7,9,8,0.3,0.2
2026-07-01T0000,1210A,119.0566,33.5991,淮安市,钵池山,,36,34,45,25,31,81,81,117,96,11,12,7,7,0.4,0.4
2026-07-01T0000,1211A,119.0083,33.578,淮安市,北京南路,,43,31,45,30,34,86,86,133,102,8,7,7,7,0.8,0.9
2026-07-01T0000,1212A,118.9938,33.6083,淮安市,市监测站,,46,NA,36,32,37,79,79,129,102,14,12,7,7,0.6,0.4
2026-07-01T0000,1213A,119.135,33.5038,淮安市,楚州区监测站,,39,NA,38,27,35,86,86,125,100,7,8,6,6,0.7,0.8
2026-07-01T0000,3426A,118.8757,33.2897,淮安市,新华书店,,32,32,44,18,25,88,88,131,101,10,13,8,9,0.8,0.9
2026-07-01T0000,4092A,119.119691,33.550006,淮安市,枚皋中路89号,,38,27,36,26,29,71,71,125,100,13,11,8,8,1.0,0.8
2026-07-01T0000,4206A,119.028838,33.631911,淮安市,承德北路606号,,48,36,43,33,36,66,66,117,88,18,8,6,6,0.8,0.8
2026-07-01T0000,2282A,116.8005,33.9749,淮北市,监测站,,38,38,54,10,37,89,89,188,142,15,12,6,6,0.4,0.6
2026-07-01T0000,2283A,116.8094,33.9008,淮北市,烈山区政府,,38,38,69,10,40,84,84,191,136,16,12,4,4,0.5,0.7
2026-07-01T0000,4017A,116.7926,33.9534,淮北市,市博物馆,,46,46,54,10,36,91,91,198,149,14,10,4,3,0.5,0.7
2026-07-01T0000,4100A,116.8322,33.9884,淮北市,杜集区第一实验学校,,39,39,79,14,46,77,77,187,142,16,12,6,6,0.5,0.7
2026-07-01T0000,2277A,116.8304,32.7726,淮南市,潘集区政府,,23,14,29,10,15,73,73,128,96,12,10,6,8,0.3,0.3
2026-07-01T0000,2279A,116.8569,32.5949,淮南市,谢家集区政府,,25,24,21,17,15,71,71,121,96,16,11,7,7,0.2,0.2
2026-07-01T0000,2280A,116.8279,32.6333,淮南市,八公山区政府,,22,22,27,11,15,70,70,125,98,8,7,7,7,0.2,0.2
2026-07-01T0000,2894A,117.0561,32.6536,淮南市,经济技术开发区消防队,,26,15,19,8,13,82,82,119,96,10,9,7,8,0.4,0.5
2026-07-01T0000,3329A,117.011,32.5891,淮南市,山南新区,,25,20,18,12,15,77,77,118,92,7,7,10,10,0.4,0.4
2026-07-01T0000,4209A,117.003137,32.644456,淮南市,国庆中路369号,,24,24,30,8,14,71,71,107,85,10,10,7,7,0.2,0.3
2026-07-01T0000,2446A,114.9021,30.474,黄冈市,职工中心,,26,26,14,13,8,44,44,73,60,13,12,8,9,0.8,0.7
2026-07-01T0000,2929A,114.8858,30.4519,黄冈市,红卫路,,19,19,14,11,11,54,54,72,62,4,6,6,7,0.8,0.6
2026-07-01T0000,3398A,114.9134,30.4446,黄冈市,市林业局,,28,20,15,19,11,59,59,73,63,13,13,3,4,0.7,0.6
2026-07-01T0000,2672A,102.02,35.5101,黄南藏族自治州,同仁县隆务镇,,40,35,22,18,12,127,127,164,151,1,2,9,10,0.2,0.2
2026-07-01T0000,2295A,118.2905,29.6965,黄山市,延安路89号,,9,8,7,3,2,27,27,39,33,10,8,5,5,0.4,0.5
2026-07-01T0000,2297A,118.1369,30.2755,黄山市,黄山区政府5号楼,,20,11,8,3,0,61,61,64,40,2,2,3,3,0.5,0.5
2026-07-01T0000,4210A,118.335445,29.720283,黄山市,滨江东路7-2号,,15,15,16,3,1,23,23,33,28,4,6,/,/,/,/
2026-07-01T0000,2423A,115.0547,30.2332,黄石市,沈家营,,40,40,24,13,6,38,38,61,44,10,11,4,6,0.6,0.6
2026-07-01T0000,2426A,114.899,30.211,黄石市,铁山,,18,18,16,3,5,44,44,68,55,7,5,4,4,0.3,0.3
2026-07-01T0000,2427A,115.0259,30.2108,黄石市,团城山,,32,32,18,6,6,39,39,75,58,9,4,4,4,0.7,0.6
2026-07-01T0000,3149A,115.0174,30.1591,黄石市,笔架山北路,,39,39,23,3,5,42,42,65,53,7,6,4,4,0.4,0.3
2026-07-01T0000,4185A,115.078022,30.21118,黄石市,磁湖东路29号,,50,50,21,18,8,20,20,76,50,40,14,4,4,0.9,0.8
2026-07-01T0000,1392A,114.4181,23.0528,惠州市,河南岸金山湖子站,,11,11,10,6,6,25,25,78,48,9,7,7,7,0.5,0.5
2026-07-01T0000,1393A,114.4055,23.0824,惠州市,下埔横江三路子站,,18,18,13,10,7,42,42,86,56,5,6,7,6,0.5,0.5
2026-07-01T0000,1395A,114.4645,22.7832,惠州市,惠阳区承修路船湖子站,,21,21,10,13,6,26,26,74,49,16,7,4,4,0.6,0.6
2026-07-01T0000,1396A,114.5316,22.7423,惠州市,大亚湾管委会子站,NA,NA,NA,11,NA,6,NA,NA,64,46,11,9,6,5,0.4,0.5
2026-07-01T0000,3314A,114.4334,22.8134,惠州市,惠阳秋长,,20,17,7,14,6,12,12,80,47,22,9,/,/,/,/
2026-07-01T0000,3452A,114.6521,22.7755,惠州市,大亚湾霞涌,,16,16,9,7,4,23,23,66,50,10,5,/,/,/,/
2026-07-01T0000,4300A,114.4089,23.1147,惠州市,文华一路1号,,12,6,8,3,6,36,36,86,53,6,7,/,/,/,/
2026-07-01T0000,2240A,130.9618,45.2926,鸡西市,环保局,颗粒物(PM10),53,54,32,31,21,28,28,136,93,31,14,9,10,0.4,0.4
2026-07-01T0000,2243A,130.9294,45.2959,鸡西市,第一中学,颗粒物(PM10),53,53,32,27,21,23,23,112,81,68,19,9,9,0.4,0.4
2026-07-01T0000,3707A,131.0069,45.2988,鸡西市,欧美日汽修厂,颗粒物(PM10),77,87,40,22,16,27,27,126,73,28,17,6,6,0.7,0.7
2026-07-01T0000,2367A,114.9753,27.0803,吉安市,红声器材厂,,19,17,24,7,7,60,60,77,56,6,9,6,6,0.3,0.3
2026-07-01T0000,2369A,114.9903,27.1313,吉安市,市环境监测站,,37,37,26,3,7,59,59,72,47,4,9,7,9,/,/
2026-07-01T0000,2370A,115.009527,27.096792,吉安市,青原区法院,,27,27,26,8,7,63,63,78,52,3,9,6,7,0.2,0.3
2026-07-01T0000,1772A,126.54,43.8622,吉林市,哈达湾,,40,40,40,25,24,43,43,146,108,32,20,5,6,0.6,0.5
2026-07-01T0000,1773A,126.5843,43.8358,吉林市,东局子,,31,31,33,20,26,61,61,134,80,10,13,4,4,1.1,1.1
2026-07-01T0000,1774A,126.5051,43.8243,吉林市,电力学院,颗粒物(PM10),65,70,39,36,26,20,20,160,95,40,23,6,6,1.0,1
2026-07-01T0000,1775A,126.6133,43.8971,吉林市,江北,,45,36,33,31,32,36,36,134,83,14,13,7,7,0.6,0.6
2026-07-01T0000,1776A,126.5549,43.8304,吉林市,江南公园,,28,28,33,18,21,58,58,141,94,8,13,5,5,0.1,0.2
2026-07-01T0000,2868A,126.4737,43.953,吉林市,九站,细颗粒物(PM2.5),54,53,45,37,29,9,9,156,104,60,22,38,7,0.4,0.3
2026-07-01T0000,1299A,116.9866,36.6118,济南市,科干所,,39,14,37,3,24,122,122,164,147,12,12,3,4,0.6,0.7
2026-07-01T0000,1300A,116.9379,36.6652,济南市,农科所,,37,7,38,7,28,118,118,154,143,10,12,2,3,0.1,0.3
2026-07-01T0000,1301A,117.1265,36.6736,济南市,开发区,,30,10,38,7,24,94,94,121,110,8,9,5,6,0.5,0.6
2026-07-01T0000,1303A,117.0616,36.6865,济南市,省种子仓库,,34,17,46,7,25,106,106,152,132,12,13,4,5,0.4,0.5
2026-07-01T0000,1304A,116.9495185,36.644937,济南市,机床二厂,,35,NA,44,6,26,112,112,149,136,10,11,4,5,0.3,0.4
2026-07-01T0000,1305A,117.0496,36.6629,济南市,市监测站,,35,10,41,6,24,112,112,148,134,11,12,3,3,0.4,0.5
2026-07-01T0000,1306A,116.7674,36.5458,济南市,长清党校,NA,NA,12,45,NA,30,144,144,157,155,9,8,3,3,0.3,0.4
2026-07-01T0000,1961A,117.5323,36.6865,济南市,东山小学,,36,10,39,7,26,115,115,143,132,13,12,2,4,0.3,0.4
2026-07-01T0000,3059A,117.7181,36.205,济南市,泰兴公司,,34,7,42,3,28,108,108,139,127,9,14,6,9,0.3,0.4
2026-07-01T0000,3064A,117.6861,36.2172,济南市,莱芜战役纪念馆,,35,12,40,3,25,112,112,137,130,17,15,11,9,0.4,0.5
2026-07-01T0000,3494A,117.1673,36.9782,济南市,济阳区政府,,36,15,45,3,28,114,114,158,131,10,16,2,3,0.2,0.5
2026-07-01T0000,3495A,117.1168,36.6299,济南市,锦屏中学,,31,10,38,3,22,97,97,120,114,6,7,7,8,0.2,0.3
2026-07-01T0000,4108A,117.7107,36.2385,济南市,山财大街5号,,38,7,38,6,32,119,119,148,142,21,18,7,8,0.5,0.6
2026-07-01T0000,4109A,116.9744,36.6889,济南市,无影山路12号,,34,7,39,3,27,108,108,148,132,11,13,2,2,0.4,0.6
2026-07-01T0000,1653A,116.6229,35.4288,济宁市,火炬城,,49,49,61,16,37,119,119,182,148,6,10,1,4,0.6,0.8
2026-07-01T0000,3500A,116.5808,35.3703,济宁市,北湖一中,,40,35,68,17,49,126,126,195,158,3,8,5,6,0.4,0.7
2026-07-01T0000,3501A,116.8251,35.5592,济宁市,服务中心,,40,34,54,6,43,128,128,189,144,3,11,3,2,0.4,0.7
2026-07-01T0000,3678A,116.5907,35.4054,济宁市,市第七中学,,41,38,68,18,42,129,129,198,158,5,10,3,4,0.4,0.6
2026-07-01T0000,4111A,116.6075,35.4566,济宁市,任和路,颗粒物(PM10),53,53,70,23,45,115,115,202,156,8,11,2,3,0.6,0.7
2026-07-01T0000,4112A,116.5648,35.3921,济宁市,文体南路1号,,41,41,64,28,37,121,121,189,156,3,7,3,4,0.7,0.9
2026-07-01T0000,4122A,112.6071,35.1015,济源市,市委党校,,39,17,50,3,19,122,122,170,153,10,13,8,10,0.5,0.6
2026-07-01T0000,4123A,112.596,35.0702,济源市,沁园中路1号,NA,NA,14,34,3,20,NA,NA,173,156,15,12,3,3,0.8,0.7
2026-07-01T0000,2255A,130.2749,46.8028,佳木斯市,佳纺,,49,49,52,19,15,23,23,105,62,46,19,3,2,0.2,0.2
2026-07-01T0000,2257A,130.3258,46.7975,佳木斯市,环保局,,35,35,27,22,17,38,38,104,75,44,22,4,4,0.3,0.2
2026-07-01T0000,4285A,130.363,46.806,佳木斯市,顺和街,,44,44,25,25,15,27,27,101,65,43,19,2,2,0.4,0.3
2026-07-01T0000,4286A,130.3952,46.8268,佳木斯市,长安路196号,,41,41,29,22,13,37,37,98,71,39,28,4,5,0.3,0.2
2026-07-01T0000,1252A,120.7439,30.778,嘉兴市,清河小学,,16,13,14,7,7,51,51,57,51,8,13,5,5,0.6,0.6
2026-07-01T0000,1253A,120.7261,30.7477,嘉兴市,嘉兴学院,,16,13,14,10,10,51,51,59,52,15,16,4,4,0.7,0.7
2026-07-01T0000,2872A,120.7845,30.7524,嘉兴市,南湖区残联,,18,8,11,8,10,56,56,67,57,8,12,6,6,0.7,0.7
2026-07-01T0000,3407A,120.6915,30.7741,嘉兴市,秀洲住建,,15,13,11,10,7,48,48,57,50,11,16,6,6,0.7,0.7
2026-07-01T0000,1945A,98.291,39.7705,嘉峪关市,气象局,,39,12,56,12,22,122,122,122,118,3,14,4,16,0.5,0.6
2026-07-01T0000,2884A,98.2672,39.7978,嘉峪关市,酒钢宾馆,,35,19,63,7,20,110,110,113,113,8,10,8,19,0.3,0.6
2026-07-01T0000,3248A,98.2644,39.7723,嘉峪关市,雄关区,,38,34,57,8,19,120,120,122,118,5,15,4,13,0.1,0.2
2026-07-01T0000,1383A,113.1063,22.6058,江门市,北街,,14,14,15,9,7,23,23,60,39,13,8,/,/,/,/
2026-07-01T0000,1384A,113.073,22.5835,江门市,西区,,15,14,13,10,7,31,31,66,47,16,11,/,/,/,/
2026-07-01T0000,1385A,113.0218,22.531,江门市,圭峰西,,13,NA,20,3,7,40,40,70,51,9,9,/,/,/,/
2026-07-01T0000,1386A,113.0826,22.5947,江门市,东湖,,19,19,14,9,8,26,26,64,43,12,10,6,6,0.4,0.4
2026-07-01T0000,3311A,113.1077,22.5647,江门市,江海富民,,30,30,31,8,7,33,33,69,46,14,11,/,/,0.7,0.7
2026-07-01T0000,3449A,113.0496,22.4669,江门市,新会银湖,,12,6,17,6,6,9,9,65,39,24,15,1,2,0.6,0.6
2026-07-01T0000,3335A,113.3137,35.2643,焦作市,马村街道办,,32,25,42,3,26,102,102,175,149,8,12,6,9,0.4,0.5
2026-07-01T0000,3336A,113.2464,35.2374,焦作市,焦作技师学院,,34,NA,40,3,25,108,108,173,152,10,13,7,10,0.6,0.8
2026-07-01T0000,3477A,113.1656,35.2536,焦作市,中站许衡医院,,35,35,40,6,24,105,105,161,140,10,10,7,8,0.4,0.6
2026-07-01T0000,3981A,113.2456,35.18,焦作市,原李万街道办,,39,31,50,13,25,124,124,178,157,4,9,8,8,0.5,0.6
2026-07-01T0000,4264A,113.234,35.219,焦作市,新安路1731号,,40,25,45,13,28,128,128,187,169,2,6,8,11,0.5,0.7
2026-07-01T0000,4295A,113.2722,35.2121,焦作市,人民路3066号,,40,29,47,8,28,127,127,198,174,12,15,4,6,0.5,0.6
2026-07-01T0000,1708A,116.3701,23.5345,揭阳市,新兴,,24,24,18,8,9,22,22,60,37,18,15,10,7,0.5,0.4
2026-07-01T0000,1709A,116.3261,23.5442,揭阳市,西马,,25,25,22,8,9,26,26,62,42,13,11,5,6,0.7,0.6
2026-07-01T0000,1710A,116.361,23.5627,揭阳市,东兴,,19,19,20,10,9,20,20,56,37,15,11,2,4,/,/
2026-07-01T0000,1711A,116.4151,23.5295,揭阳市,渔湖,,26,26,26,10,9,10,10,52,33,24,12,2,2,/,/
2026-07-01T0000,3320A,116.4028,23.5699,揭阳市,曲溪,NA,NA,NA,9,NA,8,NA,NA,46,NA,20,11,4,6,0.3,0.2
2026-07-01T0000,1944A,102.1691,38.5166,金昌市,天庆家园,NA,NA,NA,60,NA,20,NA,NA,134,NA,NA,11,NA,14,NA,0.3
2026-07-01T0000,4022A,102.1648,38.5369,金昌市,金川区人防中心,,29,14,46,11,18,91,91,136,122,10,7,3,7,0.3,0.2
2026-07-01T0000,4239A,102.193042,38.531887,金昌市,长春路96号,,34,34,52,16,20,94,94,131,119,11,6,3,7,0.3,0.3
2026-07-01T0000,1262A,119.6478,29.0773,金华市,十五中,细颗粒物(PM2.5),56,56,39,38,25,38,38,80,64,21,22,1,1,0.7,0.6
2026-07-01T0000,1263A,119.6859,29.1032,金华市,监测站,颗粒物(PM10),52,52,32,31,20,27,27,83,63,23,26,3,4,0.6,0.6
2026-07-01T0000,3659A,119.656,29.1132,金华市,气象局,,50,50,34,33,23,35,35,78,60,20,23,2,2,0.6,0.6
2026-07-01T0000,1767A,121.1114,41.0879,锦州市,南山,,38,NA,28,26,25,82,82,94,91,9,11,4,4,0.3,0.3
2026-07-01T0000,1768A,121.060361,40.842794,锦州市,开发区,,32,26,33,22,27,93,93,105,101,6,11,5,6,0.4,0.4
2026-07-01T0000,1769A,121.1836,41.1118,锦州市,百股街道,,36,NA,28,25,27,58,58,102,77,21,12,4,4,0.3,0.3
2026-07-01T0000,1770A,121.1176,41.1224,锦州市,天安街道,,49,NA,33,34,28,75,75,100,95,19,13,5,5,0.6,0.6
2026-07-01T0000,1771A,121.1303,41.1385,锦州市,北湖公园,细颗粒物(PM2.5),66,50,32,43,27,57,57,93,82,18,10,2,2,0.3,0.3
2026-07-01T0000,2160A,112.8496,35.5051,晋城市,自来水公司,,40,19,41,3,16,128,128,162,152,7,10,4,6,0.5,1
2026-07-01T0000,2162A,112.8509,35.4886,晋城市,市环保局,,38,12,37,3,19,121,121,152,144,7,11,3,7,0.5,1
2026-07-01T0000,3620A,112.8258,35.4804,晋城市,泽州一中,,39,NA,38,6,21,123,123,159,151,10,13,3,5,0.5,0.9
2026-07-01T0000,4078A,112.8246,35.5152,晋城市,前书院路,,40,10,36,3,19,127,127,168,155,5,9,3,4,0.6,0.9
2026-07-01T0000,4079A,112.8864,35.4773,晋城市,祥云街666号,,36,7,36,3,24,113,113,146,137,8,10,2,4,0.4,0.9
2026-07-01T0000,2174A,112.6992,37.6984,晋中市,榆次区政府,,46,46,43,29,29,81,81,151,124,18,18,15,10,0.8,0.7
2026-07-01T0000,2865A,112.7195,37.683,晋中市,榆次三中,细颗粒物(PM2.5),56,53,40,38,26,80,80,162,132,21,15,12,10,0.7,0.5
2026-07-01T0000,4080A,112.7375,37.7215,晋中市,广安街188号,,43,38,44,30,26,85,85,154,125,17,14,8,10,0.3,0.4
2026-07-01T0000,4200A,112.7478,37.6954,晋中市,迎宾街26号,,36,36,36,24,24,85,85,150,124,20,15,11,9,0.6,0.5
2026-07-01T0000,2439A,112.2012,31.048,荆门市,竹园小学,,19,13,23,9,12,59,59,96,62,11,15,4,4,0.7,0.7
2026-07-01T0000,2440A,112.1968,30.9892,荆门市,掇刀,,21,NA,22,10,14,67,67,80,62,6,10,6,9,0.6,0.6
2026-07-01T0000,3012A,112.1849,31.0361,荆门市,西山林语,,15,14,22,9,13,46,46,81,53,8,8,8,9,0.4,0.5
2026-07-01T0000,3547A,112.1631,31.0134,荆门市,龙泉中学南校,,17,NA,20,8,8,53,53,83,57,8,9,6,7,0.8,0.8
2026-07-01T0000,4124A,112.2213,31.0654,荆门市,新台西路6号,,20,17,22,7,16,62,62,98,66,3,9,4,5,0.8,0.9
2026-07-01T0000,1844A,112.2493,30.3198,荆州市,市图书馆,,16,NA,11,10,9,49,49,66,53,13,9,5,5,0.6,0.6
2026-07-01T0000,1845A,112.2009,30.3543,荆州市,市委党校,,16,10,11,8,8,50,50,62,51,12,12,8,7,0.4,0.4
2026-07-01T0000,3194A,112.2749,30.3124,荆州市,管委会,,17,11,16,3,11,54,54,64,53,9,10,8,8,0.4,0.5
2026-07-01T0000,4268A,112.1722,30.3366,荆州市,学苑路85号,,26,26,18,3,10,49,49,56,52,6,9,8,9,0.2,0.2
2026-07-01T0000,2343A,117.2114,29.2931,景德镇市,老干部活动中心,,19,14,8,13,11,26,26,36,20,8,12,5,6,0.9,0.7
2026-07-01T0000,2344A,117.1893,29.2789,景德镇市,兽医站,,29,26,19,20,8,22,22,41,18,9,11,3,4,0.7,0.7
2026-07-01T0000,2346A,117.246,29.2958,景德镇市,陶研所,,17,17,9,9,5,20,20,38,21,5,6,4,4,0.9,0.7
2026-07-01T0000,4289A,117.154766,29.256967,景德镇市,青少年活动中心,,29,26,13,20,9,5,5,32,20,23,16,10,13,/,/
2026-07-01T0000,1803A,115.9873,29.6816,九江市,十里,,25,8,12,3,7,80,80,83,79,8,11,3,3,0.5,0.5
2026-07-01T0000,1804A,115.9583,29.7047,九江市,茅山头,,24,7,9,3,6,76,76,78,78,4,6,3,4,0.5,0.5
2026-07-01T0000,1805A,115.9877,29.7295,九江市,西园,,20,9,10,3,6,62,62,66,64,15,18,3,3,0.3,0.3
2026-07-01T0000,1808A,115.9112,29.6038,九江市,综合工业园,,19,6,10,3,6,49,49,67,54,38,24,1,2,0.5,0.3
2026-07-01T0000,3190A,116.0254,29.6995,九江市,外国语学校,,24,11,9,3,6,75,75,74,68,5,11,7,6,0.7,0.7
2026-07-01T0000,4253A,116.010205,29.659402,九江市,莲花大道8号,,23,6,7,3,7,72,72,73,73,3,7,3,4,0.6,0.5
2026-07-01T0000,4240A,98.495752,39.733935,酒泉市,玉门东路5号,,38,22,49,11,19,119,119,125,117,4,8,6,8,0.2,0.2
2026-07-01T0000,4241A,98.5099,39.7506,酒泉市,北大街108号,,46,46,56,10,19,98,98,125,115,11,8,20,12,0.6,0.3
2026-07-01T0000,2698A,76.0071,39.466,喀什地区,巡警大队,颗粒物(PM10),146,238,142,99,55,55,55,141,120,61,34,4,4,0.9,0.4
2026-07-01T0000,2699A,75.9756,39.4693,喀什地区,吾办,颗粒物(PM10),140,224,131,83,53,54,54,134,118,32,23,6,3,0.7,0.5
2026-07-01T0000,4027A,75.9485,39.4688,喀什地区,老干局,颗粒物(PM10),138,217,136,75,40,70,70,132,120,33,24,4,4,0.5,0.4
2026-07-01T0000,1824A,114.3389,34.778,开封市,肿瘤医院,颗粒物(PM10),73,81,55,28,37,152,152,168,158,10,14,7,10,0.1,0.3
2026-07-01T0000,1826A,114.2884,34.7966,开封市,世纪星幼儿园,颗粒物(PM10),63,68,52,23,36,142,142,154,148,10,15,7,9,0.4,0.5
2026-07-01T0000,3147A,114.3434,34.8101,开封市,龙亭公园,颗粒物(PM10),85,99,56,30,31,158,158,177,171,10,13,5,6,0.4,0.4
2026-07-01T0000,3210A,114.3645,34.7955,开封市,汴京公园,颗粒物(PM10),73,81,55,25,35,151,151,167,159,6,11,8,10,0.7,0.8
2026-07-01T0000,3473A,114.2485,34.8306,开封市,技师学院,颗粒物(PM10),70,77,60,16,34,149,149,171,165,7,11,5,8,0.7,0.8
2026-07-01T0000,3592A,114.4518,34.7503,开封市,祥符区生态环境局,细颗粒物(PM2.5),62,61,54,41,41,123,123,156,121,20,21,11,12,0.5,0.6
2026-07-01T0000,1951A,84.886,45.6029,克拉玛依市,长征新村,NA,NA,NA,32,2,11,100,100,72,NA,7,12,2,5,0.3,0.4
2026-07-01T0000,1952A,84.8894,45.5827,克拉玛依市,南林小区,颗粒物(PM10),54,55,30,13,4,98,98,119,93,10,12,5,6,0.1,0.2
2026-07-01T0000,1954A,84.896,44.3328,克拉玛依市,独山子区,,46,46,31,18,6,94,94,131,121,11,8,8,8,0.5,0.5
2026-07-01T0000,1955A,85.6888,46.0909,克拉玛依市,乌尔禾区商贸楼,,40,40,29,19,17,94,94,116,102,7,11,7,7,0.3,0.3
2026-07-01T0000,3612A,85.1045,45.6895,克拉玛依市,白碱滩区新站,颗粒物(PM10),54,55,24,12,5,112,112,119,114,1,4,8,9,0.1,0.2
2026-07-01T0000,2697A,76.1457,39.7143,克孜勒苏柯尔克孜自治州,市人民政府,颗粒物(PM10),132,201,110,72,38,60,60,139,118,61,13,6,7,0.2,0.1
2026-07-01T0000,3665A,76.1654,39.7157,克孜勒苏柯尔克孜自治州,克州文化中心,细颗粒物(PM2.5),144,228,121,108,43,97,97,141,128,25,13,8,8,0.4,0.3
2026-07-01T0000,1450A,102.8203,24.889,昆明市,呈贡新区,,29,29,15,10,8,61,61,88,73,8,6,2,4,0.8,0.8
2026-07-01T0000,1452A,102.7253,25.0904,昆明市,龙泉镇,,24,17,15,11,9,75,75,82,72,6,8,6,5,0.3,0.3
2026-07-01T0000,1453A,102.7267,25.0378,昆明市,东风东路,,25,17,13,10,10,77,77,92,75,11,11,2,2,0.3,0.3
2026-07-01T0000,1454A,102.6744,25.0671,昆明市,金鼎山,,24,NA,19,13,12,76,76,87,73,7,10,4,4,0.3,0.4
2026-07-01T0000,1455A,102.6643,25.0401,昆明市,碧鸡广场,,24,22,19,7,11,76,76,84,70,7,9,3,3,0.5,0.6
2026-07-01T0000,3179A,102.7491,25.012,昆明市,官渡区博物馆,,21,18,17,3,9,66,66,85,68,17,14,3,4,0.4,0.4
2026-07-01T0000,3375A,102.8016,24.8336,昆明市,青年创业园,,21,21,15,6,9,65,65,90,76,8,7,3,4,0.3,0.3
2026-07-01T0000,3550A,102.8,24.9787,昆明市,昆明学院,,20,20,16,3,6,62,62,88,71,12,12,5,6,0.3,0.3
2026-07-01T0000,3551A,102.5969,24.6738,昆明市,晋宁区生态环境分局,,21,15,14,7,9,66,66,102,86,8,6,4,4,0.6,0.6
2026-07-01T0000,3552A,102.6673,24.9861,昆明市,云天化总部,,24,19,16,11,7,76,76,88,74,11,11,5,5,0.4,0.4
2026-07-01T0000,1456A,91.132,29.6515,拉萨市,八廓街,,35,11,8,8,6,109,109,135,122,12,7,5,5,0.4,0.3
2026-07-01T0000,1457A,91.1221,29.6748,拉萨市,市环保局,,33,12,9,3,6,105,105,132,118,13,10,5,6,0.2,0.2
2026-07-01T0000,1458A,91.0874,29.6476,拉萨市,区监测站,,35,8,7,3,6,110,110,133,119,13,10,5,5,0.3,0.3
2026-07-01T0000,1459A,91.1774,29.6541,拉萨市,西藏大学,,34,9,7,6,5,107,107,133,121,15,9,8,5,0.4,0.3
2026-07-01T0000,1460A,90.9798,29.6586,拉萨市,区辐射站,,33,10,8,6,5,103,103,128,116,18,11,6,7,0.3,0.3
2026-07-01T0000,1461A,91.0831,29.6292,拉萨市,拉萨火车站,,30,9,7,3,5,96,96,131,117,21,9,4,4,0.6,0.3
2026-07-01T0000,2520A,109.2203,23.7252,来宾市,来宾技工学校,,21,21,21,3,8,26,26,64,43,11,9,8,10,0.6,0.6
2026-07-01T0000,3535A,109.1781,23.7293,来宾市,兴宾区政府,,18,18,21,3,9,29,29,65,38,7,8,5,8,0.5,0.6
2026-07-01T0000,4002A,109.2312,23.7428,来宾市,中南小学,,17,17,20,7,8,24,24,69,40,11,8,5,5,0.5,0.5
2026-07-01T0000,1479A,103.8309,36.0467,兰州市,铁路设计院,颗粒物(PM10),55,56,47,30,23,72,72,164,118,41,34,8,11,0.8,0.8
2026-07-01T0000,3241A,103.7439,36.0841,兰州市,百合公园,,42,42,44,28,20,38,38,163,124,72,36,6,10,1.0,0.8
2026-07-01T0000,3242A,103.9613,35.9985,兰州市,和平,,33,33,35,11,15,104,104,163,141,12,9,12,16,0.2,0.4
2026-07-01T0000,4236A,103.629272,36.093822,兰州市,庄浪东路808号,颗粒物(PM10),58,61,44,21,18,75,75,150,113,36,19,8,17,0.3,0.4
2026-07-01T0000,4237A,103.7251,36.104344,兰州市,安宁西路88号,颗粒物(PM10),72,80,59,26,21,74,74,174,NA,31,25,10,14,0.3,0.3
2026-07-01T0000,4238A,103.846982,36.067567,兰州市,北滨河东路1号,颗粒物(PM10),52,52,48,21,19,38,38,157,110,74,42,12,16,0.4,0.5
2026-07-01T0000,1067A,116.6712,39.5109,廊坊市,药材公司,,30,30,29,17,20,94,94,144,131,11,7,3,3,0.4,0.5
2026-07-01T0000,1068A,116.7215,39.5592,廊坊市,开发区,,38,38,31,12,21,101,101,151,132,10,10,3,3,0.3,0.4
2026-07-01T0000,1070A,116.7246,39.5273,廊坊市,北华航天学院,,31,25,21,11,17,98,98,154,136,11,8,3,3,0.4,0.5
2026-07-01T0000,2919A,116.7022,39.5454,廊坊市,河北工业大学,,36,17,21,16,23,114,114,158,147,21,16,3,3,0.3,0.4
2026-07-01T0000,2536A,103.7629,29.5844,乐山市,牛耳桥,,22,22,21,14,14,49,49,69,62,8,8,5,5,0.8,0.7
2026-07-01T0000,2537A,103.7501,29.6002,乐山市,市第三水厂,,24,24,23,14,14,45,45,67,59,14,11,4,4,0.8,0.8
2026-07-01T0000,2538A,103.7571,29.5664,乐山市,市监测站,,18,14,24,12,13,48,48,64,59,7,8,2,3,0.8,0.8
2026-07-01T0000,3361A,103.7313,29.563,乐山市,理工大学,,20,20,23,8,18,40,40,69,63,6,8,2,4,0.6,0.6
2026-07-01T0000,2599A,100.2497,26.8802,丽江市,丽江古城,,20,19,14,11,6,62,62,79,65,7,8,8,8,0.6,0.6
2026-07-01T0000,2600A,100.2203,26.8906,丽江市,市中心,,25,13,11,10,8,78,78,75,71,6,8,8,7,0.7,0.8
2026-07-01T0000,1267A,119.9141,28.4513,丽水市,监测站大楼,,36,36,25,12,12,0,0,56,26,14,12,4,4,0.5,0.5
2026-07-01T0000,1268A,119.93,28.4589,丽水市,莲都小学,,30,30,24,14,12,0,0,58,21,23,17,/,/,/,/
2026-07-01T0000,1269A,119.8794,28.4232,丽水市,余庄前,,32,32,27,11,12,0,0,38,10,7,14,7,14,0.6,0.7
2026-07-01T0000,1173A,119.1759,34.5885,连云港市,市环境监测站,,23,7,28,7,29,72,72,128,86,7,6,7,7,0.4,0.4
2026-07-01T0000,3000A,119.3577,34.6971,连云港市,德源药业,,25,7,32,7,30,78,78,108,82,4,5,4,5,0.2,0.3
2026-07-01T0000,3007A,119.178,34.8442,连云港市,新城一中,,22,8,30,3,15,69,69,97,76,10,13,2,2,0.4,0.5
2026-07-01T0000,3008A,119.3607,34.7519,连云港市,胡沟管理处,,17,12,27,7,14,53,53,92,60,28,19,8,8,0.4,0.4
2026-07-01T0000,3009A,119.1478,34.5913,连云港市,矿山设计院,,21,12,31,3,24,67,67,118,82,7,7,4,4,0.3,0.3
2026-07-01T0000,3434A,119.2414,34.6539,连云港市,工贸学校,,25,12,27,8,18,77,77,127,90,8,8,4,4,0.4,0.5
2026-07-01T0000,3664A,119.4171,34.734,连云港市,连云街道,,25,8,26,3,14,80,80,98,81,3,7,8,8,0.3,0.4
2026-07-01T0000,2573A,102.2629,27.8981,凉山彝族自治州,西昌市政府,,21,20,25,10,15,66,66,102,81,3,10,4,5,0.3,0.4
2026-07-01T0000,2574A,102.2686,27.885,凉山彝族自治州,凉山州政府,,25,25,26,17,18,49,49,99,78,10,13,5,6,0.4,0.5
2026-07-01T0000,4229A,102.2342,27.8859,凉山彝族自治州,凯乐南路30号,NA,NA,NA,NA,NA,NA,NA,NA,NA,NA,NA,NA,NA,NA,NA,NA
2026-07-01T0000,2212A,123.1978,41.2036,辽阳市,宏伟区,,35,NA,21,24,12,89,89,99,90,5,5,7,8,0.7,0.6
2026-07-01T0000,2213A,123.1684,41.2497,辽阳市,新华园,,48,38,23,33,14,77,77,107,89,9,6,6,8,0.5,0.4
2026-07-01T0000,2214A,123.2355,41.2663,辽阳市,滨河路,NA,NA,NA,20,NA,13,NA,NA,93,85,NA,8,NA,8,NA,0.3
2026-07-01T0000,4083A,123.153,41.2874,辽阳市,铁西路150号,,50,NA,24,35,14,77,77,105,90,10,6,7,7,0.5,0.4
2026-07-01T0000,2227A,125.1359,42.8845,辽源市,环保局,,29,29,23,14,11,25,25,134,95,44,21,7,7,0.4,0.4
2026-07-01T0000,4085A,125.0998,42.9134,辽源市,安宁大街333号,,24,24,24,14,12,53,53,130,94,17,21,5,5,0.5,0.5
2026-07-01T0000,1625A,115.9789,36.4372,聊城市,区政府,,46,8,56,3,33,145,145,174,164,2,8,7,11,0.4,0.7
2026-07-01T0000,3200A,115.9772,36.4986,聊城市,监控中心,,50,NA,53,3,38,157,157,195,180,3,9,7,10,0.3,0.5
2026-07-01T0000,3513A,116.0443,36.436,聊城市,九州社区,NA,NA,NA,36,NA,44,NA,NA,190,NA,NA,8,NA,5,NA,1
2026-07-01T0000,4018A,116.0564,36.4609,聊城市,星美广场,,47,18,69,3,41,148,148,186,173,2,7,3,7,0.3,0.5
2026-07-01T0000,4113A,116.0091,36.4495,聊城市,利民路,,48,7,60,3,40,153,153,188,175,3,10,9,12,0.3,0.5
2026-07-01T0000,2632A,94.3683,29.6373,林芝市,林芝监测站,,19,6,6,3,4,59,59,73,62,4,5,4,4,0.4,0.4
2026-07-01T0000,2633A,94.3616,29.6634,林芝市,林芝人民医院,,18,7,6,7,5,55,55,76,68,5,5,4,3,0.2,0.2
2026-07-01T0000,2603A,100.0779,23.8981,临沧市,市环保局,,23,NA,18,16,12,23,23,43,33,7,7,13,6,0.5,0.4
2026-07-01T0000,2604A,100.0894,23.882,临沧市,市气象局,,23,17,17,16,12,43,43,51,49,6,8,6,6,0.5,0.4
2026-07-01T0000,1733A,111.5552,36.0791,临汾市,临钢医院,,30,25,35,3,14,94,94,157,126,15,14,6,5,0.4,0.6
2026-07-01T0000,1734A,111.4984,36.0734,临汾市,技工学校,,42,42,41,11,25,89,89,155,127,15,13,5,6,0.4,0.6
2026-07-01T0000,1736A,111.5017,36.0857,临汾市,市委,,41,41,49,7,14,88,88,154,126,14,12,5,6,0.5,0.6
2026-07-01T0000,3018A,111.5048,36.1015,临汾市,唐尧大酒店,,50,50,53,8,15,84,84,157,127,16,13,5,6,0.6,0.7
2026-07-01T0000,4244A,111.4879,36.053,临汾市,启星学校,,30,30,34,11,18,76,76,154,121,17,12,5,7,0.6,0.8
2026-07-01T0000,4271A,103.2464,35.6123,临夏回族自治州,滨河东路1号,颗粒物(PM10),73,81,47,27,17,36,36,130,85,32,17,13,13,0.5,0.4
2026-07-01T0000,4310A,103.207136,35.599807,临夏回族自治州,新华街21号,颗粒物(PM10),53,54,40,21,15,67,67,118,93,14,11,9,9,0.4,0.4
2026-07-01T0000,1618A,118.3429,35.0532,临沂市,沂河小区,,21,17,57,3,36,65,65,135,94,4,11,8,9,0.1,0.4
2026-07-01T0000,1619A,118.2962,35.0568,临沂市,鲁南制药厂,,20,9,57,3,34,63,63,136,95,3,13,9,10,0.4,0.7
2026-07-01T0000,1620A,118.2793,34.9976,临沂市,新光毛纺厂,,21,14,47,8,51,65,65,137,96,4,12,4,5,0.2,0.4
2026-07-01T0000,1621A,118.3955,35.0889,临沂市,河东保险公司,,21,7,45,3,29,67,67,129,97,2,8,6,7,0.1,0.2
2026-07-01T0000,3370A,118.3563,35.0215,临沂市,十里堡居委,,20,7,45,3,35,63,63,126,88,9,18,10,10,0.4,0.7
2026-07-01T0000,3496A,118.359,35.1067,临沂市,南坊新区,,20,7,54,3,49,63,63,143,99,4,11,4,5,0.4,0.6
2026-07-01T0000,3860A,118.3915,35.0297,临沂市,皇山花园小区,,22,7,51,3,34,69,69,135,93,3,11,7,8,0.4,0.7
2026-07-01T0000,1870A,109.4854,24.3898,柳州市,柳东小学,,19,16,23,13,12,25,25,78,48,16,9,4,4,0.6,0.5
2026-07-01T0000,1871A,109.4109,24.3304,柳州市,环保监测站,,14,14,21,6,10,22,22,68,42,18,13,7,7,0.7,0.7
2026-07-01T0000,1872A,109.3886,24.3408,柳州市,河西水厂,,31,31,25,12,12,9,9,70,39,22,11,8,8,0.7,0.7
2026-07-01T0000,1873A,109.4263,24.2951,柳州市,市四中,,15,15,25,9,12,21,21,71,43,16,14,5,6,0.6,0.6
2026-07-01T0000,1874A,109.396,24.3658,柳州市,市九中,,16,16,28,3,13,20,20,66,38,13,14,5,6,0.6,0.4
2026-07-01T0000,1875A,109.4912,24.3164,柳州市,古亭山,,13,13,24,3,8,14,14,74,38,16,12,2,3,0.5,0.6
2026-07-01T0000,3402A,109.5422,24.3994,柳州市,市二中,,23,23,26,12,13,22,22,81,47,17,9,6,6,0.6,0.6
2026-07-01T0000,2307A,116.5078,31.7369,六安市,监测大楼,,20,14,8,14,9,55,55,92,75,6,6,3,3,0.5,0.4
2026-07-01T0000,2308A,116.4738,31.7642,六安市,皖西学院,,19,17,12,12,7,58,58,104,85,5,4,5,6,0.4,0.3
2026-07-01T0000,2309A,116.4997,31.7904,六安市,朝阳厂,,19,NA,8,10,7,58,58,93,78,7,7,6,6,0.3,0.3
2026-07-01T0000,2310A,116.5566,31.7885,六安市,开发区,,21,NA,8,9,7,67,67,96,74,8,13,5,6,0.2,0.2
2026-07-01T0000,2577A,104.8293,26.592,六盘水市,黄土坡,,20,20,17,6,9,25,25,70,49,15,11,5,6,0.6,0.5
2026-07-01T0000,2579A,104.8481,26.5898,六盘水市,民中,,19,8,11,3,9,58,58,63,59,9,14,3,3,0.4,0.4
2026-07-01T0000,2580A,104.9541,26.5506,六盘水市,双水,,23,7,9,6,4,71,71,76,64,6,6,4,4,0.3,0.3
2026-07-01T0000,4151A,104.8899,26.5685,六盘水市,钟山大道中段564号,,17,11,17,7,11,54,54,66,60,10,10,7,7,0.7,0.8
2026-07-01T0000,2336A,117.022,25.1031,龙岩市,龙岩市监测站,,19,19,14,9,7,27,27,57,41,8,7,8,5,0.2,0.2
2026-07-01T0000,2337A,117.0257,25.0662,龙岩市,闽西职业技术学院,,18,18,16,9,7,14,14,54,34,10,5,4,4,0.4,0.4
2026-07-01T0000,2338A,117.0195,25.0306,龙岩市,龙岩学院,,18,18,16,7,6,24,24,54,38,3,5,2,3,/,/
2026-07-01T0000,2885A,104.9344,33.3827,陇南市,滨江中学,,43,43,29,16,10,74,74,121,109,13,6,8,8,0.5,0.4
2026-07-01T0000,3247A,104.9551,33.3709,陇南市,市总工会,,37,37,28,12,10,90,90,120,111,4,5,10,10,0.3,0.3
2026-07-01T0000,2488A,111.9984,27.7346,娄底市,市监测站,,19,16,36,8,25,59,59,75,52,6,9,2,4,0.4,0.5
2026-07-01T0000,2491A,111.9888,27.7035,娄底市,市政府,,18,13,29,6,24,55,55,80,56,3,6,4,9,0.5,0.6
2026-07-01T0000,4127A,111.9812,27.7591,娄底市,涟钢职大,,16,16,29,6,24,46,46,81,52,8,8,3,3,0.3,0.3
2026-07-01T0000,4128A,112.0303,27.7457,娄底市,娄底体校,,20,20,36,7,23,53,53,82,57,3,5,2,2,0.4,0.5
2026-07-01T0000,1894A,105.4427,28.9063,泸州市,小市上码头,,33,33,44,17,24,49,49,90,79,18,14,5,6,0.3,0.4
2026-07-01T0000,1895A,105.4241,28.8573,泸州市,兰田宪桥,,45,45,56,23,32,12,12,82,54,28,15,2,3,0.6,0.5
2026-07-01T0000,1896A,105.4378,28.8833,泸州市,市环监站,,35,35,39,11,17,38,38,79,66,23,16,4,5,0.8,0.7
2026-07-01T0000,4272A,105.3689,28.7783,泸州市,纳溪中医医院,,40,NA,20,28,28,10,10,74,43,32,17,2,2,0.8,0.7
2026-07-01T0000,2183A,111.1447,37.5212,吕梁市,环保局,,40,40,33,12,11,24,24,162,91,46,14,5,6,0.5,0.3
2026-07-01T0000,2185A,111.1285,37.5338,吕梁市,自来水公司,,38,38,34,18,13,40,40,166,100,35,14,3,3,0.7,0.5
2026-07-01T0000,2867A,111.1225,37.5093,吕梁市,马茂庄小学,颗粒物(PM10),55,56,35,22,11,24,24,168,94,56,18,2,3,0.5,0.2
2026-07-01T0000,1812A,112.3934,34.6517,洛阳市,市委党校,,39,16,32,9,20,122,122,148,138,8,9,7,8,0.4,0.5
2026-07-01T0000,1815A,112.494,34.6883,洛阳市,河南林校,,40,23,36,3,22,125,125,169,156,13,10,12,12,0.2,0.3
2026-07-01T0000,1816A,112.3843,34.623,洛阳市,开发区管委会,,43,11,26,10,21,136,136,162,153,12,3,10,10,0.4,0.5
2026-07-01T0000,1817A,112.4263,34.6249,洛阳市,市委新办公区,,37,15,25,10,18,118,118,147,140,6,6,9,11,0.2,0.4
2026-07-01T0000,3340A,112.6005,34.6323,洛阳市,伊滨,,37,21,33,14,21,116,116,153,143,8,8,5,5,0.4,0.4
2026-07-01T0000,3341A,112.495,34.6338,洛阳市,中移产业园,,38,14,30,3,22,121,121,163,152,7,8,8,10,0.5,0.7
2026-07-01T0000,3593A,112.5736,34.8993,洛阳市,吉利监测站,,34,16,39,3,20,106,106,160,139,12,8,8,8,0.3,0.3
2026-07-01T0000,3635A,112.3678,34.6623,洛阳市,河科大西苑校区,,39,NA,31,17,21,122,122,157,145,11,9,10,11,0.4,0.8
2026-07-01T0000,3636A,112.4387,34.678,洛阳市,英才小学,,36,12,29,3,24,113,113,149,138,8,7,9,9,0.4,0.6
2026-07-01T0000,4214A,112.460027,34.694929,洛阳市,春都路1号院,,39,6,29,3,23,122,122,165,150,7,8,6,6,0.2,0.4
2026-07-01T0000,2399A,114.051,33.5721,漯河市,三五一五工厂,,36,32,43,25,30,106,106,160,140,27,35,6,7,0.1,0.2
2026-07-01T0000,2400A,114.0055,33.5698,漯河市,漯河大学,,32,32,36,16,30,87,87,145,132,41,39,6,8,0.6,0.7
2026-07-01T0000,2401A,114.0134,33.5826,漯河市,市水利局,,35,29,43,19,30,112,112,164,141,22,29,6,8,0.3,0.4
2026-07-01T0000,2402A,114.0261,33.5697,漯河市,市广电局,,31,27,38,16,23,97,97,161,136,29,31,6,6,0.4,0.5
2026-07-01T0000,3478A,113.9691,33.568,漯河市,市图书馆,,41,41,46,8,27,67,67,157,133,55,42,5,8,0.4,0.7
2026-07-01T0000,4250A,114.089259,33.588274,漯河市,韶山路11号,,37,34,49,20,30,118,118,170,146,17,27,7,8,0.3,0.4
2026-07-01T0000,1798A,118.5084,31.6838,马鞍山市,湖东路四小,,39,NA,14,27,6,34,34,87,67,30,9,7,7,0.7,0.6
2026-07-01T0000,1799A,118.5019,31.6449,马鞍山市,开发区,,38,28,12,26,6,32,32,92,62,28,7,6,6,0.7,0.6
2026-07-01T0000,3633A,118.4914,31.681,马鞍山市,雨山,,25,23,11,17,5,26,26,92,58,40,11,5,4,0.8,0.6
2026-07-01T0000,4191A,118.527362,31.722269,马鞍山市,慈湖高新区,,42,42,11,26,5,36,36,91,51,32,14,7,6,0.6,0.5
2026-07-01T0000,1686A,111.0285,21.469,茂名市,电白南海,,17,12,16,3,1,54,54,66,59,4,4,5,6,0.5,0.6
2026-07-01T0000,1687A,110.9294,21.6533,茂名市,茂石化七小,,19,19,19,9,10,38,38,60,45,9,9,14,10,0.4,0.5
2026-07-01T0000,1688A,110.9108,21.6688,茂名市,健康路,,14,12,10,8,9,42,42,63,49,6,6,10,7,0.5,0.5
2026-07-01T0000,1689A,110.8592,21.6826,茂名市,高岭,,22,22,26,9,8,40,40,61,48,10,8,18,8,/,/
2026-07-01T0000,3450A,111.0101,21.5165,茂名市,电白水东,,15,9,8,6,5,48,48,65,58,6,4,3,2,/,/
2026-07-01T0000,2540A,103.8414,30.0871,眉山市,气象局,,26,26,19,18,11,65,65,94,82,11,12,7,7,0.8,0.7
2026-07-01T0000,3148A,103.829,30.0563,眉山市,区人社局,,37,37,33,18,9,59,59,88,75,13,14,7,7,0.7,0.6
2026-07-01T0000,4148A,103.8836,30.0695,眉山市,眉职院,,45,45,26,25,11,48,48,82,66,18,14,7,7,0.8,0.8
2026-07-01T0000,1690A,116.1248,24.3307,梅州市,梅江月梅,,29,29,17,11,7,5,5,52,26,24,12,/,/,/,/
2026-07-01T0000,1691A,116.0798,24.2719,梅州市,梅县新城,,18,18,15,10,7,7,7,54,24,14,11,8,8,0.5,0.5
2026-07-01T0000,3315A,116.1234,24.2994,梅州市,梅龙,,22,19,14,15,9,25,25,50,32,11,10,11,7,0.6,0.6
2026-07-01T0000,1878A,104.7775,31.4741,绵阳市,富乐山,,32,28,27,22,17,69,69,139,104,7,8,10,11,0.8,0.8
2026-07-01T0000,1880A,104.6698,31.4668,绵阳市,高新区自来水公司,,37,37,30,23,17,73,73,136,109,10,9,12,11,0.5,0.5
2026-07-01T0000,3491A,104.6899,31.5324,绵阳市,西科大附属小学,,39,39,30,23,20,73,73,138,110,11,11,6,6,0.2,0.2
2026-07-01T0000,3492A,104.5647,31.5343,绵阳市,安州区旅游局,,35,35,31,22,20,86,86,151,128,7,6,5,6,0.6,0.5
2026-07-01T0000,4146A,104.7092,31.4972,绵阳市,科技城新区公安局,,36,32,27,25,17,74,74,138,110,8,9,11,11,0.8,0.8
2026-07-01T0000,4226A,104.765114,31.453094,绵阳市,绵阳市气象局,,32,30,26,22,16,61,61,122,100,8,10,7,8,0.6,0.6
2026-07-01T0000,1784A,129.61,44.561,牡丹江市,环保大楼,,37,37,26,21,19,52,52,109,69,10,16,5,6,0.4,0.4
2026-07-01T0000,1787A,129.6364,44.6075,牡丹江市,机车工厂,颗粒物(PM10),54,55,41,36,26,8,8,103,41,21,15,10,9,0.6,0.5
2026-07-01T0000,1788A,129.6386,44.5462,牡丹江市,第一中学,,30,30,30,16,16,54,54,112,58,9,17,7,8,0.5,0.5
2026-07-01T0000,4287A,129.5992,44.5964,牡丹江市,东晓云街98号,,43,43,34,30,25,14,14,103,38,11,13,6,6,0.4,0.4
2026-07-01T0000,2531A,105.0703,29.61,内江市,市监测站,,26,NA,15,18,15,27,27,85,68,21,14,9,9,0.7,0.6
2026-07-01T0000,2533A,105.0657,29.5807,内江市,内江二中,,29,NA,21,20,15,35,35,94,72,13,12,9,9,0.6,0.4
2026-07-01T0000,2534A,105.0407,29.5828,内江市,内江日报社,,32,NA,13,22,16,41,41,94,78,34,14,9,6,0.7,0.4
2026-07-01T0000,4147A,105.0433,29.6105,内江市,玉峰路西段888号,,28,24,18,19,16,32,32,83,69,24,15,5,6,0.6,0.5
2026-07-01T0000,2628A,92.0653,31.4846,那曲市,那曲监测站,,37,16,21,16,9,116,116,124,119,4,9,2,4,0.2,0.3
2026-07-01T0000,4243A,92.0515,31.4787,那曲市,那曲市委宣传部,,35,10,9,9,5,112,112,122,117,7,7,3,4,0.3,0.3
2026-07-01T0000,1291A,115.8887,28.7006,南昌市,省林业公司,,18,NA,3,12,5,54,54,70,67,11,7,4,4,0.7,0.6
2026-07-01T0000,1292A,115.813,28.7443,南昌市,林科所,,11,NA,2,3,4,32,32,60,43,21,11,6,6,0.9,0.8
2026-07-01T0000,1294A,115.8518,28.687,南昌市,建工学校,NA,NA,NA,5,18,6,36,36,66,NA,NA,8,4,5,1.0,0.8
2026-07-01T0000,1295A,115.8926,28.6425,南昌市,象湖,,25,NA,1,17,8,24,24,63,52,33,13,8,8,0.7,0.6
2026-07-01T0000,3046A,115.9084,28.6062,南昌市,机电学校,,15,15,13,7,6,30,30,56,45,18,12,6,6,0.6,0.7
2026-07-01T0000,3690A,115.9718,28.7032,南昌市,外国语学校,,23,NA,5,16,5,45,45,66,56,10,6,11,11,0.9,0.8
2026-07-01T0000,4106A,115.7923,28.6873,南昌市,工业二路,,15,11,10,10,3,43,43,59,52,10,7,5,5,0.7,0.6
2026-07-01T0000,4192A,115.931587,28.686774,南昌市,南京东路235号,,19,NA,7,13,6,49,49,72,67,15,10,4,4,0.8,0.6
2026-07-01T0000,1906A,106.0791,30.8022,南充市,南充市委,,29,27,23,20,14,60,60,81,74,11,12,6,6,0.3,0.3
2026-07-01T0000,1907A,106.1038,30.8215,南充市,南充炼油厂,,30,22,22,21,14,65,65,89,80,12,12,6,6,0.3,0.2
2026-07-01T0000,4227A,106.108336,30.788436,南充市,梨树横街98号,,32,32,22,20,14,65,65,87,80,11,11,6,7,0.4,0.4
2026-07-01T0000,4304A,106.1172,30.843,南充市,清泉寺北路188号,,34,34,24,18,14,64,64,86,80,12,10,7,7,0.6,0.5
2026-07-01T0000,4305A,106.067,30.7616,南充市,同庆路1号,,28,24,21,19,14,64,64,84,76,9,12,7,7,0.5,0.4
2026-07-01T0000,1151A,118.8033,32.1085,南京市,迈皋桥,,19,NA,13,13,8,58,58,103,82,13,9,4,4,0.6,0.4
2026-07-01T0000,1152A,118.7487,32.057,南京市,草场门,,21,12,13,8,7,66,66,104,NA,15,12,4,4,0.7,0.6
2026-07-01T0000,1154A,118.770105,32.004342,南京市,中华门,,14,9,9,9,6,43,43,89,59,14,9,7,6,0.4,0.3
2026-07-01T0000,1155A,118.8059,32.0329,南京市,瑞金路,,18,7,11,6,6,57,57,87,71,16,12,4,4,0.3,0.3
2026-07-01T0000,1156A,118.7946,32.0774,南京市,玄武湖,,21,21,18,7,6,49,49,84,68,13,9,6,6,0.5,0.4
2026-07-01T0000,1157A,118.6415,32.0964,南京市,浦口,,28,NA,14,19,5,22,22,94,62,29,16,3,4,0.3,0.2
2026-07-01T0000,1158A,118.730129,32.000956,南京市,奥体中心,,26,NA,14,18,8,41,41,88,65,23,13,8,7,1.0,0.9
2026-07-01T0000,1159A,118.9072,32.1047,南京市,仙林大学城,,29,22,20,20,9,42,42,102,79,24,8,7,7,0.8,0.7
2026-07-01T0000,3422A,118.8443,31.919,南京市,江宁彩虹桥,,16,8,15,3,6,50,50,100,81,17,8,4,4,0.5,0.5
2026-07-01T0000,3427A,118.8497,32.3599,南京市,六合雄州,,40,40,26,28,14,51,51,98,75,23,20,4,4,0.6,0.5
2026-07-01T0000,4086A,118.7641,32.0841,南京市,新模范马路66号,,22,14,15,9,6,70,70,110,90,17,9,5,4,0.6,0.4
2026-07-01T0000,4249A,118.8707617,31.34017673,南京市,汶溪路181号,,25,12,11,12,4,80,80,96,91,8,9,5,6,0.8,0.8
2026-07-01T0000,4312A,119.019,31.6512,南京市,中山西路1号,,19,7,9,3,5,58,58,85,77,9,10,4,4,0.5,0.5
2026-07-01T0000,1401A,108.3098,22.788,南宁市,二十一中,,19,16,16,13,9,29,29,60,45,11,8,3,2,0.7,0.7
2026-07-01T0000,1402A,108.3135,22.8529,南宁市,北湖,,19,19,18,13,11,26,26,57,40,8,9,2,2,0.6,0.6
2026-07-01T0000,1403A,108.3205,22.8222,南宁市,市监测站,,22,NA,20,15,9,31,31,72,53,12,6,2,2,0.6,0.6
2026-07-01T0000,1404A,108.3828,22.8038,南宁市,大自然花园,,16,16,16,9,9,29,29,63,46,13,7,3,4,0.5,0.6
2026-07-01T0000,1406A,108.2397,22.8462,南宁市,区农职院,,22,21,18,15,12,24,24,64,42,14,9,2,2,1.0,0.9
2026-07-01T0000,1407A,108.3285,22.7356,南宁市,英华嘉园,,15,15,18,6,9,32,32,62,47,10,8,4,4,0.5,0.5
2026-07-01T0000,3401A,108.4829,22.762,南宁市,红星社区,,20,20,16,11,8,25,25,67,46,10,6,4,4,0.4,0.5
2026-07-01T0000,4132A,108.2927,23.1477,南宁市,起凤路9号,,16,16,19,8,11,41,41,66,47,9,8,6,5,0.5,0.5
2026-07-01T0000,4221A,108.2177,22.7774,南宁市,乐贤路16号,,19,19,18,11,8,20,20,63,42,23,13,4,4,0.5,0.5
2026-07-01T0000,2332A,118.1682,26.6371,南平市,南平市监测站,,21,21,16,9,6,5,5,56,33,17,8,4,4,0.4,0.4
2026-07-01T0000,2334A,118.1757,26.6276,南平市,南平七中,,16,16,17,6,6,16,16,55,36,11,6,3,3,0.3,0.3
2026-07-01T0000,1168A,120.9056,31.9669,南通市,狼山街道,,17,NA,5,9,9,52,52,89,62,8,14,4,4,0.7,0.8
2026-07-01T0000,1170A,120.8635,32.0231,南通市,城中,,17,15,13,11,10,53,53,74,63,9,11,2,2,0.4,0.5
2026-07-01T0000,1171A,120.9376,31.9301,南通市,星湖花园,,19,14,9,13,10,39,39,75,52,23,16,3,3,0.4,0.4
2026-07-01T0000,1172A,120.8053,32.046,南通市,紫琅学院,,22,NA,7,15,9,52,52,72,63,12,18,8,5,0.8,0.7
2026-07-01T0000,3291A,121.0631,32.0644,南通市,通州监测站,,19,6,10,3,8,58,58,82,66,4,6,5,6,0.4,0.5
2026-07-01T0000,3432A,120.9348,31.9874,南通市,环境教育馆,,17,14,13,6,9,53,53,73,57,7,15,4,5,0.5,0.6
2026-07-01T0000,4091A,120.8692,31.9885,南通市,洪江路,NA,NA,11,10,10,9,55,55,76,62,NA,11,4,3,0.7,0.8
2026-07-01T0000,2404A,112.5338,33.0086,南阳市,瓦房庄,,28,28,37,13,22,71,71,150,115,8,9,5,6,0.4,0.5
2026-07-01T0000,2405A,112.5002,32.9734,南阳市,汉画馆,,32,32,46,13,24,62,62,150,112,20,17,6,7,0.5,0.6
2026-07-01T0000,2406A,112.5778,33.0144,南阳市,气象站,,28,28,40,10,22,71,71,150,119,14,12,6,6,0.4,0.4
2026-07-01T0000,2407A,112.548,32.9687,南阳市,理工学院,,25,25,40,13,27,68,68,152,116,14,18,8,7,0.4,0.5
2026-07-01T0000,4008A,112.5233,32.9921,南阳市,卧龙区政府,,28,28,42,16,21,68,68,153,116,12,10,5,6,0.6,0.7
2026-07-01T0000,1234A,121.8352,29.9111,宁波市,区环保大楼,,17,14,23,3,11,52,52,57,54,7,21,4,4,0.5,0.8
2026-07-01T0000,1235A,121.5595,29.8208,宁波市,万里学院,,22,22,23,3,15,52,52,60,52,8,14,8,8,0.6,0.7
2026-07-01T0000,1236A,121.713,29.9564,宁波市,龙赛医院,,18,18,25,6,14,48,48,71,59,10,15,6,5,0.2,0.3
2026-07-01T0000,1240A,121.5855,29.8635,宁波市,太古小学,,14,13,21,6,14,44,44,60,47,13,14,5,5,0.5,0.6
2026-07-01T0000,1241A,121.5239,29.8673,宁波市,市环境监测中心,,15,15,23,6,16,41,41,54,46,12,17,6,6,0.3,0.4
2026-07-01T0000,2871A,121.6156,29.9015,宁波市,万里国际学校,,18,16,22,3,13,57,57,67,59,3,7,6,6,0.4,0.5
2026-07-01T0000,3710A,121.5593,29.8976,宁波市,白沙活动中心,,18,18,16,6,18,49,49,60,50,10,16,6,6,0.6,0.7
2026-07-01T0000,4095A,121.8962,29.7529,宁波市,中科路88号,,17,16,13,7,6,54,54,72,59,1,5,6,6,0.4,0.3
2026-07-01T0000,2341A,119.5387,26.6611,宁德市,宁德市监测站,,21,21,26,9,10,38,38,92,57,19,14,4,5,0.8,0.9
2026-07-01T0000,3209A,119.5231,26.6562,宁德市,宁德一中,,26,26,26,16,14,26,26,90,51,9,8,9,9,0.5,0.4
2026-07-01T0000,2618A,98.859,25.8541,怒江傈僳族自治州,州监测站,,21,21,22,10,10,30,30,56,45,8,8,7,6,0.4,0.4
2026-07-01T0000,2619A,98.8607,25.8168,怒江傈僳族自治州,泸水一中,,12,12,22,8,12,21,21,52,41,11,10,4,4,0.7,0.6
2026-07-01T0000,1888A,101.6891,26.571,攀枝花市,弄弄坪,,34,34,50,15,14,61,61,69,62,13,17,3,4,0.7,0.7
2026-07-01T0000,1889A,101.577,26.5914,攀枝花市,河门口,,41,41,33,17,12,37,37,68,57,20,14,19,15,0.8,0.8
2026-07-01T0000,1891A,101.7365,26.4986,攀枝花市,仁和,,34,34,24,21,14,36,36,71,55,10,12,5,12,0.9,1.2
2026-07-01T0000,2835A,101.7222,26.567,攀枝花市,四十中小,,30,30,22,21,13,36,36,72,57,28,18,18,14,2.1,1.4
2026-07-01T0000,1604A,122.0303,41.1489,盘锦市,开发区,,48,NA,22,33,21,56,56,123,87,15,9,8,9,0.4,0.4
2026-07-01T0000,1605A,122.0486,41.0883,盘锦市,兴隆台,,25,18,25,17,14,75,75,107,78,16,13,5,6,0.5,0.5
2026-07-01T0000,1606A,121.8297,41.1026,盘锦市,新生街道,,29,NA,19,20,19,48,48,106,78,10,10,6,7,0.4,0.4
2026-07-01T0000,1832A,113.3257,33.7423,平顶山市,新华旅馆,颗粒物(PM10),51,51,59,22,29,99,99,181,146,27,20,4,4,0.6,0.7
2026-07-01T0000,1833A,113.2917,33.737,平顶山市,规划设计院,,45,45,47,22,26,90,90,172,142,34,19,8,7,0.4,0.5
2026-07-01T0000,1834A,113.182,33.7738,平顶山市,平顶山工学院,,40,37,37,28,26,82,82,167,136,36,16,7,8,0.4,0.4
2026-07-01T0000,3594A,112.8736,33.9068,平顶山市,石龙区,颗粒物(PM10),54,55,50,24,31,102,102,170,138,22,18,9,9,0.5,0.7
2026-07-01T0000,4116A,113.284,33.7139,平顶山市,姚电大道23号,,46,46,55,27,29,57,57,172,122,66,28,8,9,0.7,0.7
2026-07-01T0000,2656A,106.6633,35.5338,平凉市,聚贤嘉苑,颗粒物(PM10),64,69,46,22,17,102,102,139,121,19,18,10,8,0.7,0.6
2026-07-01T0000,2657A,106.7021,35.5307,平凉市,博物馆,颗粒物(PM10),57,59,47,22,16,114,114,146,125,13,18,6,6,0.5,0.5
2026-07-01T0000,2348A,113.8384,27.6436,萍乡市,中医院,颗粒物(PM10),52,52,29,20,17,28,28,65,48,24,12,15,8,2.3,0.9
2026-07-01T0000,2350A,113.8677,27.6438,萍乡市,市环保局,,48,NA,25,33,20,37,37,69,54,21,10,15,14,2.0,0.6
2026-07-01T0000,2351A,113.8663,27.6202,萍乡市,安源区政府,,22,17,28,15,21,42,42,61,49,8,11,12,15,0.4,0.6
2026-07-01T0000,4107A,113.8686,27.6668,萍乡市,联洪村委会,颗粒物(PM10),60,64,32,27,20,26,26,68,53,25,8,15,8,1.0,0.5
2026-07-01T0000,2319A,119.0142,25.4324,莆田市,荔城区仓后路,,22,22,24,7,5,22,22,72,39,12,11,/,/,/,/
2026-07-01T0000,2320A,119.0016,25.4553,莆田市,莆田市监测站,,12,12,21,3,4,18,18,74,38,3,4,4,3,0.3,0.3
2026-07-01T0000,2321A,119.112,25.4561,莆田市,涵江区六中,,16,16,23,3,7,23,23,78,36,10,11,/,/,0.3,0.4
2026-07-01T0000,2322A,119.1014,25.3215,莆田市,秀屿区政府,,23,23,27,3,4,18,18,72,33,13,9,5,5,0.5,0.5
2026-07-01T0000,2392A,115.0312,35.7636,濮阳市,环保局,,42,20,63,20,39,134,134,179,168,8,12,5,4,0.7,0.7
2026-07-01T0000,3021A,115,35.7667,濮阳市,濮水河管理处,,40,27,72,22,42,127,127,176,161,4,10,4,5,0.5,0.6
2026-07-01T0000,4118A,115.0552,35.7816,濮阳市,中原东路68号,,42,38,91,17,39,132,132,181,171,9,14,5,6,0.6,0.5
2026-07-01T0000,4216A,115.0923632,35.76857718,濮阳市,任丘路479号,,45,44,80,9,41,141,141,190,179,8,12,3,4,0.9,0.8
2026-07-01T0000,2601A,100.9801,22.7634,普洱市,市环保局,NA,NA,30,25,9,9,23,23,74,44,7,6,NA,5,0.7,0.7
2026-07-01T0000,2602A,100.9763,22.8237,普洱市,普洱第二中学,,22,22,19,3,8,9,9,70,44,16,7,8,8,0.8,0.8
2026-07-01T0000,3345A,131.0413,45.7795,七台河市,中波台,,42,41,18,29,14,54,54,125,89,27,17,5,4,0.5,0.4
2026-07-01T0000,3637A,131.0136,45.7688,七台河市,人民广场,颗粒物(PM10),63,68,32,20,11,68,68,123,87,23,16,8,8,0.4,0.4
2026-07-01T0000,3684A,130.8639,45.8144,七台河市,新建矿广场,,25,19,30,17,12,38,38,121,75,35,24,6,5,0.4,0.1
2026-07-01T0000,1779A,123.9307,47.3641,齐齐哈尔市,安居小区,,35,35,32,17,18,110,110,148,126,6,14,4,4,0.6,0.6
2026-07-01T0000,1780A,123.9497,47.3389,齐齐哈尔市,中心广场,,36,36,40,20,18,100,100,140,119,14,15,5,4,0.5,0.5
2026-07-01T0000,1781A,123.9483,47.3229,齐齐哈尔市,农牧车辆厂,,44,44,47,22,23,97,97,148,125,17,14,6,5,0.3,0.3
2026-07-01T0000,1783A,123.9442,47.2994,齐齐哈尔市,市环境监测站,细颗粒物(PM2.5),54,NA,33,37,29,105,105,141,125,12,13,5,3,0.4,0.4
2026-07-01T0000,3662A,123.6341,47.2079,齐齐哈尔市,富区青少年活动中心,NA,NA,54,41,NA,22,116,116,149,131,12,15,4,5,0.3,0.4
2026-07-01T0000,2591A,107.9765,26.5724,黔东南苗族侗族自治州,市环境监测站,,17,17,15,9,13,26,26,57,38,8,7,2,2,0.6,0.6
2026-07-01T0000,2881A,107.8909,26.531,黔东南苗族侗族自治州,凯里学院,,17,17,7,10,10,29,29,60,42,12,9,3,3,0.4,0.4
2026-07-01T0000,2593A,107.5223,26.2371,黔南布依族苗族自治州,小围寨,,7,7,10,3,10,20,20,28,26,9,9,3,4,0.6,0.6
2026-07-01T0000,3538A,107.5175,26.2977,黔南布依族苗族自治州,沙坝,,17,17,16,9,10,6,6,23,11,11,9,4,4,0.7,0.6
2026-07-01T0000,2589A,104.9022,25.0943,黔西南布依族苗族自治州,场坝街,,23,23,13,7,6,52,52,76,59,7,9,3,9,0.4,0.4
2026-07-01T0000,2590A,104.8812,25.0994,黔西南布依族苗族自治州,坪东大道,,21,21,17,9,8,32,32,69,43,7,10,5,7,0.4,0.4
2026-07-01T0000,2502A,108.6238,21.9667,钦州市,市环保站,,12,12,14,6,6,22,22,50,39,19,11,6,4,0.5,0.6
2026-07-01T0000,2503A,108.655,21.9481,钦州市,沙埠小学,,19,17,19,13,11,25,25,52,38,11,9,4,5,0.6,0.6
2026-07-01T0000,2504A,108.5989,21.7435,钦州市,港区一小,,25,25,25,16,15,27,27,54,39,20,18,8,10,0.4,0.5
2026-07-01T0000,3404A,108.5959,21.9634,钦州市,北职校,,28,28,17,11,10,20,20,59,44,19,10,3,4,0.5,0.5
2026-07-01T0000,1046A,119.5247,39.9346,秦皇岛市,建设大厦,,43,43,46,14,18,107,107,112,111,4,14,5,5,0.3,0.3
2026-07-01T0000,3132A,119.5979,39.938,秦皇岛市,文明里,,32,32,45,20,19,96,96,107,106,5,13,6,6,0.3,0.2
2026-07-01T0000,4066A,119.7458,39.9952,秦皇岛市,南园路157号,,31,31,33,19,19,80,80,100,96,7,10,8,8,0.2,0.2
2026-07-01T0000,4067A,119.5131,39.8858,秦皇岛市,翠岛大街1号,,33,12,28,12,19,104,104,114,113,6,11,3,4,0.3,0.3
2026-07-01T0000,4198A,119.509013,39.825305,秦皇岛市,北戴河轮滑馆,,36,36,39,16,18,101,101,114,111,6,9,8,9,0.3,0.3
2026-07-01T0000,1310A,120.404,36.0625,青岛市,市南区东部子站,,22,9,17,9,9,68,68,74,66,10,7,6,6,0.2,0.2
2026-07-01T0000,1311A,120.362344,36.10282,青岛市,四方区子站,,28,17,15,10,10,89,89,89,80,5,7,8,8,0.6,0.6
2026-07-01T0000,1312A,120.294373,36.054183,青岛市,市南区西部子站,,27,14,12,7,7,84,84,84,70,9,16,5,5,0.4,0.4
2026-07-01T0000,1313A,120.4581,36.0858,青岛市,崂山区子站,,26,12,17,9,9,81,81,86,79,4,5,6,6,0.2,0.3
2026-07-01T0000,1315A,120.3945,36.3083,青岛市,城阳区子站,,28,19,20,9,11,88,88,116,93,2,6,7,7,0.3,0.3
2026-07-01T0000,3642A,120.3454,36.0735,青岛市,市北区南部,,26,15,18,8,7,82,82,88,76,10,10,1,1,0.6,0.6
2026-07-01T0000,3643A,120.3897,36.18,青岛市,李沧区北部,,24,9,11,9,8,75,75,85,84,11,12,6,6,0.4,0.4
2026-07-01T0000,4110A,120.5222,36.4089,青岛市,盟旺路653号,,29,12,19,6,9,90,90,114,102,3,7,6,6,0.6,0.7
2026-07-01T0000,4290A,120.196923,35.954556,青岛市,珠江路669号,,28,12,16,8,8,88,88,86,80,3,9,4,4,0.3,0.3
2026-07-01T0000,4291A,120.0424,35.8656,青岛市,黄岛区人民政府广场,,25,9,16,9,8,79,79,86,77,5,8,5,5,0.5,0.5
2026-07-01T0000,1703A,113.0218,23.7086,清远市,凤城街办,,34,34,23,17,14,37,37,94,70,22,18,/,/,/,/
2026-07-01T0000,3025A,113.0479,23.6343,清远市,技师学院,,30,30,24,16,14,17,17,97,71,41,22,8,5,0.4,0.5
2026-07-01T0000,3318A,112.9898,23.7403,清远市,清新太和,,24,24,22,14,13,49,49,103,69,15,12,9,7,0.4,0.4
2026-07-01T0000,3455A,113.076,23.72,清远市,清城东城,,30,30,24,19,12,29,29,90,66,23,15,/,/,/,/
2026-07-01T0000,2661A,107.6325,35.7357,庆阳市,庆阳五中,,35,35,47,13,18,92,92,147,128,15,9,5,5,0.3,0.4
2026-07-01T0000,2662A,107.6361,35.7067,庆阳市,市环保局,,33,29,42,11,16,103,103,136,124,17,10,6,5,0.3,0.4
2026-07-01T0000,1916A,103.7897,25.5036,曲靖市,环境监测站,,20,20,22,12,10,50,50,73,60,12,11,12,8,1.0,0.7
2026-07-01T0000,1917A,103.8013,25.5357,曲靖市,烟厂办公区,,20,18,19,14,9,52,52,72,60,10,9,6,8,0.9,0.8
2026-07-01T0000,3376A,103.7926,25.4651,曲靖市,南苑二区,,31,31,21,16,10,54,54,75,62,16,13,5,5,0.9,0.7
2026-07-01T0000,3377A,103.7442,25.5259,曲靖市,曲靖师范学院,,21,13,18,3,12,65,65,77,68,7,10,3,4,0.4,0.5
2026-07-01T0000,1264A,118.8694,28.94,衢州市,环保大楼,,22,22,21,14,13,4,4,44,31,28,18,/,/,/,/
2026-07-01T0000,1266A,118.8622,28.9809,衢州市,衢州学院,,19,17,14,12,10,4,4,47,30,37,22,2,2,0.5,0.5
2026-07-01T0000,4097A,118.9646,28.9832,衢州市,衢州三中,,23,20,18,16,15,5,5,55,36,33,22,2,3,0.9,0.8
2026-07-01T0000,1611A,118.5818,24.9116,泉州市,涂山街,,30,30,23,14,8,7,7,62,26,26,11,8,3,0.6,0.6
2026-07-01T0000,1612A,118.597,24.8976,泉州市,津头埔,,24,24,17,3,6,8,8,60,23,20,12,4,2,0.1,0.1
2026-07-01T0000,1613A,118.6669,24.9422,泉州市,万安,,28,28,23,8,8,6,6,62,24,16,13,4,3,0.3,0.3
2026-07-01T0000,4105A,118.6355,24.9148,泉州市,霞新路6号,,16,16,20,8,8,5,5,67,24,24,13,/,/,0.3,0.3
2026-07-01T0000,2626A,88.8873,29.2723,日喀则市,日喀则监测站,,32,12,6,9,2,101,101,140,115,5,6,10,9,0.4,0.4
2026-07-01T0000,3726A,88.8775,29.2425,日喀则市,林业技术推广中心,,30,15,4,3,1,96,96,141,119,5,2,9,8,0.3,0.3
2026-07-01T0000,1659A,119.4711,35.421,日照市,监测站,,24,9,23,3,17,76,76,81,77,9,12,8,8,0.2,0.3
2026-07-01T0000,1660A,119.523,35.4216,日照市,市政府广场,,26,14,21,3,14,82,82,80,77,5,5,8,8,0.4,0.4
2026-07-01T0000,1661A,119.5511,35.4113,日照市,港务局,,26,17,19,3,9,82,82,80,76,6,7,5,5,0.7,0.7
2026-07-01T0000,3507A,119.5326,35.4627,日照市,职业技术学院,,27,9,22,3,10,84,84,84,80,2,4,8,7,0.4,0.4
2026-07-01T0000,3604A,119.3267,35.1043,日照市,岚山环保分局,,25,17,29,3,15,77,77,88,77,3,7,8,9,0.5,0.6
2026-07-01T0000,1835A,111.1922,34.7752,三门峡市,市政府,,32,24,20,22,12,83,83,130,121,25,9,6,7,1.0,0.8
2026-07-01T0000,1836A,111.1588,34.794,三门峡市,开发区,,30,25,24,6,14,93,93,129,120,11,9,18,7,0.4,0.4
2026-07-01T0000,3039A,111.1911,34.7829,三门峡市,三门峡市第一小学,,29,18,28,8,13,91,91,134,127,20,7,9,9,0.6,0.6
2026-07-01T0000,3598A,111.1031,34.719,三门峡市,富达温泉假日酒店,,31,31,34,12,16,80,80,134,114,13,12,9,9,0.9,0.9
2026-07-01T0000,2324A,117.621,26.2626,三明市,三钢,,12,12,17,6,8,25,25,62,35,11,11,5,8,0.6,0.9
2026-07-01T0000,2325A,117.6352,26.2714,三明市,三明二中,NA,NA,NA,20,7,9,20,20,64,33,12,10,1,5,0.7,0.8
2026-07-01T0000,2326A,117.6028,26.2377,三明市,三元区政府,,12,12,18,7,9,16,16,57,32,11,10,4,8,0.5,0.9
2026-07-01T0000,1877A,109.4962,18.2682,三亚市,河西子站,,30,30,17,10,9,64,64,72,70,5,7,3,3,0.2,0.2
2026-07-01T0000,3540A,109.7348,18.3443,三亚市,君悦子站,,20,20,22,3,7,53,53,71,62,7,7,2,2,0.3,0.3
2026-07-01T0000,4135A,109.1714,18.3739,三亚市,城东小学站,,16,16,17,8,8,45,45,77,64,8,5,/,/,/,/
2026-07-01T0000,2624A,91.7592,29.234,山南市,山南监测站,,34,7,6,3,2,108,108,132,118,4,5,8,8,0.2,0.2
2026-07-01T0000,2625A,91.7701,29.2436,山南市,山南人民医院,,35,9,9,3,3,111,111,133,121,2,3,5,5,0.2,0.2
2026-07-01T0000,1674A,116.6795,23.3666,汕头市,金平子站,,14,12,14,3,5,42,42,62,55,6,6,2,3,0.5,0.5
2026-07-01T0000,1675A,116.7248,23.3632,汕头市,龙湖子站,NA,NA,NA,14,9,6,35,35,64,54,6,4,6,6,/,/
2026-07-01T0000,1676A,116.7257,23.2774,汕头市,濠江子站,,18,18,16,8,7,28,28,60,47,13,10,8,8,/,/
2026-07-01T0000,1677A,116.7518,23.4712,汕头市,澄海子站,,22,22,15,7,6,37,37,62,51,5,5,3,4,0.4,0.4
2026-07-01T0000,1678A,116.6088,23.2539,汕头市,潮阳子站,,16,16,13,6,6,31,31,54,42,8,7,6,7,0.7,0.7
2026-07-01T0000,3444A,116.4539,23.2684,汕头市,潮南峡山,,17,17,16,8,9,24,24,62,45,11,6,8,7,0.8,0.6
2026-07-01T0000,3624A,116.4069,23.2533,汕头市,潮南子站,,20,20,16,12,8,22,22,52,40,7,7,6,6,/,/
2026-07-01T0000,1693A,115.3653,22.7751,汕尾市,市环保局,,15,15,13,3,4,44,44,62,52,4,5,5,5,0.6,0.6
2026-07-01T0000,1695A,115.362,22.7926,汕尾市,新城中学,,19,19,12,7,4,43,43,65,53,5,4,6,6,0.5,0.5
2026-07-01T0000,2645A,109.9155,33.8714,商洛市,监测站,,24,18,18,9,10,74,74,129,92,10,7,6,7,0.9,0.9
2026-07-01T0000,3045A,109.9647,33.8486,商洛市,商州区中学,,26,24,21,18,10,54,54,119,81,8,8,4,6,0.8,0.8
2026-07-01T0000,2408A,115.6701,34.4283,商丘市,环境监测站,细颗粒物(PM2.5),72,62,76,46,44,110,110,186,165,16,9,4,5,0.6,0.6
2026-07-01T0000,2409A,115.6458,34.4047,商丘市,粮食局,细颗粒物(PM2.5),62,57,67,41,43,141,141,179,162,9,8,2,3,0.5,0.6
2026-07-01T0000,3171A,115.6069,34.4465,商丘市,梁园区档案局,细颗粒物(PM2.5),54,51,62,37,42,131,131,171,155,9,7,2,3,0.8,0.8
2026-07-01T0000,4119A,115.6701,34.3767,商丘市,北海东路185号,细颗粒物(PM2.5),64,49,59,42,42,108,108,176,145,23,15,3,4,0.6,0.6
2026-07-01T0000,4120A,115.6172,34.3704,商丘市,中山大街3号,NA,NA,91,72,32,35,NA,NA,171,143,49,14,3,6,0.7,0.7
2026-07-01T0000,1141A,121.401,31.2382,上海市,普陀,,22,15,17,15,16,39,39,69,61,26,22,5,5,0.3,0.3
2026-07-01T0000,1142A,121.4774,31.2043,上海市,十五厂,,18,12,19,12,17,42,42,63,60,16,19,5,5,0.6,0.6
2026-07-01T0000,1143A,121.4673,31.3011,上海市,虹口,,23,21,20,16,15,39,39,64,57,16,19,3,3,0.4,0.7
2026-07-01T0000,1147A,121.4253,31.226,上海市,静安监测站,,22,NA,15,15,17,38,38,66,59,24,22,8,8,0.6,0.6
2026-07-01T0000,1148A,121.7029,31.1905,上海市,浦东川沙,,16,11,20,10,17,49,49,72,66,18,18,8,9,0.9,0.9
2026-07-01T0000,1149A,121.5339,31.229,上海市,浦东新区监测站,,15,NA,16,10,15,47,47,66,64,13,14,6,6,0.6,0.6
2026-07-01T0000,1150A,121.5776,31.2038,上海市,浦东张江,,17,13,19,10,15,52,52,82,79,14,15,6,6,0.4,0.3
2026-07-01T0000,3265A,121.4242,31.3303,上海市,宝山庙行,,39,39,23,19,14,38,38,67,57,18,20,10,10,0.4,0.3
2026-07-01T0000,3266A,121.8789,31.4662,上海市,崇明上实东滩,,18,9,13,8,12,28,28,87,52,36,17,9,9,0.3,0.3
2026-07-01T0000,3268A,121.316,31.2839,上海市,嘉定南翔,,24,24,16,16,13,22,22,60,42,34,27,5,5,0.3,0.3
2026-07-01T0000,3269A,121.3357,30.7455,上海市,金山新城,,19,13,22,13,18,35,35,77,57,13,17,4,4,0.7,0.7
2026-07-01T0000,3270A,121.4996,31.0741,上海市,闵行浦江,,13,NA,19,8,17,39,39,65,58,15,16,6,6,0.4,0.4
2026-07-01T0000,3271A,121.2886,31.1663,上海市,青浦徐泾,,19,16,19,13,14,30,30,62,55,15,15,4,5,0.5,0.5
2026-07-01T0000,3272A,121.2193,31.0382,上海市,松江图书馆,,13,11,22,9,17,41,41,69,64,12,13,6,7,0.5,0.5
2026-07-01T0000,3273A,121.3904,31.206,上海市,长宁仙霞,,19,16,17,13,13,25,25,54,43,22,21,7,7,0.3,0.3
2026-07-01T0000,3274A,121.7964,31.0507,上海市,浦东惠南,,15,NA,17,8,17,47,47,77,62,18,22,7,8,0.8,0.8
2026-07-01T0000,3544A,121.4891,30.925,上海市,奉贤南桥新城,,16,8,19,7,16,50,50,77,68,14,21,6,6,0.6,0.6
2026-07-01T0000,4183A,121.417401,31.16637,上海市,冠生园路458号,,15,13,17,10,13,34,34,54,52,16,21,5,5,0.7,0.6
2026-07-01T0000,4205A,121.541914,31.268301,上海市,宁武路151号,,16,12,21,10,14,51,51,73,73,23,28,6,7,0.6,0.5
2026-07-01T0000,2382A,117.9758,28.4439,上饶市,市监测站,,29,29,29,14,15,25,25,56,40,11,11,5,10,/,/
2026-07-01T0000,2383A,117.9521,28.4637,上饶市,凤凰光学,,16,14,21,11,12,23,23,58,42,20,11,4,8,0.6,0.6
2026-07-01T0000,3685A,117.897,28.4316,上饶市,双创科技城,,28,26,25,19,13,12,12,54,33,29,15,9,8,0.5,0.6
2026-07-01T0000,4211A,118.190438,28.444845,上饶市,裕丰大道,,29,29,19,3,5,10,10,40,23,12,9,11,10,0.6,0.6
2026-07-01T0000,1669A,113.5821,24.7733,韶关市,市八中,,32,32,21,12,11,41,41,94,59,16,12,9,15,0.8,0.6
2026-07-01T0000,1671A,113.5916,24.7973,韶关市,园林处,,18,18,16,9,10,30,30,86,52,16,14,11,11,/,/
2026-07-01T0000,1673A,113.5971,24.6864,韶关市,曲江监测站,,15,15,17,3,11,31,31,86,53,14,13,7,8,0.8,0.9
2026-07-01T0000,2809A,113.6668,24.7756,韶关市,大学路288号,NA,NA,24,26,9,13,NA,NA,90,NA,8,8,46,16,/,/
2026-07-01T0000,3622A,113.5556,24.8082,韶关市,碧湖山庄,,20,20,23,7,11,52,52,89,69,17,13,14,7,0.7,0.6
2026-07-01T0000,2464A,111.5277,27.2442,邵阳市,市化工厂,,16,NA,25,6,31,51,51,71,57,6,6,5,4,0.5,0.5
2026-07-01T0000,2466A,111.4327,27.2276,邵阳市,市环保局,,15,NA,26,8,30,48,48,67,58,4,4,3,3,0.8,0.8
2026-07-01T0000,4218A,111.446,27.2472,邵阳市,北塔二期4-26地块,,15,11,34,3,24,45,45,65,53,7,8,5,4,0.8,0.9
2026-07-01T0000,4219A,111.4739,27.2282,邵阳市,邵水西路287号,,17,NA,28,10,29,52,52,71,59,4,4,1,2,0.4,0.5
2026-07-01T0000,1247A,120.6053,29.9927,绍兴市,城东开发委,,37,37,17,22,9,20,20,44,34,22,12,8,8,0.5,0.4
2026-07-01T0000,2921A,120.5482,30.0003,绍兴市,树下王站,,43,NA,15,30,14,19,19,45,37,20,12,8,8,0.6,0.5
2026-07-01T0000,3408A,120.5685,29.936,绍兴市,绍兴中专,,23,23,15,14,8,3,3,39,19,17,12,5,5,0.5,0.5
2026-07-01T0000,3409A,120.4905,30.086,绍兴市,柯桥区政府,,26,20,14,18,13,12,12,48,34,24,13,5,5,0.6,0.5
2026-07-01T0000,3410A,120.8751,30.0249,绍兴市,重华小学,,28,28,20,19,14,7,7,46,27,24,16,9,9,0.7,0.7
2026-07-01T0000,3411A,120.837,30.0137,绍兴市,上虞中学,,30,23,19,21,15,2,2,49,25,27,11,7,7,0.6,0.5
2026-07-01T0000,3560A,120.4715,30.0414,绍兴市,柯桥妇保,,32,30,19,22,11,4,4,45,25,20,15,5,5,0.6,0.5
2026-07-01T0000,3658A,120.6156,30.0762,绍兴市,袍江中学,,39,33,18,27,16,6,6,48,37,46,16,5,5,0.6,0.5
2026-07-01T0000,1356A,114.0948,22.5506,深圳市,通心岭子站,,7,7,4,3,1,15,15,70,41,12,8,2,2,0.7,0.7
2026-07-01T0000,1357A,114.1153,22.5713,深圳市,洪湖,,12,12,12,3,5,18,18,68,36,13,9,6,6,0.3,0.3
2026-07-01T0000,1358A,113.9823,22.5398,深圳市,华侨城,,15,15,12,9,6,19,19,70,41,16,8,/,/,/,/
2026-07-01T0000,1359A,113.9181,22.517,深圳市,南海子站,,15,15,12,10,5,36,36,70,46,7,6,4,4,0.8,0.8
2026-07-01T0000,1360A,114.2345,22.565,深圳市,盐田,,21,21,10,6,2,6,6,59,35,24,17,5,6,0.2,0.2
2026-07-01T0000,1363A,114.4911,22.5381,深圳市,南澳,,29,29,12,7,3,18,18,65,40,4,4,/,/,/,/
2026-07-01T0000,1364A,114.41,22.6346,深圳市,葵涌,,29,29,14,13,6,12,12,65,35,13,8,6,6,0.6,0.6
2026-07-01T0000,1365A,114.2967,22.5978,深圳市,梅沙,,16,16,9,3,3,28,28,73,46,3,4,/,/,/,/
2026-07-01T0000,1366A,114.0563,22.7353,深圳市,观澜,,29,29,16,18,7,14,14,87,40,27,16,6,6,0.7,0.6
2026-07-01T0000,3305A,114.0614,22.556,深圳市,莲花,,15,15,12,7,6,6,6,58,27,14,9,/,/,/,/
2026-07-01T0000,3306A,114.0144,22.6163,深圳市,民治,,19,19,13,8,6,22,22,71,42,19,10,/,/,/,/
2026-07-01T0000,3307A,114.1756,22.6421,深圳市,横岗,NA,NA,24,11,15,8,NA,NA,72,NA,36,17,/,/,/,/
2026-07-01T0000,3447A,114.344,22.7115,深圳市,坪山,,18,18,9,3,5,8,8,62,36,26,9,6,6,0.7,0.7
2026-07-01T0000,3623A,113.8952,22.586,深圳市,西乡,,14,14,11,6,4,24,24,64,41,13,12,2,3,0.6,0.6
2026-07-01T0000,4220A,114.214113,22.713717,深圳市,黄阁路,,11,11,14,3,3,19,19,65,38,14,6,6,6,0.7,0.7
2026-07-01T0000,1099A,123.5058,41.7084,沈阳市,浑南东路,,32,28,29,22,15,46,46,116,81,28,31,6,8,0.6,0.6
2026-07-01T0000,1100A,123.4238,41.6992,沈阳市,新秀街,,32,32,29,17,14,75,75,113,87,15,19,5,15,0.3,0.3
2026-07-01T0000,1102A,123.5903,41.8412,沈阳市,东陵路,,25,21,28,17,13,57,57,134,94,22,19,17,5,0.5,0.6
2026-07-01T0000,1103A,123.4267,41.8466,沈阳市,陵东街,,29,21,25,20,12,76,76,125,100,8,6,6,8,0.7,0.7
2026-07-01T0000,1104A,123.4116,41.7654,沈阳市,文化路,,30,26,25,21,12,73,73,123,98,13,12,33,16,0.6,0.6
2026-07-01T0000,1105A,123.4673,41.787,沈阳市,小河沿,,23,23,24,15,14,72,72,117,90,9,11,15,9,0.6,0.7
2026-07-01T0000,1106A,123.4019,41.7978,沈阳市,太原街,,38,38,29,18,12,71,71,123,97,11,8,3,7,0.4,0.4
2026-07-01T0000,1108A,123.3778,41.9233,沈阳市,京沈街,细颗粒物(PM2.5),68,53,36,44,19,75,75,135,110,18,15,6,9,0.7,0.6
2026-07-01T0000,2897A,123.2429,41.7341,沈阳市,沈辽西路,,41,41,32,26,16,70,70,124,99,11,12,8,10,0.6,0.7
2026-07-01T0000,2900A,123.5951,41.9085,沈阳市,裕农路,,27,27,24,17,17,62,62,127,99,15,18,12,9,0.5,0.6
2026-07-01T0000,2429A,110.78,32.6494,十堰市,滨河新村,,38,38,33,24,16,41,41,130,93,15,11,/,/,0.9,0.9
