timepoint,stationcode,longitude,latitude,area,positionname,primarypollutant,aqi,pm10,pm10_24h,pm2_5,pm2_5_24h,o3,o3_24h,o3_8h,o3_8h_24h,no2,no2_24h,so2,so2_24h,co,co_24h
2026-02-23T1800,3140A,111.6651,29.0526,常德市,武陵区长庚,颗粒物(PM10),61,72,94,40,48,57,,60,57,7,8,5,7,0.9,0.9
2026-02-23T1800,1196A,119.9524,31.7586,常州市,市监测站,颗粒物(PM10),70,90,97,17,18,89,,92,92,16,13,10,10,0.3,0.4
2026-02-23T1800,1200A,119.9351,31.703,常州市,武进监测站,颗粒物(PM10),67,84,104,14,17,97,,90,90,6,8,7,8,0.5,0.6
2026-02-23T1800,3002A,119.9701,31.813,常州市,行政中心,颗粒物(PM10),77,103,129,17,17,80,,85,85,15,12,5,5,0.5,0.5
2026-02-23T1800,3010A,119.8919,31.7892,常州市,钟楼,颗粒物(PM10),73,96,104,17,17,87,,90,90,17,13,7,8,0.5,0.6
2026-02-23T1800,3429A,119.8595,31.706,常州市,武进经发区,,,93,126,20,23,93,,90,90,5,10,5,6,,0.7
2026-02-23T1800,3430A,119.5812,31.7256,常州市,金坛城区,颗粒物(PM10),67,83,126,25,27,100,,92,92,6,9,6,7,0.5,0.6
2026-02-23T1800,4089A,119.9551,31.863,常州市,崇义南街5-H号,颗粒物(PM10),66,82,107,17,18,82,,87,87,16,13,5,5,0.6,0.6
2026-02-23T1800,2220A,120.4318,41.588,朝阳市,西梁,,38,38,42,14,14,95,,90,90,12,14,5,6,0.7,0.7
2026-02-23T1800,2221A,120.452,41.565,朝阳市,河畔小区,,28,24,28,13,9,89,,84,84,6,9,9,9,0.5,0.6
2026-02-23T1800,2222A,120.4176,41.5648,朝阳市,八里堡,,42,42,30,10,10,82,,77,77,12,13,8,10,0.3,0.4
2026-02-23T1800,3026A,116.6179,23.6608,潮州市,市政府,颗粒物(PM10),77,103,79,31,52,106,,112,112,3,8,4,5,0.5,0.8
2026-02-23T1800,4036A,116.646,23.676,潮州市,金山,颗粒物(PM10),73,96,80,38,56,110,,118,118,8,10,4,3,0.6,0.8
2026-02-23T1800,2476A,113.0348,25.7757,郴州市,市环保局,,33,29,45,23,31,86,,84,84,6,17,4,4,0.2,0.3
2026-02-23T1800,4252A,113.0138,25.8011,郴州市,好美居路49号,,43,,43,30,32,92,,90,90,5,17,5,4,/,/
2026-02-23T1800,1431A,103.9727,30.7242,成都市,金泉两河,,,51,83,,,84,,83,83,12,27,2,14,0.5,0.7
2026-02-23T1800,1432A,104.1423,30.6765,成都市,十里店,颗粒物(PM10),64,77,94,27,64,84,,80,80,5,21,4,6,0.5,0.8
2026-02-23T1800,1433A,104.0594,30.5765,成都市,三瓦窑,颗粒物(PM10),59,68,79,22,65,90,,86,86,2,36,2,3,0.3,0.7
2026-02-23T1800,1434A,104.1122,30.6306,成都市,沙河铺,颗粒物(PM10),64,78,85,25,68,76,,72,72,13,38,4,4,0.4,0.8
2026-02-23T1800,2880A,104.0219,30.6561,成都市,大石西路,颗粒物(PM10),53,55,96,29,74,86,,82,82,9,27,6,7,0.4,0.5
2026-02-23T1800,3136A,104.2724,30.559,成都市,龙泉驿区区政府,颗粒物(PM10),62,73,74,25,61,83,,81,81,4,14,6,7,0.4,0.7
2026-02-23T1800,3357A,104.0028,30.6891,成都市,金博路,颗粒物(PM10),52,53,75,33,58,84,,79,79,13,30,6,12,0.7,1
2026-02-23T1800,3359A,104.056,30.5228,成都市,华阳,颗粒物(PM10),56,61,88,24,78,88,,80,80,11,44,2,3,0.5,0.9
2026-02-23T1800,3488A,104.387954,30.746684,成都市,青石路225号,颗粒物(PM10),76,101,80,30,61,83,,82,82,6,31,3,3,0.3,0.8
2026-02-23T1800,3489A,104.0788,30.4054,成都市,科学城,,45,43,83,31,68,92,,79,79,10,18,7,8,0.6,0.8
2026-02-23T1800,4011A,103.8505,30.6946,成都市,光华大道三段,颗粒物(PM10),59,68,101,32,62,91,,88,88,12,27,4,10,0.4,0.7
2026-02-23T1800,4144A,104.3257,30.6406,成都市,八角井街185号,颗粒物(PM10),85,120,82,26,58,75,,74,74,12,23,4,5,0.4,0.8
2026-02-23T1800,4224A,104.2433276,30.53529463,成都市,鲸龙路1057号,,40,40,86,22,69,89,,87,87,5,25,5,7,0.6,0.9
2026-02-23T1800,1062A,117.9531,40.908,承德市,铁路,,41,41,38,20,11,77,,77,77,10,9,3,2,0.3,0.3
2026-02-23T1800,1063A,117.9397,40.9763,承德市,中国银行,,26,26,44,7,8,74,,75,75,10,7,2,2,0.4,0.3
2026-02-23T1800,4073A,117.9462,40.95,承德市,杏林街1号,,30,30,34,17,13,83,,79,79,5,6,4,3,0.3,0.3
2026-02-23T1800,2568A,102.2503,31.8896,阿坝藏族羌族自治州,马师校,,37,20,16,14,13,118,,108,108,2,3,5,4,0.3,0.2
2026-02-23T1800,3994A,102.2174,31.9016,阿坝藏族羌族自治州,马尔康中学西区,,37,37,21,12,13,98,,91,91,4,5,5,5,0.4,0.3
2026-02-23T1800,2696A,80.2592,41.1541,阿克苏地区,艺术中心,颗粒物(PM10),91,131,145,44,52,105,,84,84,3,37,3,4,0.5,0.9
2026-02-23T1800,2205A,105.699,38.8409,阿拉善盟,蒙二幼,颗粒物(PM10),84,118,113,26,28,90,,87,87,5,9,9,9,0.5,0.5
2026-02-23T1800,2206A,105.7198,38.8508,阿拉善盟,环保局新楼,颗粒物(PM10),82,113,100,29,26,81,,86,82,4,5,9,9,0.5,0.5
2026-02-23T1800,2708A,88.1266,47.8515,阿勒泰地区,市站,,26,6,14,3,5,82,,82,80,11,12,2,2,0.3,0.3
2026-02-23T1800,3192A,80.0906,32.5029,阿里地区,阿里藏医院,,35,6,10,3,4,112,,104,104,2,4,6,9,0.2,0.3
2026-02-23T1800,2644A,109.0088,32.6974,安康市,汉滨区检察院,颗粒物(PM10),52,53,177,20,54,66,,73,73,8,17,2,3,0.4,0.5
2026-02-23T1800,4054A,109.0324,32.6913,安康市,市邮政管理局,颗粒物(PM10),67,83,190,31,56,68,,74,74,6,23,4,5,0.5,0.8
2026-02-23T1800,2291A,117.0806,30.5181,安庆市,环科院,颗粒物(PM10),106,161,252,41,53,76,,86,86,12,10,7,9,0.6,0.6
2026-02-23T1800,2292A,117.0331,30.5118,安庆市,马山宾馆,颗粒物(PM10),110,170,244,41,55,82,,89,89,14,14,6,8,0.5,0.4
2026-02-23T1800,2294A,116.9897,30.6146,安庆市,安庆大学,颗粒物(PM10),98,145,243,35,52,85,,88,88,3,3,4,6,0.5,0.5
2026-02-23T1800,3173A,117.0598,30.5351,安庆市,市人大,颗粒物(PM10),112,174,258,41,56,79,,87,87,11,12,6,8,0.5,0.5
2026-02-23T1800,3124A,105.9443,26.2567,安顺市,金钟山,,39,,29,27,26,104,,92,92,5,5,9,10,0.4,0.5
2026-02-23T1800,1819A,114.3552,36.1017,安阳市,红庙街,颗粒物(PM10),56,62,273,32,75,51,,52,52,17,14,5,3,0.8,0.6
2026-02-23T1800,1820A,114.361,36.0681,安阳市,银杏小区,颗粒物(PM10),58,66,279,32,83,43,,53,52,20,14,5,4,0.7,0.4
2026-02-23T1800,3141A,114.3921,36.0879,安阳市,信访局,细颗粒物(PM2.5),78,64,260,57,79,45,,57,55,17,10,5,6,0.5,0.4
2026-02-23T1800,3669A,114.4706,36.0634,安阳市,左辅环卫站,颗粒物(PM10),59,68,269,29,69,49,,56,55,14,13,5,5,0.4,0.4
2026-02-23T1800,1748A,123.0441,41.1201,鞍山市,深沟寺,细颗粒物(PM2.5),107,126,75,80,27,94,,99,99,21,14,12,12,0.7,0.9
2026-02-23T1800,1749A,123.011,41.0931,鞍山市,太阳城,细颗粒物(PM2.5),109,119,73,82,28,89,,94,94,17,14,12,16,0.7,1.1
2026-02-23T1800,1750A,123.0483,41.1445,鞍山市,太平,细颗粒物(PM2.5),105,127,79,79,33,68,,63,,20,14,16,14,0.7,0.7
2026-02-23T1800,1751A,122.964,41.0968,鞍山市,铁西三道街,细颗粒物(PM2.5),118,134,86,89,31,85,,93,93,24,16,,11,0.7,0.6
2026-02-23T1800,1753A,123.0219,41.0822,鞍山市,明达新区,细颗粒物(PM2.5),115,103,71,87,33,89,,100,98,20,14,13,16,0.7,0.9
2026-02-23T1800,4201A,122.944647,41.082639,鞍山市,兴盛南路290号,细颗粒物(PM2.5),124,143,91,94,34,81,,99,99,26,19,10,10,0.8,0.9
2026-02-23T1800,2196A,107.37,40.7372,巴彦淖尔市,市环保大楼,颗粒物(PM10),51,51,81,8,22,86,,78,78,4,10,4,5,0.4,0.5
2026-02-23T1800,1956A,86.1476,41.7529,巴音郭楞蒙古自治州,孔雀公园,颗粒物(PM10),98,145,291,45,74,81,,77,77,4,16,8,9,0.3,0.4
2026-02-23T1800,1957A,86.1971,41.7166,巴音郭楞蒙古自治州,棉纺厂,颗粒物(PM10),105,159,315,32,63,85,,78,78,4,17,/,/,/,/
2026-02-23T1800,1958A,86.236,41.7172,巴音郭楞蒙古自治州,经济开发区,颗粒物(PM10),80,109,207,15,28,77,,69,69,3,13,7,6,0.4,0.4
2026-02-23T1800,3181A,106.776805,31.852614,巴中市,市五中,,29,29,72,17,54,42,,38,38,6,22,7,8,0.7,1.1
2026-02-23T1800,3183A,106.7419,31.8654,巴中市,圣泉水务公司,,21,16,68,8,52,65,,45,45,4,20,8,8,0.8,1.1
2026-02-23T1800,3616A,106.7617,31.8343,巴中市,市中心医院,,28,22,81,19,61,47,,37,37,8,33,7,8,0.8,1.4
2026-02-23T1800,2235A,122.7909,45.608,白城市,洮北区环保局,颗粒物(PM10),70,90,87,10,7,81,,82,82,9,6,2,3,0.1,0.1
2026-02-23T1800,2231A,126.4219,41.9172,白山市,喜丰,,42,42,115,6,4,92,,87,87,3,2,8,6,0.5,0.5
2026-02-23T1800,2232A,126.4082,41.9416,白山市,环保局,,30,30,83,3,5,96,,90,90,5,4,7,7,0.3,0.4
2026-02-23T1800,2647A,104.1727,36.5448,白银市,第三小学,颗粒物(PM10),91,131,194,42,63,99,,86,86,11,19,52,13,0.4,0.3
2026-02-23T1800,2648A,104.1467,36.5482,白银市,动力公司,颗粒物(PM10),86,122,188,46,57,96,,83,83,10,10,27,11,0.4,0.4
2026-02-23T1800,2512A,106.6102,23.901,百色市,市监测站,,35,35,40,21,30,62,,64,64,10,10,13,14,0.3,0.4
2026-02-23T1800,2513A,106.6524,23.8842,百色市,市中心血站,,38,38,43,18,32,60,,62,62,10,11,17,14,0.7,0.7
2026-02-23T1800,4133A,106.6273,23.8798,百色市,龙景西路,,35,35,47,18,34,64,,66,66,9,10,12,14,0.6,0.6
2026-02-23T1800,2270A,117.396,32.9389,蚌埠市,工人疗养院,颗粒物(PM10),77,104,246,46,50,68,,78,78,17,21,4,5,0.6,0.6
2026-02-23T1800,2271A,117.3606,32.9428,蚌埠市,百货大楼,颗粒物(PM10),77,103,241,40,46,71,,76,76,16,19,6,8,0.5,0.5
2026-02-23T1800,2273A,117.4183,32.8909,蚌埠市,蚌埠学院,颗粒物(PM10),80,110,266,40,44,78,,80,78,15,15,4,5,0.5,0.4
2026-02-23T1800,2275A,117.3143,32.8977,蚌埠市,高新区,颗粒物(PM10),78,105,257,44,48,65,,78,76,15,11,6,7,0.6,0.5
2026-02-23T1800,3715A,117.3091,32.9314,蚌埠市,蚌埠田家炳中学,颗粒物(PM10),77,104,250,41,50,73,,78,78,15,19,4,6,0.4,0.5
2026-02-23T1800,1585A,109.8761,40.6533,包头市,市环境监测站,颗粒物(PM10),54,58,58,14,18,91,,89,89,15,19,9,10,0.4,0.4
2026-02-23T1800,1587A,109.9992,40.5843,包头市,包头八中,,42,42,60,16,27,88,,81,81,11,20,6,14,0.5,1
2026-02-23T1800,1589A,109.8641,40.6288,包头市,惠龙物流,,41,41,48,10,19,94,,87,87,11,17,10,15,0.7,1
2026-02-23T1800,1590A,110.0376,40.5546,包头市,东河鸿龙湾,,39,39,47,8,16,93,,84,84,6,18,7,9,0.3,0.5
2026-02-23T1800,3419A,109.9449,40.6259,包头市,包头市委党校,,29,24,46,3,19,91,,84,84,8,18,10,12,0.7,1
2026-02-23T1800,3683A,109.8332,40.6577,包头市,昆区政府,,44,44,55,15,23,84,,82,82,21,33,12,15,1.0,1
2026-02-23T1800,1931A,107.0802,34.3129,宝鸡市,竹园沟,颗粒物(PM10),90,130,235,52,56,44,,42,42,19,16,6,6,0.6,0.5
2026-02-23T1800,1933A,107.1429,34.3549,宝鸡市,监测站,颗粒物(PM10),97,144,313,52,64,42,,44,38,18,12,4,5,0.5,0.5
2026-02-23T1800,1934A,107.1172,34.3759,宝鸡市,技工学校,细颗粒物(PM2.5),99,140,309,74,104,48,,53,46,18,14,4,4,0.7,0.6
2026-02-23T1800,1936A,107.2025,34.3518,宝鸡市,文理学院,细颗粒物(PM2.5),110,165,317,83,109,48,,52,46,13,10,4,4,0.7,0.6
2026-02-23T1800,1937A,107.2396,34.3626,宝鸡市,三迪小学,细颗粒物(PM2.5),114,157,321,86,109,50,,53,47,16,13,4,4,0.6,0.6
2026-02-23T1800,4155A,107.1721,34.3558,宝鸡市,滨河北路,细颗粒物(PM2.5),117,164,335,88,113,49,,51,44,15,12,4,5,0.6,0.5
2026-02-23T1800,4308A,107.3898,34.3601,宝鸡市,陈仓区北开路21号,细颗粒物(PM2.5),123,182,331,93,103,46,,52,47,12,8,6,7,0.6,0.5
2026-02-23T1800,1054A,115.4484,38.8344,保定市,地表水厂,颗粒物(PM10),60,70,53,11,7,85,,89,89,11,11,3,3,0.2,0.2
2026-02-23T1800,3583A,115.6231,39.0223,保定市,徐水物探局,颗粒物(PM10),61,71,51,16,18,85,,88,88,11,11,4,3,0.4,0.3
2026-02-23T1800,2594A,99.1589,25.1137,保山市,市环境监测站,,48,40,41,33,28,101,,104,93,6,7,5,5,0.3,0.3
2026-02-23T1800,2595A,99.1616,25.1381,保山市,市环保局,颗粒物(PM10),52,53,44,29,28,134,,129,129,3,4,4,4,0.4,0.4
2026-02-23T1800,1867A,109.1435,21.4085,北海市,海滩公园,,37,37,33,14,16,67,,71,71,13,8,2,3,1.4,0.7
2026-02-23T1800,1869A,109.1775,21.5232,北海市,北海工业园,颗粒物(PM10),61,72,37,27,25,55,,68,68,8,7,5,6,0.6,0.6
2026-02-23T1800,3400A,109.1844,21.4396,北海市,龙潭自来水厂,,27,27,29,11,17,67,,68,68,3,4,1,3,0.8,0.8
2026-02-23T1800,1001A,116.3611,39.8786,北京市,万寿西宫,细颗粒物(PM2.5),58,47,26,41,11,90,,89,89,8,7,3,2,0.4,0.4
2026-02-23T1800,1003A,116.4174,39.9289,北京市,东四,颗粒物(PM10),53,56,28,10,4,81,,79,79,11,10,5,4,0.4,0.4
2026-02-23T1800,1004A,116.4073,39.8858,北京市,天坛,,47,47,27,13,7,84,,82,82,5,6,3,2,0.5,0.4
2026-02-23T1800,1005A,116.4622,39.9364,北京市,农展馆,,50,50,25,16,6,90,,88,88,4,5,6,5,0.5,0.4
2026-02-23T1800,1006A,116.3399,39.9293,北京市,官园,颗粒物(PM10),52,54,30,17,8,80,,78,78,7,5,4,3,0.4,0.3
2026-02-23T1800,1007A,116.2879,39.9613,北京市,海淀万柳,,46,46,26,14,7,78,,74,74,12,10,4,2,0.4,0.3
2026-02-23T1800,1008A,116.6635,40.1349,北京市,顺义新城,,40,40,24,14,7,87,,83,83,4,3,7,6,0.5,0.4
2026-02-23T1800,1009A,116.6275,40.327,北京市,怀柔镇,,45,45,24,16,7,78,,75,75,14,9,5,4,0.6,0.6
2026-02-23T1800,1010A,116.2295,40.217,北京市,昌平镇,,48,48,24,15,7,85,,80,80,8,6,3,2,0.5,0.5
2026-02-23T1800,1011A,116.3968,39.982,北京市,奥体中心,,46,46,26,14,7,78,,78,78,9,9,6,5,0.4,0.4
2026-02-23T1800,3418A,116.8336,40.4095,北京市,密云新城,,46,46,24,18,7,81,,76,76,11,5,5,3,0.3,0.3
2026-02-23T1800,3671A,116.0879,39.9725,北京市,门头沟三家店,颗粒物(PM10),53,55,32,13,9,85,,82,82,10,6,4,3,0.4,0.3
2026-02-23T1800,3672A,116.1507,39.8246,北京市,丰台云岗,,44,44,29,17,8,93,,91,91,7,5,3,2,0.4,0.3
2026-02-23T1800,3674A,115.9578,39.7602,北京市,房山燕山,,47,47,34,15,9,86,,84,84,8,4,5,4,0.4,0.4
2026-02-23T1800,3675A,116.4669,39.7734,北京市,大兴旧宫,颗粒物(PM10),52,53,28,15,7,86,,84,84,8,7,5,4,0.4,0.3
2026-02-23T1800,3694A,115.9859,40.4562,北京市,延庆石河营,,39,39,26,15,8,80,,76,76,9,5,2,2,0.4,0.3
2026-02-23T1800,3695A,116.6151,40.3052,北京市,怀柔新城,颗粒物(PM10),51,52,23,17,8,78,,76,76,14,7,4,2,0.3,0.3
2026-02-23T1800,3696A,116.2542,39.8764,北京市,丰台小屯,,49,49,29,12,7,79,,75,75,5,4,5,4,0.4,0.3
2026-02-23T1800,3697A,116.8399,40.3843,北京市,密云镇,,39,39,24,13,6,82,,77,77,12,9,2,2,0.4,0.4
2026-02-23T1800,4057A,115.9423,40.4431,北京市,延庆百泉,,33,33,25,10,9,81,,75,75,7,5,1,2,0.3,0.3
2026-02-23T1800,4058A,116.6598,39.9164,北京市,通州新华,颗粒物(PM10),54,57,27,16,11,83,,81,81,9,6,3,1,0.6,0.5
2026-02-23T1800,4182A,116.1942,39.9158,北京市,石景山八角,颗粒物(PM10),51,51,31,14,7,79,,74,74,6,4,4,3,0.2,0.1
2026-02-23T1800,4194A,117.078628,40.151726,北京市,平谷新城,,42,42,22,11,6,83,,80,80,5,2,6,3,0.6,0.4
2026-02-23T1800,1761A,123.8274146,41.31234549,本溪市,大峪,颗粒物(PM10),57,64,73,33,14,86,,90,90,12,9,10,10,0.7,0.7
2026-02-23T1800,1763A,123.7169,41.3094,本溪市,彩屯,,,78,73,54,15,82,,93,93,18,8,,7,,0.6
2026-02-23T1800,1764A,123.7672166,41.28649327,本溪市,东明,颗粒物(PM10),60,70,66,41,16,84,,88,88,14,11,9,11,0.6,0.8
2026-02-23T1800,1765A,123.799345,41.266614,本溪市,新立屯,颗粒物(PM10),62,73,58,39,16,84,,88,88,8,7,8,9,0.6,0.9
2026-02-23T1800,1766A,123.829144,41.336777,本溪市,威宁,颗粒物(PM10),57,64,76,37,15,90,,93,93,8,6,8,6,0.5,0.5
2026-02-23T1800,2587A,105.287,27.3133,毕节市,八中,细颗粒物(PM2.5),64,57,72,46,54,84,,84,84,7,14,11,11,0.8,1
2026-02-23T1800,2588A,105.3079,27.2987,毕节市,师专,细颗粒物(PM2.5),73,58,76,53,54,88,,90,90,8,16,12,11,0.6,0.8
2026-02-23T1800,4263A,105.3688,27.3598,毕节市,工业大道,细颗粒物(PM2.5),74,66,60,54,44,86,,88,88,6,11,11,10,/,/
2026-02-23T1800,1629A,117.9961,37.3604,滨州市,第二水厂,颗粒物(PM10),68,85,64,31,20,61,,67,66,21,18,14,15,0.8,0.8
2026-02-23T1800,3514A,117.9379,37.3959,滨州市,中海酒店,颗粒物(PM10),68,85,59,27,17,69,,76,75,21,16,14,14,0.8,0.7
2026-02-23T1800,3515A,117.9381509,37.35547456,滨州市,开发区一中,,,117,81,32,21,60,,69,68,17,14,17,18,,0.8
2026-02-23T1800,3516A,118.0914,37.6938,滨州市,金海六路,颗粒物(PM10),69,88,70,31,19,64,,80,78,22,16,12,7,0.7,0.5
2026-02-23T1800,4028A,117.9955,37.3752,滨州市,滨州市西街道办事处,颗粒物(PM10),73,95,67,41,23,64,,71,70,15,11,13,15,0.3,0.1
2026-02-23T1800,2311A,115.8071,33.8399,亳州市,污水处理厂,颗粒物(PM10),78,106,300,35,75,67,,74,74,12,13,5,6,0.3,0.3
2026-02-23T1800,2312A,115.7789,33.8519,亳州市,三国揽胜宫,颗粒物(PM10),95,139,324,36,83,63,,70,70,10,12,4,6,0.3,0.2
2026-02-23T1800,3332A,115.7631,33.803,亳州市,亳州学院,颗粒物(PM10),79,107,275,36,74,67,,73,73,12,11,3,4,0.3,0.1
2026-02-23T1800,2693A,82.0482,44.8553,博尔塔拉蒙古自治州,市党校,颗粒物(PM10),55,59,49,23,15,70,,78,67,21,18,4,3,0.3,0.3
2026-02-23T1800,2694A,82.0805,44.8966,博尔塔拉蒙古自治州,市环保局,,35,35,33,19,15,70,,76,67,14,14,3,3,0.4,0.4
2026-02-23T1800,1071A,116.8733,38.2922,沧州市,沧县城建局,颗粒物(PM10),69,88,62,30,20,71,,79,79,19,17,9,8,0.3,0.2
2026-02-23T1800,1072A,116.8462,38.3189,沧州市,电视转播站,颗粒物(PM10),72,93,59,29,17,71,,78,78,20,17,6,5,0.3,0.4
2026-02-23T1800,1073A,116.8588,38.3161,沧州市,市环保局,颗粒物(PM10),75,99,62,44,22,62,,69,68,15,13,4,4,0.3,0.3
2026-02-23T1800,3324A,116.8011,38.294,沧州市,河北水利电力学院,颗粒物(PM10),71,92,61,29,19,65,,70,70,17,11,9,5,0.3,0.2
2026-02-23T1800,2622A,97.1813,31.1289,昌都市,昌都监测站,,38,14,20,9,12,121,,118,118,1,6,4,4,0.4,0.6
2026-02-23T1800,2692A,87.2722,44.0298,昌吉回族自治州,新区政务中心,细颗粒物(PM2.5),94,87,54,70,37,97,,83,83,19,17,8,5,0.8,0.6
2026-02-23T1800,4164A,87.2057,43.9289,昌吉回族自治州,财政所,细颗粒物(PM2.5),75,67,43,55,30,86,,77,77,10,8,6,6,0.6,0.5
2026-02-23T1800,1120A,125.2874,43.9024,长春市,客车厂,颗粒物(PM10),167,283,221,27,15,74,,72,72,2,3,6,6,0.3,0.3
2026-02-23T1800,1121A,125.2943,43.8508,长春市,邮电学院,颗粒物(PM10),138,226,166,20,13,75,,78,77,4,3,8,7,0.3,0.4
2026-02-23T1800,1122A,125.3648,43.8745,长春市,劳动公园,颗粒物(PM10),127,204,152,24,13,71,,74,74,8,5,6,5,0.3,0.4
2026-02-23T1800,1123A,125.3233,43.8781,长春市,园林处,颗粒物(PM10),129,208,150,23,13,72,,75,75,2,2,7,6,0.2,0.2
2026-02-23T1800,1124A,125.4604,43.7904,长春市,净月潭,颗粒物(PM10),129,208,152,17,12,76,,77,77,3,3,6,5,0.2,0.2
2026-02-23T1800,1126A,125.38,43.8422,长春市,经开区环卫处,颗粒物(PM10),133,216,151,60,14,75,,77,77,6,4,5,4,,0.2
2026-02-23T1800,1127A,125.234,43.7761,长春市,高新区管委会,颗粒物(PM10),136,221,145,14,11,77,,77,77,2,2,7,6,0.6,0.4
2026-02-23T1800,1128A,125.1695,43.83,长春市,岱山公园,颗粒物(PM10),149,248,178,17,14,74,,74,74,2,2,4,4,0.4,0.4
2026-02-23T1800,4281A,125.334645,43.916281,长春市,北亚泰大街1068号,颗粒物(PM10),143,236,176,26,14,66,,70,70,10,6,8,6,0.2,0.2
2026-02-23T1800,1335A,113.082,28.2421,长沙市,经开区环保局,,25,21,54,17,37,59,,55,54,7,12,3,7,0.5,0.6
2026-02-23T1800,1336A,112.8873,28.2202,长沙市,高开区环保局,,36,31,55,25,45,40,,54,53,13,13,4,6,1.0,1.1
2026-02-23T1800,1337A,113.0785,28.2012,长沙市,马坡岭,,41,41,62,20,45,58,,58,58,5,20,4,5,0.6,0.8
2026-02-23T1800,1338A,112.9448,28.1894,长沙市,湖南师范大学,,33,33,60,19,34,55,,69,55,13,13,3,5,0.8,0.8
2026-02-23T1800,1339A,113.0177,28.1322,长沙市,雨花区环保局,,42,42,64,26,36,55,,74,58,14,15,7,8,1.0,1
2026-02-23T1800,1340A,112.9795,28.2593,长沙市,伍家岭,,35,35,69,22,42,26,,49,46,18,15,5,6,0.8,0.9
2026-02-23T1800,1341A,113.002,28.1944,长沙市,火车新站,,32,32,68,22,46,62,,55,55,7,26,2,3,0.7,1
2026-02-23T1800,1342A,112.9846,28.1177,长沙市,天心区环保局,,38,38,64,24,36,61,,81,63,9,11,5,6,0.8,0.9
2026-02-23T1800,1343A,112.8906,28.1307,长沙市,湖南中医药大学,,37,37,63,24,39,70,,62,62,6,17,5,6,0.8,0.9
2026-02-23T1800,1727A,113.1146,36.1547,长治市,清华站,,47,47,192,24,73,78,,72,72,7,10,7,10,0.6,0.7
2026-02-23T1800,1730A,113.0887,36.2126,长治市,审计局,,37,37,195,21,74,83,,70,70,5,15,7,10,0.3,0.6
2026-02-23T1800,2845A,113.1561,36.1912,长治市,德盛苑,,49,49,192,27,78,81,,78,78,8,13,6,9,0.6,0.8
2026-02-23T1800,3568A,113.0603,36.0464,长治市,向阳小学,颗粒物(PM10),58,65,190,30,67,76,,70,70,8,10,7,15,0.5,0.4
2026-02-23T1800,3569A,112.8788,36.315,长治市,屯留一中,,38,38,192,15,69,80,,67,67,4,24,6,17,0.2,0.7
2026-02-23T1800,4189A,113.113092,36.199482,长治市,英华南巷50号,,47,47,213,23,89,79,,73,73,10,11,5,9,0.6,0.8
2026-02-23T1800,4190A,113.23666,36.33435,长治市,学府街1号,颗粒物(PM10),56,62,260,21,77,76,,66,66,11,25,4,11,0.6,0.9
2026-02-23T1800,1854A,111.696,28.9725,常德市,市二中,颗粒物(PM10),62,73,91,37,50,59,,54,54,8,8,5,7,1.2,1.3
2026-02-23T1800,3138A,111.7152,29.0288,常德市,武陵区永安,颗粒物(PM10),64,78,102,43,50,59,,58,58,10,10,4,5,0.9,1
2026-02-23T1800,3139A,111.6891,28.9881,常德市,鼎城区玉霞,颗粒物(PM10),56,61,91,36,49,61,,57,57,10,12,5,6,0.9,1
2026-02-23T1800,4274A,117.7994,40.9605,承德市,滨河大街98号,,33,27,37,23,13,74,,72,72,5,8,6,10,0.4,0.5
2026-02-23T1800,2314A,117.4698,30.6617,池州市,池州学院,颗粒物(PM10),120,190,248,57,67,78,,80,80,23,22,6,6,0.8,0.8
2026-02-23T1800,3237A,117.4918,30.6617,池州市,展览馆,颗粒物(PM10),121,192,245,56,75,78,,82,82,18,14,6,5,0.7,0.7
2026-02-23T1800,3333A,117.5626,30.695,池州市,第八中学,颗粒物(PM10),126,201,252,47,58,82,,83,83,20,18,10,5,0.4,0.4
2026-02-23T1800,3334A,117.5037,30.6242,池州市,第十二中学,颗粒物(PM10),123,195,260,48,58,84,,82,82,12,11,7,6,0.7,0.7
2026-02-23T1800,1745A,118.9588,42.2733,赤峰市,哈达街,,28,26,24,19,8,59,,68,68,23,9,9,6,0.7,0.7
2026-02-23T1800,1746A,118.8792,42.2551,赤峰市,天义路,,24,19,17,16,5,74,,79,79,9,6,6,6,0.6,0.6
2026-02-23T1800,3058A,119.2656,42.0356,赤峰市,银河街,,34,34,26,23,13,84,,90,90,6,4,9,9,0.4,0.5
2026-02-23T1800,3286A,118.9359,42.3146,赤峰市,桥北物流园区,,26,12,12,12,7,83,,87,87,2,3,5,4,0.3,0.3
2026-02-23T1800,2521A,107.3473,22.4137,崇左市,市环保局江州分局,,35,28,66,24,47,30,,38,38,11,19,6,4,0.7,0.8
2026-02-23T1800,4256A,107.375,22.3736,崇左市,石景林东路7号,,50,35,43,35,35,34,,38,38,12,18,4,3,0.8,0.8
2026-02-23T1800,3207A,118.31131,32.3033,滁州市,市政府原办公楼,颗粒物(PM10),88,126,186,44,51,89,,86,86,10,16,5,6,0.3,0.4
2026-02-23T1800,3331A,118.3268,32.2633,滁州市,图书馆,颗粒物(PM10),88,126,199,32,39,90,,87,87,12,13,8,9,0.3,0.4
2026-02-23T1800,4101A,118.3196,32.3335,滁州市,银山路666号,颗粒物(PM10),94,138,204,36,40,92,,91,91,11,10,11,8,0.8,0.6
2026-02-23T1800,4102A,118.3426,32.2979,滁州市,黄山路555号,颗粒物(PM10),97,143,223,36,38,94,,87,87,5,9,7,8,0.5,0.6
2026-02-23T1800,2606A,101.5379,25.0492,楚雄彝族自治州,市经济开发区,,45,45,38,31,24,121,,128,128,6,9,4,4,0.5,0.4
2026-02-23T1800,4153A,101.5536,25.0343,楚雄彝族自治州,团结路562号,,40,38,28,28,20,125,,128,128,3,5,4,4,0.4,0.4
2026-02-23T1800,2549A,107.5087,31.2186,达州市,市环境监测站,颗粒物(PM10),51,51,67,16,46,64,,48,48,9,32,6,7,0.1,0.4
2026-02-23T1800,2550A,107.4988,31.2132,达州市,凤凰小区,,46,46,68,16,48,67,,47,47,8,39,6,7,0.1,0.7
2026-02-23T1800,2551A,107.5081,31.1987,达州市,达县机关宾馆,,39,39,70,7,54,65,,47,47,14,42,4,5,0.5,1.1
2026-02-23T1800,2552A,107.4644,31.2124,达州市,市政中心,,47,47,75,14,51,69,,43,43,10,48,6,6,0.3,0.9
2026-02-23T1800,2614A,100.2168,25.5818,大理白族自治州,大理市环境监测站,,38,30,30,25,23,120,,121,121,7,6,7,7,0.7,0.7
2026-02-23T1800,2615A,100.1542,25.7055,大理白族自治州,大理古城,,42,30,28,29,22,118,,125,122,6,4,8,8,0.6,0.6
2026-02-23T1800,1109A,121.6119,38.974,大连市,甘井子,,28,28,41,7,11,89,,90,90,9,9,6,8,0.5,0.5
2026-02-23T1800,1110A,121.565,38.9509,大连市,周水子,,27,27,42,8,10,84,,84,84,8,8,10,9,0.3,0.3
2026-02-23T1800,1111A,121.5637,38.8849,大连市,星海三站,,26,24,39,3,7,82,,83,83,7,7,3,5,0.4,0.5
2026-02-23T1800,1112A,121.6301,38.9117,大连市,青泥洼桥,,28,23,35,3,9,87,,89,89,9,11,8,8,0.4,0.4
2026-02-23T1800,1113A,121.6248,38.8643,大连市,傅家庄,,28,25,32,3,6,87,,85,85,4,4,5,6,0.2,0.3
2026-02-23T1800,1114A,121.5117,38.8636,大连市,七贤岭,,29,29,46,3,7,82,,84,84,10,8,5,6,0.4,0.4
2026-02-23T1800,1116A,121.7507,39.1339,大连市,金州,,26,26,37,7,10,79,,84,83,9,4,10,9,0.2,0.2
2026-02-23T1800,1117A,121.7811,39.0495,大连市,开发区,,28,28,42,6,12,78,,83,83,14,10,4,5,0.2,0.3
2026-02-23T1800,1118A,121.9762,39.0631,大连市,双D港,,28,16,31,3,6,89,,90,90,7,7,6,6,0.6,0.6
2026-02-23T1800,4082A,121.2548,38.8188,大连市,旅顺,,39,39,44,7,9,79,,79,79,9,8,7,8,0.4,0.4
2026-02-23T1800,1790A,125.1166,46.5255,大庆市,龙凤区,,47,47,45,15,13,71,,75,75,13,12,3,3,0.1,0.1
2026-02-23T1800,1791A,124.8894,46.4007,大庆市,红岗区,颗粒物(PM10),54,57,47,12,10,55,,65,54,6,6,6,6,0.2,0.2
2026-02-23T1800,3481A,125.127,46.6277,大庆市,萨区政府监测点,颗粒物(PM10),56,62,38,7,8,73,,77,77,4,2,8,8,0.3,0.2
2026-02-23T1800,1723A,113.2926,40.0759,大同市,云冈宾馆,,44,44,65,14,21,81,,74,74,8,14,6,13,0.8,1.2
2026-02-23T1800,1724A,113.3437,40.0921,大同市,大同大学,,48,48,65,11,24,90,,80,80,9,13,2,18,0.4,0.6
2026-02-23T1800,1725A,113.2637,40.129,大同市,安家小村,,46,46,74,11,23,91,,79,79,6,16,9,16,0.3,1.1
2026-02-23T1800,3565A,113.1371,40.1122,大同市,云冈站,,42,42,71,3,21,87,,76,76,6,18,6,15,0.4,0.6
2026-02-23T1800,3566A,113.1186,40.2556,大同市,图书馆,,45,45,65,17,21,89,,78,78,3,8,2,11,0.2,0.4
2026-02-23T1800,4199A,113.2798248,40.09972476,大同市,魏都大道141号,,47,47,77,18,21,85,,78,78,9,20,7,13,0.4,1
2026-02-23T1800,2269A,124.1068,50.4091,大兴安岭地区,科技局,,26,26,28,7,10,62,,65,63,1,1,5,4,0.4,0.4
2026-02-23T1800,3663A,124.117,50.4279,大兴安岭地区,红旗社区,,21,14,15,13,9,65,,68,64,2,3,5,5,0.2,0.2
2026-02-23T1800,1600A,124.33,40.0625,丹东市,江湾东路,,50,50,52,29,17,73,,87,86,17,10,9,10,0.5,0.4
2026-02-23T1800,1601A,124.4242,40.1513,丹东市,临江后街,,42,42,46,17,11,76,,86,84,13,8,8,8,0.3,0.4
2026-02-23T1800,1602A,124.3935,40.1461,丹东市,元宝山,,42,42,39,20,8,76,,82,82,7,3,10,9,0.4,0.3
2026-02-23T1800,1603A,124.3634,40.1093,丹东市,民主桥,,43,43,57,19,14,71,,81,80,8,7,8,8,0.3,0.3
2026-02-23T1800,3541A,109.5726195,19.51688767,儋州市,第一中学子站,,26,26,22,13,11,66,,56,56,2,2,4,4,0.5,0.5
2026-02-23T1800,3542A,109.5567,19.5187,儋州市,东坡学校子站,,25,19,23,12,12,77,,65,65,4,2,6,4,0.4,0.4
2026-02-23T1800,3677A,98.5887,24.4366,德宏傣族景颇族自治州,芒市人民政府综合楼,颗粒物(PM10),64,78,72,42,40,120,,99,99,7,13,6,5,0.4,0.6
2026-02-23T1800,1901A,104.424,31.1209,德阳市,东山公园,颗粒物(PM10),63,76,72,30,62,79,,81,81,2,9,2,3,0.5,0.7
2026-02-23T1800,1904A,104.3553,31.1091,德阳市,耐火材料厂,颗粒物(PM10),67,84,76,29,62,65,,72,72,18,21,1,3,0.6,0.8
2026-02-23T1800,4145A,104.4144,31.1495,德阳市,市林业局,颗粒物(PM10),78,106,85,29,64,77,,82,82,1,15,7,8,0.5,0.8
2026-02-23T1800,1624A,116.2992,37.4449,德州市,监理站,颗粒物(PM10),85,119,90,46,26,70,,94,89,20,14,17,15,0.9,0.9
2026-02-23T1800,3066A,116.2722,37.438,德州市,九衢泉纯净水厂,颗粒物(PM10),79,107,78,41,21,67,,76,71,21,15,12,9,0.7,0.6
2026-02-23T1800,4292A,116.352738,37.420875,德州市,新河东路,颗粒物(PM10),67,83,64,35,19,60,,65,64,16,12,16,15,0.7,0.7
2026-02-23T1800,2621A,99.7054,27.8319,迪庆藏族自治州,迪庆州站,,37,33,28,18,20,118,,124,124,6,8,5,10,0.5,0.6
2026-02-23T1800,3180A,99.7122,27.8129,迪庆藏族自治州,质量技术监督局,,38,30,23,21,16,120,,137,129,7,8,5,5,0.6,0.6
2026-02-23T1800,4257A,104.6092,35.5962,定西市,将台街,颗粒物(PM10),62,73,216,27,73,96,,96,96,1,11,9,14,0.4,0.5
2026-02-23T1800,1390A,113.7943,23.0132,东莞市,东城石井,,40,26,35,15,26,126,,128,128,8,18,6,5,0.6,0.6
2026-02-23T1800,1391A,113.7384,22.9659,东莞市,南城西平,,38,23,36,12,27,119,,121,121,14,19,9,7,0.5,0.6
2026-02-23T1800,3319A,113.7283,23.041,东莞市,万江金泰,,39,27,42,21,30,123,,121,121,5,15,6,6,0.7,0.8
2026-02-23T1800,4129A,113.8666,23.1062,东莞市,裕兴路,,36,36,47,17,31,114,,112,112,6,17,6,6,0.8,0.8
2026-02-23T1800,4130A,114.0076,22.9739,东莞市,教育路1号,,39,36,43,18,29,124,,122,122,8,17,5,5,0.6,0.6
2026-02-23T1800,4131A,113.7981,22.8124,东莞市,长怡路1号,,38,29,40,13,25,121,,126,126,10,24,8,9,0.7,0.7
2026-02-23T1800,1666A,118.6612,37.4313,东营市,市环保局,颗粒物(PM10),69,88,60,32,11,63,,80,74,28,18,10,8,0.7,0.6
2026-02-23T1800,3036A,118.6903,37.4337,东营市,开发区管委会,颗粒物(PM10),73,96,66,24,9,66,,80,75,24,9,11,10,0.7,0.6
2026-02-23T1800,3365A,118.5721,37.5654,东营市,垦利区民丰路,颗粒物(PM10),64,78,62,23,12,68,,84,81,30,19,13,11,0.5,1.2
2026-02-23T1800,3498A,118.5063,37.8606,东营市,河口城区,颗粒物(PM10),69,88,66,25,8,78,,90,89,25,19,9,6,0.5,0.4
2026-02-23T1800,3646A,118.4979,37.4623,东营市,胜利站,颗粒物(PM10),62,74,46,30,11,51,,74,67,32,15,10,8,0.8,0.6
2026-02-23T1800,3734A,118.5753,37.4405,东营市,理想之城,颗粒物(PM10),65,80,61,26,8,65,,82,77,19,10,7,6,0.7,0.6
2026-02-23T1800,1591A,110.0024,39.8127,鄂尔多斯市,综合楼,,41,41,86,3,20,97,,86,86,7,14,6,11,0.3,0.3
2026-02-23T1800,1592A,109.9485,39.8259,鄂尔多斯市,巴音孟克林场办事处,,34,34,85,14,30,99,,90,90,5,13,4,8,0.2,0.3
2026-02-23T1800,1593A,109.7734,39.5987,鄂尔多斯市,康泽苑,,34,34,75,13,34,101,,89,89,4,11,5,6,0.3,0.3
2026-02-23T1800,2436A,114.894,30.3989,鄂州市,市政府,颗粒物(PM10),81,112,153,51,49,66,,58,58,18,29,10,35,0.9,0.9
2026-02-23T1800,2437A,114.8986,30.3714,鄂州市,赵家坝,颗粒物(PM10),84,118,143,52,43,73,,70,69,5,15,12,15,0.9,1
2026-02-23T1800,3654A,114.8093,30.4091,鄂州市,精准医疗中心,颗粒物(PM10),81,111,132,53,51,56,,60,59,23,32,9,32,0.9,1.4
2026-02-23T1800,2454A,109.4978,30.2979,恩施土家族苗族自治州,湖北民院,细颗粒物(PM2.5),58,47,49,41,43,51,,41,41,14,16,6,6,1.0,0.9
2026-02-23T1800,3549A,109.5061,30.3771,恩施土家族苗族自治州,龙凤新区,细颗粒物(PM2.5),64,46,51,46,37,33,,45,29,14,12,8,7,0.6,0.5
2026-02-23T1800,2499A,108.3411,21.6159,防城港市,沙万,颗粒物(PM10),54,58,48,24,23,35,,44,42,29,20,6,7,0.5,0.6
2026-02-23T1800,2500A,108.3515,21.7733,防城港市,防城档案局,,38,28,41,26,28,41,,43,43,9,11,4,5,0.6,0.8
2026-02-23T1800,2501A,108.3506,21.6414,防城港市,大海花园,颗粒物(PM10),54,57,37,25,25,44,,49,49,21,15,6,7,0.5,0.6
2026-02-23T1800,1371A,113.1293,23.0065,佛山市,湾梁,颗粒物(PM10),51,51,41,21,32,147,,119,119,10,13,/,/,/,/
2026-02-23T1800,1372A,113.1082,23.0477,佛山市,华材职中,颗粒物(PM10),52,53,44,34,36,158,,132,132,12,16,6,6,0.5,0.5
2026-02-23T1800,1373A,113.1439,23.045,佛山市,南海气象局,,45,43,44,24,38,143,,119,119,11,15,/,/,/,/
2026-02-23T1800,1376A,112.8384,22.8678,佛山市,高明孔堂,颗粒物(PM10),57,63,35,30,26,130,,109,109,6,8,/,/,/,/
2026-02-23T1800,1377A,112.8835,23.1584,佛山市,三水监测站,,46,46,47,30,41,136,,110,110,13,27,4,3,0.5,0.5
2026-02-23T1800,1378A,112.8668,23.185,佛山市,三水云东海,,47,42,45,26,35,150,,122,122,15,22,/,/,/,/
2026-02-23T1800,3625A,113.2568,22.7629,佛山市,容桂街道办,,46,46,35,18,29,116,,100,100,11,12,/,/,/,/
2026-02-23T1800,1282A,119.2681,26.0506,福州市,师大,颗粒物(PM10),91,131,116,44,42,89,,107,96,10,10,3,4,0.7,0.6
2026-02-23T1800,1283A,119.2983,26.1028,福州市,五四北路,颗粒物(PM10),90,130,93,47,36,85,,107,93,12,10,4,5,0.6,0.6
2026-02-23T1800,1284A,119.2648,26.0769,福州市,杨桥西路,颗粒物(PM10),93,136,96,45,33,86,,103,97,16,10,4,5,/,/
2026-02-23T1800,3048A,119.5799,26.0937,福州市,九龙,颗粒物(PM10),84,117,153,36,44,85,,104,90,10,11,4,5,0.5,0.5
2026-02-23T1800,3526A,119.5188,25.9666,福州市,吴航,颗粒物(PM10),89,127,131,38,43,86,,103,89,10,11,4,6,0.4,0.4
2026-02-23T1800,4104A,119.3106,26.0648,福州市,路通桥巷6号,颗粒物(PM10),86,121,83,43,36,88,,111,94,9,8,/,/,/,/
2026-02-23T1800,1755A,123.7974,41.8494,抚顺市,望花区,,46,46,76,17,11,84,,89,89,9,7,3,3,0.7,0.7
2026-02-23T1800,1756A,123.9161,41.8827,抚顺市,顺城区,,35,35,50,18,9,83,,87,87,9,8,8,8,0.5,0.4
2026-02-23T1800,1757A,124.0437,41.8615,抚顺市,东洲区,,40,40,75,16,9,81,,83,83,8,7,9,9,0.5,0.5
2026-02-23T1800,1758A,123.9246,41.8638,抚顺市,新抚区,,48,48,78,16,11,85,,88,88,9,8,8,8,0.4,0.4
2026-02-23T1800,1759A,124.0972,41.8961,抚顺市,大伙房水库,,38,38,71,12,8,87,,89,89,5,4,10,15,0.4,0.4
2026-02-23T1800,1760A,123.708,41.8386,抚顺市,沈抚新城,,42,42,74,22,8,80,,85,85,7,5,7,7,0.5,0.4
2026-02-23T1800,2377A,116.3544,27.9833,抚州市,市站,,43,34,95,30,56,72,,92,92,8,3,7,8,1.1,1
2026-02-23T1800,2378A,116.3562,27.9631,抚州市,血防站,,36,36,85,23,56,85,,86,86,11,13,4,8,1.6,1.6
2026-02-23T1800,2379A,116.3561,28.0007,抚州市,采茶剧团,,32,32,90,16,51,90,,89,89,4,5,15,16,1.4,1.4
2026-02-23T1800,2207A,121.6095,41.9978,阜新市,工业园区,,26,22,47,3,10,81,,83,83,5,7,8,12,0.3,0.4
2026-02-23T1800,2208A,121.6567,42.0188,阜新市,长青街,,25,9,27,3,7,77,,82,82,5,6,6,9,0.4,0.4
2026-02-23T1800,2209A,121.6672,42.07,阜新市,农业园区,,22,18,34,10,6,70,,76,76,3,3,6,7,0.5,0.5
2026-02-23T1800,2211A,121.6343,42.0455,阜新市,玉龙新城,,24,20,39,8,8,75,,80,80,8,8,6,7,0.4,0.5
2026-02-23T1800,2301A,115.8276,32.8929,阜阳市,市监测站,颗粒物(PM10),74,97,288,36,76,62,,60,60,12,16,4,5,0.6,0.6
2026-02-23T1800,2303A,115.8551,32.8606,阜阳市,开发区,颗粒物(PM10),72,93,321,31,74,60,,61,61,6,11,5,6,0.4,0.5
2026-02-23T1800,2875A,115.783962,32.889217,阜阳市,阜阳职业技术学院,颗粒物(PM10),66,82,307,32,68,66,,66,66,11,14,6,7,0.6,0.7
2026-02-23T1800,3468A,115.79,32.8614,阜阳市,市规划展馆,颗粒物(PM10),74,98,324,34,74,72,,68,68,8,12,6,8,0.8,0.8
2026-02-23T1800,3469A,115.835101,32.918568,阜阳市,枣园社区,颗粒物(PM10),76,101,320,40,73,54,,55,55,13,15,7,8,0.6,0.6
2026-02-23T1800,2669A,102.9097,34.9841,甘南藏族自治州,州政府,颗粒物(PM10),60,69,173,33,77,78,,75,75,4,9,8,9,0.2,0.4
2026-02-23T1800,3380A,102.8915,34.9618,甘南藏族自治州,甘肃民族师范学院,颗粒物(PM10),66,82,198,22,62,89,,86,86,6,13,7,9,0.1,0.3
2026-02-23T1800,2570A,101.96,30.048,甘孜藏族自治州,水桥子,,26,,10,16,6,83,,90,90,4,8,7,7,0.5,0.4
2026-02-23T1800,3065A,101.9534,29.9976,甘孜藏族自治州,州环保局,,29,24,8,14,8,91,,107,107,6,5,7,6,0.3,0.2
2026-02-23T1800,2363A,114.9368,25.8663,赣州市,地委,颗粒物(PM10),53,56,41,23,28,98,,94,94,11,13,8,8,0.9,1.1
2026-02-23T1800,2364A,114.946,25.8483,赣州市,气象台,,40,40,45,25,30,98,,91,91,6,20,7,6,0.5,0.5
2026-02-23T1800,2365A,114.932,25.8332,赣州市,市图书馆,,33,32,40,23,32,84,,76,76,5,16,4,4,1.0,1.1
2026-02-23T1800,2366A,114.8905,25.8472,赣州市,华坚鞋城,,38,38,47,24,34,87,,82,82,11,20,6,7,0.5,0.6
2026-02-23T1800,3109A,115.0094,25.8614,赣州市,赣县区卫计委,,36,,46,25,34,103,,94,94,7,18,8,9,0.5,0.7
2026-02-23T1800,2684A,106.2753,36.0057,固原市,监测站,颗粒物(PM10),89,127,267,42,75,89,,86,86,5,8,7,9,0.4,0.4
2026-02-23T1800,2685A,106.2384,36.0189,固原市,新区,颗粒物(PM10),88,125,260,42,78,88,,85,85,4,9,7,8,0.4,0.5
2026-02-23T1800,2544A,106.6307,30.4577,广安市,市委,细颗粒物(PM2.5),67,60,110,48,98,58,,53,53,7,35,7,8,0.7,1.2
2026-02-23T1800,2545A,106.6266,30.4662,广安市,友谊中学,细颗粒物(PM2.5),55,53,98,39,76,62,,59,59,8,25,7,9,1.0,1.3
2026-02-23T1800,2547A,106.6386,30.4551,广安市,广电花园,细颗粒物(PM2.5),73,54,110,53,104,55,,49,49,8,28,7,8,0.6,1.1
2026-02-23T1800,2902A,106.6347,30.4868,广安市,北辰小学,细颗粒物(PM2.5),72,57,100,52,93,57,,53,53,6,19,12,13,0.7,1
2026-02-23T1800,2524A,105.8211,32.4444,广元市,老城,颗粒物(PM10),99,147,87,43,45,83,,77,77,12,23,1,2,0.4,0.7
2026-02-23T1800,2526A,105.8629,32.429,广元市,监测站,颗粒物(PM10),90,130,79,43,44,87,,72,72,6,19,4,7,0.3,0.7
2026-02-23T1800,3617A,105.8047,32.4167,广元市,经开区,颗粒物(PM10),86,121,87,42,45,78,,69,69,12,23,2,4,0.4,0.8
2026-02-23T1800,1345A,113.2346,23.1423,广州市,广雅中学,,44,40,49,26,37,138,,112,112,9,21,3,3,0.5,0.6
2026-02-23T1800,1346A,113.2611,23.105,广州市,市五中,,49,34,46,21,34,156,,128,128,12,22,7,7,/,/
2026-02-23T1800,1348A,113.3477,23.0916,广州市,广东商学院,,45,31,46,19,37,143,,122,122,9,22,6,6,0.9,0.9
2026-02-23T1800,1349A,113.4332,23.105,广州市,市八十六中,,47,26,42,22,33,150,,140,140,14,34,5,5,/,/
2026-02-23T1800,1350A,113.3506,22.9488,广州市,番禺中学,,40,36,63,25,34,128,,118,118,13,19,5,4,0.9,0.8
2026-02-23T1800,1351A,113.2147,23.3918,广州市,花都师范,,44,28,59,26,51,138,,125,125,10,31,6,7,0.8,0.9
2026-02-23T1800,1352A,113.2599,23.1329,广州市,市监测站,,44,44,50,26,37,140,,115,115,12,23,1,2,/,/
2026-02-23T1800,1353A,113.5618,23.3119,广州市,九龙镇镇龙,,45,39,52,26,39,143,,118,118,15,16,7,6,0.6,0.6
2026-02-23T1800,1354A,113.2764,23.1544,广州市,麓湖,,46,44,47,26,35,147,,122,122,12,30,4,4,0.5,0.6
2026-02-23T1800,2846A,113.3209,23.1323,广州市,体育西,,45,34,50,25,36,142,,119,119,12,31,6,7,0.8,0.9
2026-02-23T1800,3298A,113.5718,23.5493,广州市,从化街口,,42,41,52,29,41,129,,114,114,10,16,8,8,0.7,0.8
2026-02-23T1800,3299A,113.3463,23.369,广州市,白云竹料,,44,36,54,23,41,138,,128,128,11,22,4,4,0.6,0.7
2026-02-23T1800,3300A,113.2981,23.2365,广州市,白云嘉禾,,47,32,52,21,38,150,,132,132,13,23,6,6,/,/
2026-02-23T1800,3301A,113.4256,23.1716,广州市,黄埔科学城,,49,31,52,23,43,155,,144,144,8,15,6,6,0.7,0.7
2026-02-23T1800,3302A,113.3942,23.0485,广州市,番禺大学城,,47,35,56,15,37,149,,130,130,7,17,9,9,0.6,0.6
2026-02-23T1800,3303A,113.4923,22.8169,广州市,南沙黄阁,颗粒物(PM10),51,51,46,18,31,118,,118,118,16,22,6,6,/,/
2026-02-23T1800,3304A,113.534,22.7893,广州市,南沙街,,50,50,42,17,28,115,,120,120,15,22,4,5,0.6,0.6
2026-02-23T1800,3443A,113.2905,23.5541,广州市,花都梯面,,44,36,40,24,32,140,,116,116,6,13,6,6,/,/
2026-02-23T1800,3445A,113.786,23.7479,广州市,从化良口,,45,37,28,31,23,120,,97,97,7,7,5,4,/,/
2026-02-23T1800,3446A,113.805,23.2614,广州市,增城荔城,,40,36,52,23,38,127,,124,124,9,15,7,6,0.5,0.6
2026-02-23T1800,2506A,109.604387,23.066791,贵港市,江南子站,颗粒物(PM10),51,51,69,30,45,69,,70,70,7,15,7,10,0.6,0.7
2026-02-23T1800,3405A,109.5886,23.1172,贵港市,新世纪学校,,49,41,71,34,59,62,,67,67,14,24,/,/,0.6,0.8
2026-02-23T1800,4260A,109.5933,23.095,贵港市,中山路155-3号,颗粒物(PM10),51,51,75,34,55,61,,66,66,9,19,/,/,0.6,0.8
2026-02-23T1800,1441A,106.6241,26.6266,贵阳市,鉴湖路,,41,41,34,20,21,114,,97,97,8,8,7,6,0.4,0.5
2026-02-23T1800,1442A,106.7468,26.6344,贵阳市,燕子冲,,31,31,31,20,22,99,,85,85,14,12,3,6,0.1,0.3
2026-02-23T1800,1443A,106.6556,26.4362,贵阳市,碧云窝,,32,31,30,21,21,102,,88,88,5,5,7,8,/,/
2026-02-23T1800,1446A,106.7162383,26.56964667,贵阳市,新华路,,32,31,38,22,21,97,,87,87,13,18,20,14,0.5,0.4
2026-02-23T1800,4230A,106.688212,26.56952,贵阳市,花果园大街66号,,,27,24,21,22,87,,75,75,,12,2,3,/,/
2026-02-23T1800,1864A,110.3091,25.2705,桂林市,龙隐路小学,细颗粒物(PM2.5),87,86,109,64,92,36,,28,28,21,25,7,6,0.9,1.3
2026-02-23T1800,1865A,110.2849361,25.22909545,桂林市,八中,颗粒物(PM10),65,79,92,41,53,27,,24,24,35,25,5,6,1.2,1.3
2026-02-23T1800,3531A,110.296,25.1254,桂林市,旅游学院,细颗粒物(PM2.5),84,70,70,62,60,53,,44,44,10,11,7,6,0.8,0.9
2026-02-23T1800,4222A,110.1835,25.2444,桂林市,环湖路276号,细颗粒物(PM2.5),78,70,74,57,65,36,,25,25,18,20,5,12,0.8,1.1
