timepoint,stationcode,longitude,latitude,area,positionname,primarypollutant,aqi,pm10,pm10_24h,pm2_5,pm2_5_24h,o3,o3_24h,o3_8h,o3_8h_24h,no2,no2_24h,so2,so2_24h,co,co_24h
2026-07-12T0000,2568A,102.2503,31.8896,阿坝藏族羌族自治州,马师校,,31,31,21,3,5,25,25,85,55,5,5,3,3,0.5,0.5
2026-07-12T0000,3994A,102.2174,31.9016,阿坝藏族羌族自治州,马尔康中学西区,,16,16,10,6,7,32,32,85,61,4,5,2,2,0.4,0.4
2026-07-12T0000,2695A,80.2899,41.1684,阿克苏地区,电视台,,42,42,43,23,19,109,109,139,130,10,10,4,5,0.4,0.4
2026-07-12T0000,2696A,80.2592,41.1541,阿克苏地区,艺术中心,,46,46,40,24,17,104,104,148,133,20,20,4,4,0.3,0.3
2026-07-12T0000,2205A,105.699,38.8409,阿拉善盟,蒙二幼,,28,17,17,9,9,88,88,87,87,2,4,9,9,0.4,0.4
2026-07-12T0000,2206A,105.7198,38.8508,阿拉善盟,环保局新楼,,30,19,17,9,9,96,96,90,90,2,3,8,9,0.5,0.5
2026-07-12T0000,2708A,88.1266,47.8515,阿勒泰地区,市站,,40,40,28,12,7,55,55,106,91,22,11,7,7,0.3,0.2
2026-07-12T0000,4166A,88.1198,47.7931,阿勒泰地区,阿勒泰路33号,,30,30,23,14,6,69,69,102,96,16,5,7,7,0.4,0.3
2026-07-12T0000,2630A,80.1171,32.4999,阿里地区,阿里监测站,,29,19,10,11,2,90,90,104,101,12,3,6,6,0.3,0.2
2026-07-12T0000,3192A,80.0906,32.5029,阿里地区,阿里藏医院,,30,9,10,3,2,96,96,107,105,3,2,2,2,0.3,0.2
2026-07-12T0000,2644A,109.0088,32.6974,安康市,汉滨区检察院,NA,NA,9,20,3,10,NA,NA,81,57,4,6,3,3,0.4,0.5
2026-07-12T0000,4054A,109.0324,32.6913,安康市,市邮政管理局,,18,10,21,3,14,57,57,77,57,2,5,3,8,0.6,0.7
2026-07-12T0000,2291A,117.0806,30.5181,安庆市,环科院,,28,28,32,12,19,47,47,109,78,2,5,9,10,0.5,0.6
2026-07-12T0000,2292A,117.0331,30.5118,安庆市,马山宾馆,,28,28,30,11,17,50,50,110,78,2,6,2,3,0.3,0.4
2026-07-12T0000,2294A,116.9897,30.6146,安庆市,安庆大学,,25,25,26,14,16,50,50,105,77,2,4,4,4,0.4,0.5
2026-07-12T0000,3173A,117.0598,30.5351,安庆市,市人大,,29,29,31,11,18,48,48,110,76,2,5,5,6,0.4,0.5
2026-07-12T0000,3123A,105.9408,26.2431,安顺市,凤凰山,,34,34,12,17,7,3,3,57,32,26,7,5,5,0.6,0.4
2026-07-12T0000,3124A,105.9443,26.2567,安顺市,金钟山,,29,26,9,20,10,11,11,64,40,20,5,6,6,0.7,0.4
2026-07-12T0000,3125A,105.8983,26.248,安顺市,娄家坡,,22,NA,6,15,7,14,14,60,39,12,3,6,6,0.5,0.4
2026-07-12T0000,1819A,114.3552,36.1017,安阳市,红庙街,,40,24,25,22,16,127,127,126,126,10,9,2,6,0.6,0.5
2026-07-12T0000,1820A,114.361,36.0681,安阳市,银杏小区,,44,44,30,22,21,130,130,135,133,6,5,3,3,0.1,0.1
2026-07-12T0000,3141A,114.3921,36.0879,安阳市,信访局,NA,NA,40,32,26,20,143,143,148,146,NA,7,3,3,0.5,0.4
2026-07-12T0000,3669A,114.4706,36.0634,安阳市,左辅环卫站,,48,48,34,25,19,99,99,123,115,13,10,3,3,0.4,0.4
2026-07-12T0000,4117A,114.2918,36.0769,安阳市,钢三路198号,,38,29,31,26,16,107,107,123,115,7,5,2,2,0.6,0.5
2026-07-12T0000,1748A,123.0441,41.1201,鞍山市,深沟寺,,15,14,12,10,9,38,38,50,49,3,4,6,6,0.4,0.4
2026-07-12T0000,1749A,123.011,41.0931,鞍山市,太阳城,,19,19,12,11,11,38,38,55,47,2,4,6,6,0.6,0.7
2026-07-12T0000,1750A,123.0483,41.1445,鞍山市,太平,,18,18,18,11,11,36,36,51,45,2,5,6,6,0.5,0.6
2026-07-12T0000,1751A,122.964,41.0968,鞍山市,铁西三道街,,24,24,19,12,10,33,33,57,46,7,6,6,5,0.8,0.8
2026-07-12T0000,1753A,123.0219,41.0822,鞍山市,明达新区,,17,17,17,10,11,40,40,58,49,4,5,2,3,0.4,0.5
2026-07-12T0000,4201A,122.944647,41.082639,鞍山市,兴盛南路290号,,25,25,20,15,12,28,28,50,41,12,9,4,4,1.8,1
2026-07-12T0000,2195A,107.4206,40.7609,巴彦淖尔市,附二中,,45,45,37,21,17,84,84,97,89,6,7,12,12,0.7,0.6
2026-07-12T0000,2196A,107.37,40.7372,巴彦淖尔市,市环保大楼,颗粒物(PM10),58,60,69,22,17,85,85,90,86,5,7,9,10,0.6,0.6
2026-07-12T0000,1956A,86.1476,41.7529,巴音郭楞蒙古自治州,孔雀公园,颗粒物(PM10),118,165,100,54,29,36,36,116,99,60,25,6,6,0.6,0.3
2026-07-12T0000,1957A,86.1971,41.7166,巴音郭楞蒙古自治州,棉纺厂,颗粒物(PM10),87,101,102,36,30,73,73,124,113,30,17,/,/,/,/
2026-07-12T0000,1958A,86.236,41.7172,巴音郭楞蒙古自治州,经济开发区,颗粒物(PM10),74,83,69,28,21,67,67,118,108,23,8,4,4,0.3,0.2
2026-07-12T0000,3181A,106.776805,31.852614,巴中市,市五中,,22,19,20,15,13,40,40,80,56,10,9,8,8,0.7,0.6
2026-07-12T0000,3183A,106.7419,31.8654,巴中市,圣泉水务公司,,22,15,19,15,13,37,37,80,53,9,9,8,9,0.8,0.8
2026-07-12T0000,3616A,106.7617,31.8343,巴中市,市中心医院,,32,32,29,15,14,34,34,82,55,11,10,7,7,0.9,0.8
2026-07-12T0000,2235A,122.7909,45.608,白城市,洮北区环保局,,19,17,18,10,14,59,59,90,78,6,5,5,5,0.3,0.2
2026-07-12T0000,2236A,122.8741,45.5725,白城市,市环保局,,18,NA,13,8,12,55,55,100,84,12,6,2,3,0.3,0.4
2026-07-12T0000,2231A,126.4219,41.9172,白山市,喜丰,,33,33,28,3,8,21,21,33,26,4,9,10,11,0.4,0.5
2026-07-12T0000,2232A,126.4082,41.9416,白山市,环保局,,16,16,13,3,1,18,18,36,27,2,5,11,10,0.4,0.6
2026-07-12T0000,2647A,104.1727,36.5448,白银市,第三小学,,25,NA,12,12,14,77,77,89,72,7,11,2,2,0.1,0.1
2026-07-12T0000,2648A,104.1467,36.5482,白银市,动力公司,,21,NA,9,10,9,66,66,80,72,11,6,3,3,0.5,0.4
2026-07-12T0000,2512A,106.6102,23.901,百色市,市监测站,,18,18,23,6,8,9,9,77,47,25,11,6,11,0.3,0.4
2026-07-12T0000,2513A,106.6524,23.8842,百色市,市中心血站,,43,43,28,16,14,27,27,71,52,25,11,35,28,0.3,0.2
2026-07-12T0000,4133A,106.6273,23.8798,百色市,龙景西路,,42,33,33,29,15,11,11,77,48,28,13,15,16,0.5,0.5
2026-07-12T0000,2270A,117.396,32.9389,蚌埠市,工人疗养院,,26,26,32,11,15,29,29,104,64,6,10,6,5,0.2,0.2
2026-07-12T0000,2271A,117.3606,32.9428,蚌埠市,百货大楼,,28,28,29,13,15,29,29,107,66,10,10,8,9,0.6,0.6
2026-07-12T0000,2273A,117.4183,32.8909,蚌埠市,蚌埠学院,,24,24,26,12,17,21,21,100,55,10,7,5,6,0.2,0.3
2026-07-12T0000,2274A,117.3534,32.9672,蚌埠市,淮上区政府,,22,22,28,10,16,32,32,115,71,2,8,5,5,0.2,0.3
2026-07-12T0000,2275A,117.3143,32.8977,蚌埠市,高新区,,20,19,27,14,16,30,30,100,66,4,7,8,9,0.2,0.4
2026-07-12T0000,3715A,117.3091,32.9314,蚌埠市,蚌埠田家炳中学,,27,27,31,16,17,30,30,107,70,4,5,7,7,0.5,0.5
2026-07-12T0000,1585A,109.8761,40.6533,包头市,市环境监测站,,39,NA,28,27,24,40,40,60,44,24,23,4,6,0.4,0.7
2026-07-12T0000,1587A,109.9992,40.5843,包头市,包头八中,,23,23,33,14,20,51,51,45,NA,15,24,6,7,0.5,0.6
2026-07-12T0000,1589A,109.8641,40.6288,包头市,惠龙物流,,33,33,30,22,24,40,40,62,56,18,17,2,3,0.4,0.6
2026-07-12T0000,1590A,110.0376,40.5546,包头市,东河鸿龙湾,,22,NA,25,15,20,40,40,71,64,10,18,5,6,0.3,0.4
2026-07-12T0000,3283A,109.9154,40.5684,包头市,滨河大厦,,20,14,25,14,24,34,34,63,52,17,20,5,6,0.4,0.5
2026-07-12T0000,3419A,109.9449,40.6259,包头市,包头市委党校,,25,17,21,17,21,57,57,70,62,14,22,7,9,0.2,0.3
2026-07-12T0000,3683A,109.8332,40.6577,包头市,昆区政府,,18,18,30,12,23,52,52,66,62,18,25,3,8,0.6,1
2026-07-12T0000,1931A,107.0802,34.3129,宝鸡市,竹园沟,,15,12,18,7,11,47,47,56,44,7,5,7,7,0.6,0.9
2026-07-12T0000,1933A,107.1429,34.3549,宝鸡市,监测站,,19,19,20,7,9,40,40,62,50,8,6,6,7,0.3,0.3
2026-07-12T0000,1934A,107.1172,34.3759,宝鸡市,技工学校,,19,19,17,9,11,25,25,68,46,7,3,5,5,0.5,0.5
2026-07-12T0000,1936A,107.2025,34.3518,宝鸡市,文理学院,,14,14,21,8,11,42,42,71,58,12,9,7,8,0.5,0.5
2026-07-12T0000,1937A,107.2396,34.3626,宝鸡市,三迪小学,,14,14,19,8,9,38,38,77,60,14,10,7,8,0.4,0.4
2026-07-12T0000,4155A,107.1721,34.3558,宝鸡市,滨河北路,,14,14,16,8,10,36,36,66,52,7,4,6,6,0.5,0.6
2026-07-12T0000,4308A,107.3898,34.3601,宝鸡市,陈仓区北开路21号,,18,18,22,10,11,41,41,75,58,12,8,4,4,0.4,0.4
2026-07-12T0000,1051A,115.4803,38.8568,保定市,游泳馆,,20,20,35,12,24,62,62,120,84,1,2,7,6,0.1,0.3
2026-07-12T0000,1052A,115.509,38.8895,保定市,华电二区,,25,20,37,13,21,77,77,166,132,6,6,3,3,0.6,0.8
2026-07-12T0000,1053A,115.4588,38.9037,保定市,接待中心,,24,24,53,12,24,68,68,116,88,3,4,1,1,0.4,0.6
2026-07-12T0000,1054A,115.4484,38.8344,保定市,地表水厂,,20,14,53,3,21,61,61,132,92,8,5,1,2,0.6,0.7
2026-07-12T0000,3581A,115.3136,38.9511,保定市,满城区生态环境分局,,22,6,28,3,20,69,69,123,104,3,6,3,3,0.1,0.3
2026-07-12T0000,3582A,115.4709,38.7628,保定市,清苑区第二中学,,30,28,63,3,23,95,95,127,94,2,4,6,6,0.3,0.5
2026-07-12T0000,3583A,115.6231,39.0223,保定市,徐水物探局,NA,NA,NA,21,6,21,82,82,110,97,9,10,4,4,0.3,0.5
2026-07-12T0000,4004A,115.4199,38.8665,保定市,双鹰农机,,22,11,31,10,25,69,69,132,99,6,4,2,2,0.0,0.2
2026-07-12T0000,4034A,115.515,38.8589,保定市,植保所站,,25,10,30,3,18,79,79,137,102,5,7,5,3,0,0.2
2026-07-12T0000,2594A,99.1589,25.1137,保山市,市环境监测站,,15,15,10,8,6,26,26,46,36,13,7,6,6,0.2,0.3
2026-07-12T0000,2595A,99.1616,25.1381,保山市,市环保局,,17,17,10,3,13,26,26,46,37,8,3,5,5,0.3,0.2
2026-07-12T0000,1867A,109.1435,21.4085,北海市,海滩公园,,21,10,22,9,7,66,66,82,80,4,2,1,1,0.4,0.4
2026-07-12T0000,1868A,109.0983,21.466,北海市,新市环保局,,22,13,17,3,7,69,69,79,77,7,6,1,2,0.2,0.2
2026-07-12T0000,1869A,109.1775,21.5232,北海市,北海工业园,,24,6,20,3,7,74,74,77,72,4,7,2,2,0.4,0.4
2026-07-12T0000,3400A,109.1844,21.4396,北海市,龙潭自来水厂,,20,13,18,6,8,63,63,73,72,4,3,3,2,0.4,0.4
2026-07-12T0000,1001A,116.3611,39.8786,北京市,万寿西宫,,22,6,27,3,21,70,70,89,79,3,7,2,2,0.4,0.6
2026-07-12T0000,1003A,116.4174,39.9289,北京市,东四,,24,NA,27,3,22,75,75,88,80,4,11,3,3,0.4,0.8
2026-07-12T0000,1004A,116.4073,39.8858,北京市,天坛,,22,6,28,3,19,68,68,73,63,3,8,1,1,0.7,1
2026-07-12T0000,1005A,116.4622,39.9364,北京市,农展馆,,21,6,26,3,20,67,67,79,70,9,14,3,2,0.5,0.7
2026-07-12T0000,1006A,116.3399,39.9293,北京市,官园,,25,6,32,3,22,78,78,93,84,7,13,5,5,0.4,0.7
2026-07-12T0000,1007A,116.2879,39.9613,北京市,海淀万柳,,21,7,29,3,18,65,65,78,73,7,11,4,5,0.5,0.7
2026-07-12T0000,1008A,116.6635,40.1349,北京市,顺义新城,,24,15,20,10,15,74,74,85,84,7,6,1,1,0.5,0.6
2026-07-12T0000,1009A,116.6275,40.327,北京市,怀柔镇,,19,6,26,3,18,60,60,78,74,2,6,3,3,0.5,0.7
2026-07-12T0000,1010A,116.2295,40.217,北京市,昌平镇,,21,7,24,3,15,67,67,88,80,5,8,3,3,0.8,0.9
2026-07-12T0000,1011A,116.3968,39.982,北京市,奥体中心,,22,6,26,3,19,68,68,79,76,10,13,2,2,0.4,0.7
2026-07-12T0000,3418A,116.8336,40.4095,北京市,密云新城,,22,6,21,3,13,69,69,71,63,2,5,3,3,0.4,0.6
2026-07-12T0000,3671A,116.0879,39.9725,北京市,门头沟三家店,,21,6,20,3,16,65,65,81,73,5,7,1,2,0.4,0.6
2026-07-12T0000,3672A,116.1507,39.8246,北京市,丰台云岗,,23,6,29,3,18,72,72,81,61,5,8,2,2,0.6,0.8
2026-07-12T0000,3674A,115.9578,39.7602,北京市,房山燕山,,31,6,27,3,17,98,98,94,90,4,6,1,1,0.3,0.6
2026-07-12T0000,3675A,116.4669,39.7734,北京市,大兴旧宫,,24,NA,19,3,16,76,76,77,66,7,11,1,1,0.6,0.9
2026-07-12T0000,3694A,115.9859,40.4562,北京市,延庆石河营,,18,9,14,3,11,57,57,78,69,4,6,2,2,0.4,0.6
2026-07-12T0000,3695A,116.6151,40.3052,北京市,怀柔新城,,20,6,24,3,16,62,62,68,66,2,4,3,2,0.6,0.8
2026-07-12T0000,3696A,116.2542,39.8764,北京市,丰台小屯,,22,6,30,3,20,68,68,80,75,1,4,1,2,0.7,0.9
2026-07-12T0000,3697A,116.8399,40.3843,北京市,密云镇,,19,9,20,3,16,59,59,64,62,2,7,2,1,0.5,0.6
2026-07-12T0000,4057A,115.9423,40.4431,北京市,延庆百泉,,20,6,13,3,10,63,63,86,78,4,4,1,1,0.5,0.7
2026-07-12T0000,4058A,116.6598,39.9164,北京市,通州新华,,25,NA,25,7,20,80,80,84,84,8,10,3,2,0.6,0.8
2026-07-12T0000,4182A,116.1942,39.9158,北京市,石景山八角,,22,6,27,3,20,70,70,103,88,2,5,3,3,0.5,0.8
2026-07-12T0000,4194A,117.078628,40.151726,北京市,平谷新城,,26,8,16,7,13,83,83,88,88,2,3,1,1,0.5,0.6
2026-07-12T0000,1761A,123.8274146,41.31234549,本溪市,大峪,,17,17,9,11,6,43,43,51,51,2,2,5,5,0.3,0.3
2026-07-12T0000,1763A,123.7169,41.3094,本溪市,彩屯,,30,26,19,21,7,16,16,30,20,21,18,5,5,2.2,2.3
2026-07-12T0000,1764A,123.7672166,41.28649327,本溪市,东明,,15,14,13,10,5,40,40,58,43,3,3,6,6,0.4,0.4
2026-07-12T0000,1765A,123.799345,41.266614,本溪市,新立屯,,18,18,10,12,4,40,40,57,46,3,3,8,8,0.4,0.5
2026-07-12T0000,1766A,123.829144,41.336777,本溪市,威宁,,22,16,11,15,6,66,66,41,41,2,3,8,8,0.3,0.4
2026-07-12T0000,2587A,105.287,27.3133,毕节市,八中,,24,24,21,15,14,46,46,105,86,16,11,7,8,0.6,0.5
2026-07-12T0000,2588A,105.3079,27.2987,毕节市,师专,,28,28,19,11,12,42,42,100,82,18,11,6,7,0.5,0.4
2026-07-12T0000,4263A,105.3688,27.3598,毕节市,工业大道,,32,NA,13,22,9,25,25,102,76,31,11,7,6,/,/
2026-07-12T0000,1629A,117.9961,37.3604,滨州市,第二水厂,,34,34,45,15,33,50,50,155,95,10,8,4,4,0.5,0.7
2026-07-12T0000,1630A,117.9789,37.3931,滨州市,北中新校,,36,36,42,13,25,52,52,162,98,16,14,5,4,0.4,0.6
2026-07-12T0000,3514A,117.9379,37.3959,滨州市,中海酒店,,29,29,36,14,23,57,57,159,106,18,12,12,8,0.3,0.5
2026-07-12T0000,3515A,117.9381509,37.35547456,滨州市,开发区一中,,41,41,49,17,27,46,46,143,91,14,8,10,8,0.7,0.7
2026-07-12T0000,3516A,118.0914,37.6938,滨州市,金海六路,,22,22,49,9,27,47,47,164,97,14,11,6,5,0.1,0.3
2026-07-12T0000,4028A,117.9955,37.3752,滨州市,滨州市西街道办事处,,31,31,39,13,23,45,45,158,93,11,8,3,4,0.3,0.5
2026-07-12T0000,2311A,115.8071,33.8399,亳州市,污水处理厂,,35,35,28,14,13,55,55,146,97,12,11,6,3,0.2,0.3
2026-07-12T0000,2312A,115.7789,33.8519,亳州市,三国揽胜宫,颗粒物(PM10),51,51,32,16,15,57,57,143,100,8,7,4,4,0.2,0.3
2026-07-12T0000,3332A,115.7631,33.803,亳州市,亳州学院,,27,27,17,18,15,58,58,149,102,8,9,4,2,0.3,0.3
2026-07-12T0000,2693A,82.0482,44.8553,博尔塔拉蒙古自治州,市党校,,50,50,45,17,10,90,90,131,126,12,5,3,3,0.1,0.1
2026-07-12T0000,2694A,82.0805,44.8966,博尔塔拉蒙古自治州,市环保局,NA,NA,NA,41,NA,10,NA,NA,131,131,NA,9,NA,3,NA,0.2
2026-07-12T0000,1071A,116.8733,38.2922,沧州市,沧县城建局,,30,30,29,21,26,81,81,125,105,11,8,7,5,0.2,0.4
2026-07-12T0000,1072A,116.8462,38.3189,沧州市,电视转播站,颗粒物(PM10),53,54,42,26,25,78,78,108,96,15,8,3,3,0.2,0.2
2026-07-12T0000,1073A,116.8588,38.3161,沧州市,市环保局,,49,49,46,30,25,75,75,104,93,12,10,3,3,0.2,0.3
2026-07-12T0000,3324A,116.8011,38.294,沧州市,河北水利电力学院,,35,24,28,24,25,95,95,139,121,12,10,1,2,0.1,0.2
2026-07-12T0000,2622A,97.1813,31.1289,昌都市,昌都监测站,,16,9,7,3,3,50,50,69,58,6,7,7,7,0.3,0.4
2026-07-12T0000,3719A,97.1707,31.1428,昌都市,昌都会议中心,,19,18,7,3,3,58,58,80,67,4,4,5,5,0.4,0.5
2026-07-12T0000,2692A,87.2722,44.0298,昌吉回族自治州,新区政务中心,,43,36,41,30,17,62,62,136,120,34,10,10,10,0.4,0.1
2026-07-12T0000,3613A,87.3069,44.0093,昌吉回族自治州,亚心广场,,46,46,53,22,15,72,72,138,123,40,14,8,8,0.5,0.2
2026-07-12T0000,4164A,87.2057,43.9289,昌吉回族自治州,财政所,颗粒物(PM10),71,79,50,23,13,72,72,141,124,12,11,7,7,0.3,0.2
2026-07-12T0000,1120A,125.2874,43.9024,长春市,客车厂,,13,10,12,9,12,29,29,84,32,7,7,4,4,0.5,0.5
2026-07-12T0000,1121A,125.2943,43.8508,长春市,邮电学院,,15,NA,11,10,11,39,39,88,40,6,5,6,6,0.4,0.4
2026-07-12T0000,1122A,125.3648,43.8745,长春市,劳动公园,,10,NA,11,7,10,26,26,76,30,8,7,5,5,0.4,0.4
2026-07-12T0000,1123A,125.3233,43.8781,长春市,园林处,,11,7,12,3,8,33,33,87,39,7,6,4,4,0.5,0.5
2026-07-12T0000,1124A,125.4604,43.7904,长春市,净月潭,,9,7,9,6,8,27,27,68,28,3,4,6,6,0.1,0.2
2026-07-12T0000,1126A,125.38,43.8422,长春市,经开区环卫处,,10,10,12,3,9,27,27,69,25,4,7,3,3,0.4,0.4
2026-07-12T0000,1127A,125.234,43.7761,长春市,高新区管委会,,11,7,11,7,9,35,35,72,34,6,5,4,4,0.3,0.3
2026-07-12T0000,1128A,125.1695,43.83,长春市,岱山公园,,16,NA,12,11,12,28,28,70,26,7,10,1,2,0.4,0.4
2026-07-12T0000,4281A,125.334645,43.916281,长春市,北亚泰大街1068号,,15,NA,12,10,11,18,18,76,26,14,11,2,3,0.6,0.6
2026-07-12T0000,1335A,113.082,28.2421,长沙市,经开区环保局,,32,32,31,21,19,77,77,106,96,15,10,3,5,0.6,0.6
2026-07-12T0000,1336A,112.8873,28.2202,长沙市,高开区环保局,,39,39,31,25,20,71,71,114,95,12,5,3,4,0.7,0.6
2026-07-12T0000,1337A,113.0785,28.2012,长沙市,马坡岭,,39,39,31,22,21,89,89,109,103,15,9,7,7,0.3,0.3
2026-07-12T0000,1338A,112.9448,28.1894,长沙市,湖南师范大学,,32,26,30,22,18,92,92,116,103,7,4,8,8,0.3,0.2
2026-07-12T0000,1339A,113.0177,28.1322,长沙市,雨花区环保局,,38,33,31,26,20,83,83,106,95,14,9,6,6,0.7,0.6
2026-07-12T0000,1340A,112.9795,28.2593,长沙市,伍家岭,,44,44,34,24,21,83,83,109,99,13,9,6,5,0.4,0.3
2026-07-12T0000,1341A,113.002,28.1944,长沙市,火车新站,,35,35,32,22,17,78,78,104,92,16,10,6,6,0.5,0.4
2026-07-12T0000,1342A,112.9846,28.1177,长沙市,天心区环保局,,45,45,67,24,19,102,102,114,105,12,8,4,4,0.1,0
2026-07-12T0000,1343A,112.8906,28.1307,长沙市,湖南中医药大学,,43,32,35,30,21,87,87,117,97,14,14,7,7,0.4,0.4
2026-07-12T0000,1727A,113.1146,36.1547,长治市,清华站,,35,24,20,16,12,112,112,113,113,4,4,7,7,0.5,0.4
2026-07-12T0000,1730A,113.0887,36.2126,长治市,审计局,,36,25,22,12,13,115,115,115,115,2,2,8,8,0.6,0.5
2026-07-12T0000,1731A,113.0845,36.1856,长治市,长治八中,,33,32,27,14,11,103,103,107,107,4,4,10,10,0.6,0.6
2026-07-12T0000,2845A,113.1561,36.1912,长治市,德盛苑,,34,32,22,21,13,107,107,110,110,7,6,9,10,0.7,0.6
2026-07-12T0000,3568A,113.0603,36.0464,长治市,向阳小学,,35,35,28,19,14,100,100,105,104,9,7,5,5,0.3,0.3
2026-07-12T0000,3569A,112.8788,36.315,长治市,屯留一中,,23,19,27,13,16,73,73,103,91,2,4,10,10,1.2,1.4
2026-07-12T0000,4189A,113.113092,36.199482,长治市,英华南巷50号,,37,35,26,19,14,117,117,114,114,3,3,9,9,0.9,0.9
2026-07-12T0000,4190A,113.23666,36.33435,长治市,学府街1号,,35,35,26,13,14,102,102,104,104,7,7,5,6,0.4,0.4
2026-07-12T0000,1854A,111.696,28.9725,常德市,市二中,,29,23,19,20,15,62,62,106,85,12,6,6,6,1.1,1.1
2026-07-12T0000,3138A,111.7152,29.0288,常德市,武陵区永安,,30,30,24,20,16,88,88,106,93,2,5,7,7,0.4,0.5
2026-07-12T0000,3139A,111.6891,28.9881,常德市,鼎城区玉霞,,30,30,22,20,15,34,34,90,73,18,8,7,7,1.0,0.9
2026-07-12T0000,3140A,111.6651,29.0526,常德市,武陵区长庚,,36,36,25,25,18,57,57,110,92,10,7,7,9,0.7,0.6
2026-07-12T0000,1196A,119.9524,31.7586,常州市,市监测站,,34,34,36,11,11,29,29,56,34,2,6,12,13,0.3,0.3
2026-07-12T0000,1200A,119.9351,31.703,常州市,武进监测站,,30,30,30,8,10,28,28,56,34,5,10,25,20,0.4,0.4
2026-07-12T0000,3002A,119.9701,31.813,常州市,行政中心,,32,32,32,13,12,29,29,55,34,5,7,7,6,0.4,0.3
2026-07-12T0000,3003A,120.0434,31.7726,常州市,经开区,,36,36,36,3,10,32,32,54,35,5,9,6,8,0.5,0.6
2026-07-12T0000,3010A,119.8919,31.7892,常州市,钟楼,,31,31,32,12,12,29,29,60,37,6,9,8,7,0.4,0.4
2026-07-12T0000,3429A,119.8595,31.706,常州市,武进经发区,,32,32,36,10,14,28,28,57,32,2,5,4,5,0.6,0.6
2026-07-12T0000,3430A,119.5812,31.7256,常州市,金坛城区,,40,40,35,11,14,27,27,69,37,6,7,6,6,0.4,0.4
2026-07-12T0000,4089A,119.9551,31.863,常州市,崇义南街5-H号,,29,29,31,13,12,24,24,50,29,2,6,6,6,0.8,0.7
2026-07-12T0000,2220A,120.4318,41.588,朝阳市,西梁,,45,45,19,18,9,87,87,71,61,4,7,7,7,0.7,0.7
2026-07-12T0000,2221A,120.452,41.565,朝阳市,河畔小区,,32,32,13,19,11,96,96,82,70,4,6,8,8,0.7,0.7
2026-07-12T0000,2222A,120.4176,41.5648,朝阳市,八里堡,,30,27,15,21,10,88,88,78,59,6,9,5,5,0.6,0.7
2026-07-12T0000,3026A,116.6179,23.6608,潮州市,市政府,NA,NA,43,39,21,24,NA,NA,68,54,24,13,15,10,0.5,0.6
2026-07-12T0000,4036A,116.646,23.676,潮州市,金山,,46,NA,31,32,22,32,32,58,45,10,7,2,2,0.6,0.4
2026-07-12T0000,2473A,113.0116,25.8228,郴州市,市职中,,49,49,26,33,18,23,23,90,51,19,11,7,7,0.6,0.6
2026-07-12T0000,2475A,113.0381,25.8074,郴州市,市审计局,细颗粒物(PM2.5),58,42,28,39,19,33,33,93,65,16,7,4,7,/,/
2026-07-12T0000,2476A,113.0348,25.7757,郴州市,市环保局,细颗粒物(PM2.5),68,NA,20,44,21,23,23,87,59,25,14,8,8,0.6,0.5
2026-07-12T0000,4252A,113.0138,25.8011,郴州市,好美居路49号,,33,33,25,16,13,54,54,91,62,11,12,6,8,/,/
2026-07-12T0000,1431A,103.9727,30.7242,成都市,金泉两河,,23,23,16,16,10,73,73,118,100,9,8,2,2,0.2,0.2
2026-07-12T0000,1432A,104.1423,30.6765,成都市,十里店,,23,22,26,14,11,72,72,140,112,8,9,5,5,0.5,0.6
2026-07-12T0000,1433A,104.0594,30.5765,成都市,三瓦窑,,29,25,23,20,14,75,75,128,111,16,10,4,5,0.5,0.5
2026-07-12T0000,1434A,104.1122,30.6306,成都市,沙河铺,,23,21,25,16,15,66,66,129,98,10,12,4,4,0.4,0.5
2026-07-12T0000,2880A,104.0219,30.6561,成都市,大石西路,,25,22,23,17,12,76,76,112,101,10,11,3,4,0.6,0.6
2026-07-12T0000,3136A,104.2724,30.559,成都市,龙泉驿区区政府,,28,NA,16,19,15,70,70,140,101,12,9,7,7,0.5,0.5
2026-07-12T0000,3357A,104.0028,30.6891,成都市,金博路,,25,22,11,12,9,80,80,119,104,8,11,7,7,0.6,0.6
2026-07-12T0000,3359A,104.056,30.5228,成都市,华阳,,30,NA,18,21,17,91,91,130,119,16,12,1,1,0.7,0.7
2026-07-12T0000,3488A,104.387954,30.746684,成都市,青白江技师分院,,30,26,24,21,16,56,56,150,101,14,11,4,6,0.6,0.6
2026-07-12T0000,3489A,104.0788,30.4054,成都市,科学城,,28,21,14,12,8,88,88,132,104,10,8,4,5,0.6,0.6
2026-07-12T0000,4011A,103.8505,30.6946,成都市,光华大道三段,,28,22,17,15,8,87,87,122,110,9,7,4,3,0.4,0.5
2026-07-12T0000,4144A,104.3257,30.6406,成都市,八角井街185号,,23,18,28,16,13,54,54,151,105,17,11,5,5,0.5,0.5
2026-07-12T0000,4224A,104.2433276,30.53529463,成都市,鲸龙路1057号,,26,24,21,18,12,75,75,145,115,15,13,7,7,0.7,0.7
2026-07-12T0000,1062A,117.9531,40.908,承德市,铁路,,25,25,15,3,7,28,28,64,36,19,19,3,4,0.4,0.4
2026-07-12T0000,1063A,117.9397,40.9763,承德市,中国银行,,10,7,13,3,6,32,32,72,40,9,11,1,2,0.6,0.5
2026-07-12T0000,4073A,117.9462,40.95,承德市,杏林街1号,,13,13,15,6,10,32,32,73,42,7,8,3,3,0.5,0.6
2026-07-12T0000,4274A,117.7994,40.9605,承德市,滨河大街98号,,13,13,14,3,4,36,36,69,57,5,6,3,4,0.3,0.4
2026-07-12T0000,2314A,117.4698,30.6617,池州市,池州学院,,25,25,26,10,16,34,34,77,64,11,12,5,5,0.6,0.7
2026-07-12T0000,3237A,117.4918,30.6617,池州市,展览馆,,31,31,32,14,17,36,36,84,69,8,7,7,4,0.6,0.6
2026-07-12T0000,3333A,117.5626,30.695,池州市,第八中学,,35,35,32,15,17,32,32,72,64,7,8,6,4,0.4,0.4
2026-07-12T0000,3334A,117.5037,30.6242,池州市,第十二中学,,28,28,31,12,16,34,34,73,61,7,9,5,4,0.5,0.6
2026-07-12T0000,1744A,118.9229,42.2816,赤峰市,松山一中,,28,19,15,9,13,87,87,104,88,6,10,6,6,0.6,0.6
2026-07-12T0000,1745A,118.9588,42.2733,赤峰市,哈达街,,23,18,20,8,11,71,71,86,71,7,12,11,11,0.6,0.6
2026-07-12T0000,1746A,118.8792,42.2551,赤峰市,天义路,,20,11,13,3,9,63,63,84,70,13,12,6,7,0.5,0.5
2026-07-12T0000,3058A,119.2656,42.0356,赤峰市,银河街,,20,NA,23,12,17,61,61,86,76,9,13,8,10,0.7,0.9
2026-07-12T0000,3286A,118.9359,42.3146,赤峰市,桥北物流园区,,21,17,12,8,10,67,67,93,64,7,12,4,4,0.4,0.5
2026-07-12T0000,2521A,107.3473,22.4137,崇左市,市环保局江州分局,,30,30,21,8,7,24,24,85,62,13,8,2,4,0.6,0.6
2026-07-12T0000,4256A,107.375,22.3736,崇左市,石景林东路7号,,15,12,21,10,10,35,35,95,66,9,9,3,4,0.5,0.5
2026-07-12T0000,3207A,118.31131,32.3033,滁州市,市政府原办公楼,,35,NA,29,24,24,30,30,99,51,2,7,6,10,0.3,0.4
2026-07-12T0000,3331A,118.3268,32.2633,滁州市,图书馆,,26,25,30,18,15,30,30,96,53,1,3,7,7,0.1,0.1
2026-07-12T0000,4101A,118.3196,32.3335,滁州市,银山路666号,,29,24,38,20,18,32,32,106,57,3,7,4,5,0.2,0.3
2026-07-12T0000,4102A,118.3426,32.2979,滁州市,黄山路555号,,30,30,33,18,21,30,30,98,52,3,6,7,7,0.2,0.3
2026-07-12T0000,2606A,101.5379,25.0492,楚雄彝族自治州,市经济开发区,,28,28,11,8,4,28,28,39,36,7,6,2,2,0.7,0.6
2026-07-12T0000,4153A,101.5536,25.0343,楚雄彝族自治州,团结路562号,,13,11,8,9,6,33,33,42,40,6,4,2,2,0.5,0.4
2026-07-12T0000,2549A,107.5087,31.2186,达州市,市环境监测站,,32,32,25,8,9,22,22,78,55,29,22,6,6,0.6,0.6
2026-07-12T0000,2550A,107.4988,31.2132,达州市,凤凰小区,,36,36,28,12,7,16,16,74,55,29,17,4,4,0.4,0.3
2026-07-12T0000,2551A,107.5081,31.1987,达州市,达县机关宾馆,,34,34,34,18,9,8,8,87,50,47,25,4,6,0.3,0.3
2026-07-12T0000,2552A,107.4644,31.2124,达州市,市政中心,,28,28,31,11,8,18,18,91,62,40,21,5,6,0.4,0.4
2026-07-12T0000,2614A,100.2168,25.5818,大理白族自治州,大理市环境监测站,,13,12,6,8,4,41,41,49,47,9,8,4,5,0.5,0.3
2026-07-12T0000,2615A,100.1542,25.7055,大理白族自治州,大理古城,,11,11,14,3,5,32,32,54,43,8,8,6,6,0.5,0.4
2026-07-12T0000,1109A,121.6119,38.974,大连市,甘井子,,23,23,21,13,10,34,34,60,41,4,7,7,7,0.5,0.5
2026-07-12T0000,1110A,121.565,38.9509,大连市,周水子,,21,21,19,12,10,32,32,58,41,9,11,7,6,0.8,0.7
2026-07-12T0000,1111A,121.5637,38.8849,大连市,星海三站,,24,24,22,13,9,29,29,57,39,3,3,6,6,0.8,0.8
2026-07-12T0000,1112A,121.6301,38.9117,大连市,青泥洼桥,,24,24,19,13,10,33,33,58,41,2,4,7,7,0.8,0.8
2026-07-12T0000,1113A,121.6248,38.8643,大连市,傅家庄,,30,30,22,11,10,28,28,54,38,2,4,5,5,0.5,0.5
2026-07-12T0000,1114A,121.5117,38.8636,大连市,七贤岭,,22,22,18,8,8,32,32,56,39,4,6,6,3,0.6,0.6
2026-07-12T0000,1116A,121.7507,39.1339,大连市,金州,,16,16,15,11,9,24,24,51,36,6,5,8,8,0.4,0.4
2026-07-12T0000,1117A,121.7811,39.0495,大连市,开发区,,30,30,24,13,9,25,25,55,39,10,8,6,7,0.4,0.4
2026-07-12T0000,1118A,121.9762,39.0631,大连市,双D港,细颗粒物(PM2.5),80,NA,25,50,9,24,24,48,36,4,4,6,6,0.4,0.4
2026-07-12T0000,4082A,121.2548,38.8188,大连市,旅顺,,43,43,21,16,9,23,23,54,34,12,11,5,6,0.3,0.3
2026-07-12T0000,1789A,124.8085,46.0381,大庆市,大同区,,19,NA,28,7,14,59,59,107,91,23,9,6,5,0.6,0.6
2026-07-12T0000,1790A,125.1166,46.5255,大庆市,龙凤区,,22,22,30,9,18,64,64,88,79,6,8,21,4,0.1,0.2
2026-07-12T0000,1791A,124.8894,46.4007,大庆市,红岗区,,20,14,25,3,16,61,61,88,78,5,5,8,8,0.6,0.6
2026-07-12T0000,1792A,125.1391,46.578,大庆市,萨尔图区,,23,23,35,8,22,70,70,87,80,6,7,9,6,0.1,0.2
2026-07-12T0000,1793A,124.9026,46.6217,大庆市,让胡路区,,22,15,33,15,23,64,64,81,75,7,7,4,4,0.5,0.7
2026-07-12T0000,3481A,125.127,46.6277,大庆市,萨区政府监测点,,25,NA,21,14,24,79,79,100,92,1,2,6,6,0.3,0.4
2026-07-12T0000,1723A,113.2926,40.0759,大同市,云冈宾馆,,29,29,23,9,13,54,54,90,72,14,10,7,6,0.5,0.5
2026-07-12T0000,1724A,113.3437,40.0921,大同市,大同大学,,45,NA,23,31,26,48,48,76,64,19,14,6,5,0.8,0.8
2026-07-12T0000,1725A,113.2637,40.129,大同市,安家小村,,26,26,24,13,17,43,43,93,71,21,11,7,7,0.5,0.4
2026-07-12T0000,3282A,113.3399,40.0586,大同市,大同市卫生学校,细颗粒物(PM2.5),52,NA,25,36,27,54,54,57,NA,15,14,4,5,1.9,1.3
2026-07-12T0000,3565A,113.1371,40.1122,大同市,云冈站,,18,13,19,12,16,39,39,76,54,15,13,5,5,0.7,0.8
2026-07-12T0000,3566A,113.1186,40.2556,大同市,图书馆,,17,13,29,3,16,52,52,88,69,13,11,6,6,0.6,0.8
2026-07-12T0000,3567A,113.5931,40.0459,大同市,区一中,,20,14,18,9,14,63,63,86,67,15,13,10,8,0.7,0.6
2026-07-12T0000,4199A,113.2798248,40.09972476,大同市,魏都大道141号,,33,27,27,23,18,45,45,81,64,16,13,5,4,0.7,0.7
2026-07-12T0000,2269A,124.1068,50.4091,大兴安岭地区,科技局,,25,24,23,17,14,18,18,72,42,18,5,5,5,0.2,0.2
2026-07-12T0000,3663A,124.117,50.4279,大兴安岭地区,红旗社区,,11,NA,10,6,11,33,33,78,48,2,6,5,5,0.2,0.3
2026-07-12T0000,1600A,124.33,40.0625,丹东市,江湾东路,,18,18,12,9,8,56,56,53,53,4,4,3,1,0.4,0.4
2026-07-12T0000,1601A,124.4242,40.1513,丹东市,临江后街,,18,18,13,12,7,49,49,45,45,1,2,6,4,0.5,0.4
2026-07-12T0000,1602A,124.3935,40.1461,丹东市,元宝山,,22,22,13,10,8,43,43,41,41,5,5,4,3,0.5,0.5
2026-07-12T0000,1603A,124.3634,40.1093,丹东市,民主桥,,19,19,11,10,6,47,47,44,44,1,2,7,5,0.4,0.4
2026-07-12T0000,3541A,109.5726195,19.51688767,儋州市,第一中学子站,,15,10,12,3,5,46,46,60,55,3,3,1,2,0.5,0.5
2026-07-12T0000,3542A,109.5567,19.5187,儋州市,东坡学校子站,,15,8,17,3,5,47,47,62,58,2,3,3,2,0.4,0.4
2026-07-12T0000,2616A,98.5611,24.4273,德宏傣族景颇族自治州,德宏州监测站,,20,14,11,14,12,16,16,43,28,8,7,6,6,0.6,0.6
2026-07-12T0000,3677A,98.5887,24.4366,德宏傣族景颇族自治州,芒市人民政府综合楼,,38,38,32,8,7,12,12,35,22,7,7,5,5,0.7,0.6
2026-07-12T0000,1901A,104.424,31.1209,德阳市,东山公园,,23,NA,18,11,18,72,72,106,84,5,9,4,5,0.7,0.7
2026-07-12T0000,1902A,104.3827,31.1318,德阳市,西小区,,20,12,28,11,19,64,64,85,73,8,10,9,10,0.9,1
2026-07-12T0000,1904A,104.3553,31.1091,德阳市,耐火材料厂,,26,15,26,9,19,82,82,118,98,3,7,3,7,0.4,0.5
2026-07-12T0000,4145A,104.4144,31.1495,德阳市,市林业局,,25,24,23,13,19,77,77,122,99,9,10,11,13,0.7,0.8
2026-07-12T0000,1622A,116.3034,37.4675,德州市,儿童乐园,,37,34,40,17,21,116,116,166,155,12,7,12,11,0.8,0.8
2026-07-12T0000,1624A,116.2992,37.4449,德州市,监理站,,39,39,38,18,20,111,111,163,151,12,7,14,14,0.5,0.4
2026-07-12T0000,3066A,116.2722,37.438,德州市,九衢泉纯净水厂,,39,39,38,18,21,113,113,159,147,18,14,16,9,0.6,0.8
2026-07-12T0000,3371A,116.3693,37.44,德州市,开发区人民医院,,30,29,36,12,21,96,96,152,138,19,12,7,7,0.5,0.6
2026-07-12T0000,3511A,116.5687,37.3331,德州市,陵城艺术中心,,34,29,36,10,19,108,108,152,136,11,10,11,8,0.2,0.4
2026-07-12T0000,4292A,116.352738,37.420875,德州市,新河东路,,33,22,31,11,17,105,105,156,145,17,13,10,10,0.5,0.7
2026-07-12T0000,2621A,99.7054,27.8319,迪庆藏族自治州,迪庆州站,,26,NA,16,18,7,17,17,38,25,6,8,9,9,0.9,0.7
2026-07-12T0000,3180A,99.7122,27.8129,迪庆藏族自治州,质量技术监督局,,11,11,14,6,4,27,27,42,30,10,9,7,7,0.3,0.3
2026-07-12T0000,4257A,104.6092,35.5962,定西市,将台街,,27,22,22,3,7,86,86,93,91,8,7,5,5,0.1,0
2026-07-12T0000,4309A,104.6159,35.5701,定西市,正龙路62号,,30,27,26,3,7,95,95,88,88,4,7,5,5,0.3,0.2
2026-07-12T0000,4071A,114.9883,38.5232,定州市,交通局,,42,42,55,8,23,74,74,132,102,12,10,6,5,0.5,0.5
2026-07-12T0000,4072A,115.0045,38.5136,定州市,第五中学,,30,30,41,12,22,69,69,129,99,12,10,3,3,0.4,0.5
2026-07-12T0000,1390A,113.7943,23.0132,东莞市,东城石井,,43,43,32,21,15,92,92,186,151,17,14,4,6,0.6,0.5
2026-07-12T0000,1391A,113.7384,22.9659,东莞市,南城西平,,43,43,31,24,17,73,73,210,162,27,20,7,8,0.9,0.8
2026-07-12T0000,3319A,113.7283,23.041,东莞市,万江金泰,,38,38,34,25,19,87,87,170,140,28,24,9,14,0.9,0.8
2026-07-12T0000,4129A,113.8666,23.1062,东莞市,裕兴路,,42,42,31,25,14,119,119,142,132,31,21,6,6,0.8,0.7
2026-07-12T0000,4130A,114.0076,22.9739,东莞市,教育路1号,,39,39,33,24,18,85,85,171,139,22,26,6,7,0.8,0.8
2026-07-12T0000,4131A,113.7981,22.8124,东莞市,长怡路1号,,30,30,36,12,17,56,56,226,161,14,16,4,5,0.7,0.7
2026-07-12T0000,1666A,118.6612,37.4313,东营市,市环保局,,19,19,34,6,18,22,22,140,71,9,10,12,10,0.3,0.5
2026-07-12T0000,3036A,118.6903,37.4337,东营市,开发区管委会,,30,30,38,7,13,26,26,144,74,10,11,8,9,0.5,0.6
2026-07-12T0000,3365A,118.5721,37.5654,东营市,垦利区民丰路,,22,22,41,7,21,32,32,150,85,9,9,4,4,0.2,0.4
2026-07-12T0000,3498A,118.5063,37.8606,东营市,河口城区,,27,27,39,3,18,38,38,152,86,18,13,8,7,0.7,0.8
2026-07-12T0000,3646A,118.4979,37.4623,东营市,胜利站,,18,18,41,3,17,34,34,165,93,10,11,4,4,0.7,0.8
2026-07-12T0000,3734A,118.5753,37.4405,东营市,理想之城,,27,27,32,8,15,21,21,162,55,17,21,4,12,0.5,0.6
2026-07-12T0000,1591A,110.0024,39.8127,鄂尔多斯市,综合楼,,30,NA,14,21,13,62,62,90,71,13,12,2,2,0.9,0.8
2026-07-12T0000,1592A,109.9485,39.8259,鄂尔多斯市,巴音孟克林场办事处,,28,27,16,19,12,81,81,84,78,8,12,4,4,0.1,0.1
2026-07-12T0000,1593A,109.7734,39.5987,鄂尔多斯市,康泽苑,,23,NA,18,16,15,72,72,82,77,8,7,10,11,0.3,0.3
2026-07-12T0000,1594A,109.8121,39.5987,鄂尔多斯市,华泰汽车城,,24,24,20,16,15,54,54,66,58,9,8,9,9,0.7,0.7
2026-07-12T0000,1595A,109.9734,39.7884,鄂尔多斯市,奥林花园,,25,NA,20,17,12,43,43,83,54,15,12,4,4,0.5,0.5
2026-07-12T0000,2436A,114.894,30.3989,鄂州市,市政府,,23,18,36,8,15,71,71,113,86,4,12,1,2,0.3,0.4
2026-07-12T0000,2437A,114.8986,30.3714,鄂州市,赵家坝,,27,27,27,15,14,72,72,121,96,2,8,5,6,0.4,0.5
2026-07-12T0000,3654A,114.8093,30.4091,鄂州市,精准医疗中心,,22,17,30,9,15,70,70,118,86,7,19,4,8,0.3,0.6
2026-07-12T0000,2454A,109.4978,30.2979,恩施土家族苗族自治州,湖北民院,,28,28,19,8,9,44,44,88,69,5,4,5,5,0.5,0.5
2026-07-12T0000,3549A,109.5061,30.3771,恩施土家族苗族自治州,龙凤新区,,21,21,14,9,11,36,36,89,62,6,6,6,6,0.4,0.4
2026-07-12T0000,2499A,108.3411,21.6159,防城港市,沙万,,28,28,28,11,8,30,30,64,59,32,13,2,4,0.6,0.6
2026-07-12T0000,2500A,108.3515,21.7733,防城港市,防城档案局,,33,NA,25,23,13,36,36,70,56,6,8,6,6,0.6,0.6
2026-07-12T0000,2501A,108.3506,21.6414,防城港市,大海花园,,39,39,22,10,11,56,56,80,74,12,11,6,8,0.5,0.6
2026-07-12T0000,1371A,113.1293,23.0065,佛山市,湾梁,,36,36,28,21,17,62,62,176,128,22,18,/,/,/,/
2026-07-12T0000,1372A,113.1082,23.0477,佛山市,华材职中,,29,29,29,20,20,62,62,159,116,15,14,7,9,0.4,0.4
2026-07-12T0000,1373A,113.1439,23.045,佛山市,南海气象局,,34,34,32,19,18,75,75,168,129,19,17,/,/,/,/
2026-07-12T0000,1374A,113.2879,22.8094,佛山市,顺德苏岗,,33,NA,31,23,18,44,44,197,148,22,18,/,/,0.8,0.8
2026-07-12T0000,1376A,112.8384,22.8678,佛山市,高明孔堂,,40,40,22,20,14,62,62,132,110,6,7,/,/,/,/
2026-07-12T0000,1377A,112.8835,23.1584,佛山市,三水监测站,颗粒物(PM10),51,51,31,31,21,52,52,130,105,32,18,7,6,0.8,0.7
2026-07-12T0000,1378A,112.8668,23.185,佛山市,三水云东海,颗粒物(PM10),53,53,35,34,20,49,49,125,79,28,19,/,/,/,/
2026-07-12T0000,3625A,113.2568,22.7629,佛山市,容桂街道办,,36,NA,24,25,17,39,39,201,144,26,18,/,/,/,/
2026-07-12T0000,1282A,119.2681,26.0506,福州市,师大,,22,22,22,3,4,43,43,51,49,2,4,4,4,0.4,0.4
2026-07-12T0000,1283A,119.2983,26.1028,福州市,五四北路,,30,30,18,3,4,43,43,50,49,6,8,4,4,0.3,0.3
2026-07-12T0000,1284A,119.2648,26.0769,福州市,杨桥西路,,21,21,18,3,3,37,37,49,46,6,6,4,4,/,/
2026-07-12T0000,3048A,119.5799,26.0937,福州市,九龙,,29,29,14,3,1,38,38,46,46,6,5,6,6,0.2,0.2
2026-07-12T0000,3526A,119.5188,25.9666,福州市,吴航,,14,14,16,7,8,41,41,50,45,5,6,6,6,0.5,0.5
2026-07-12T0000,4104A,119.3106,26.0648,福州市,路通桥巷6号,,15,13,16,10,10,38,38,48,43,2,4,/,/,/,/
2026-07-12T0000,1755A,123.7974,41.8494,抚顺市,望花区,,19,18,14,13,11,25,25,53,22,16,14,11,7,0.4,0.6
2026-07-12T0000,1756A,123.9161,41.8827,抚顺市,顺城区,,13,13,9,6,5,34,34,60,27,6,10,8,8,0.5,0.6
2026-07-12T0000,1757A,124.0437,41.8615,抚顺市,东洲区,,12,12,11,7,4,33,33,61,30,8,8,10,8,0.2,0.3
2026-07-12T0000,1758A,123.9246,41.8638,抚顺市,新抚区,,15,15,13,9,7,19,19,55,21,4,6,5,5,0.7,0.7
2026-07-12T0000,1759A,124.0972,41.8961,抚顺市,大伙房水库,,12,10,9,3,4,37,37,62,33,6,8,10,10,0.1,0.2
2026-07-12T0000,1760A,123.708,41.8386,抚顺市,沈抚新城,,14,14,17,9,6,31,31,46,22,8,13,6,7,0.7,1
2026-07-12T0000,2377A,116.3544,27.9833,抚州市,市站,,33,33,40,10,21,64,64,88,68,1,6,2,16,0.8,0.8
2026-07-12T0000,2378A,116.3562,27.9631,抚州市,血防站,,36,36,41,15,19,66,66,89,72,4,9,6,10,0.7,0.7
2026-07-12T0000,2379A,116.3561,28.0007,抚州市,采茶剧团,,37,37,43,7,20,72,72,99,77,7,12,10,15,0.6,0.6
2026-07-12T0000,2380A,116.3854,27.9648,抚州市,医学分院,,31,31,43,3,15,76,76,102,82,3,7,4,7,0.8,0.7
2026-07-12T0000,2207A,121.6095,41.9978,阜新市,工业园区,,29,28,20,20,11,55,55,80,64,10,9,10,5,0.3,0.2
2026-07-12T0000,2208A,121.6567,42.0188,阜新市,长青街,,25,25,17,3,8,60,60,74,66,7,8,8,6,0.3,0.4
2026-07-12T0000,2209A,121.6672,42.07,阜新市,农业园区,,20,14,32,6,10,62,62,85,68,6,6,3,3,0.5,0.6
2026-07-12T0000,2211A,121.6343,42.0455,阜新市,玉龙新城,,23,18,21,16,11,51,51,62,55,10,9,1,2,0.6,0.5
2026-07-12T0000,2301A,115.8276,32.8929,阜阳市,市监测站,,21,21,31,14,18,56,56,126,96,13,13,6,6,0.3,0.4
2026-07-12T0000,2303A,115.8551,32.8606,阜阳市,开发区,,24,24,39,13,17,52,52,122,92,12,12,4,4,0.4,0.5
2026-07-12T0000,2875A,115.783962,32.889217,阜阳市,阜阳职业技术学院,,32,32,39,19,17,62,62,138,105,7,6,3,3,0.3,0.4
2026-07-12T0000,3468A,115.79,32.8614,阜阳市,市规划展馆,,34,34,34,18,21,62,62,133,104,10,10,1,1,0.4,0.5
2026-07-12T0000,3469A,115.835101,32.918568,阜阳市,枣园社区,,28,28,32,12,16,49,49,115,87,11,9,1,3,0.4,0.5
2026-07-12T0000,2669A,102.9097,34.9841,甘南藏族自治州,州政府,,25,11,12,3,4,78,78,84,81,10,6,4,4,0.2,0.2
2026-07-12T0000,3380A,102.8915,34.9618,甘南藏族自治州,甘肃民族师范学院,,26,12,8,3,6,81,81,87,85,6,4,4,4,0.3,0.3
2026-07-12T0000,2570A,101.96,30.048,甘孜藏族自治州,水桥子,,19,6,8,3,6,59,59,76,68,12,15,3,3,0.3,0.4
2026-07-12T0000,3065A,101.9534,29.9976,甘孜藏族自治州,州环保局,,20,NA,8,14,6,33,33,78,56,28,18,2,3,0.1,0.2
2026-07-12T0000,2363A,114.9368,25.8663,赣州市,地委,颗粒物(PM10),54,55,44,33,23,90,90,107,103,7,8,3,4,1.4,1.1
2026-07-12T0000,2364A,114.946,25.8483,赣州市,气象台,,49,48,35,34,25,86,86,100,98,10,10,4,5,0.8,0.7
2026-07-12T0000,2365A,114.932,25.8332,赣州市,市图书馆,,44,44,35,30,22,82,82,114,110,12,10,3,3,1.2,0.9
2026-07-12T0000,2366A,114.8905,25.8472,赣州市,华坚鞋城,细颗粒物(PM2.5),58,50,41,39,23,66,66,103,95,19,14,2,2,1.1,1.1
2026-07-12T0000,3109A,115.0094,25.8614,赣州市,赣县区卫计委,细颗粒物(PM2.5),60,50,32,40,21,75,75,105,97,14,14,1,2,0.6,0.5
2026-07-12T0000,2684A,106.2753,36.0057,固原市,监测站,,31,NA,8,11,6,98,98,100,100,6,5,4,5,0.2,0.2
2026-07-12T0000,2685A,106.2384,36.0189,固原市,新区,,29,7,7,3,6,90,90,97,96,6,4,6,6,0.4,0.4
2026-07-12T0000,2544A,106.6307,30.4577,广安市,市委,,48,36,19,33,16,47,47,97,79,17,10,10,10,0.5,0.4
2026-07-12T0000,2545A,106.6266,30.4662,广安市,友谊中学,,45,NA,16,31,13,50,50,101,80,14,11,11,11,0.6,0.5
2026-07-12T0000,2547A,106.6386,30.4551,广安市,广电花园,,38,NA,18,26,15,49,49,100,84,16,10,9,9,0.6,0.5
2026-07-12T0000,2902A,106.6347,30.4868,广安市,北辰小学,,35,26,20,24,13,66,66,108,94,15,10,8,9,0.5,0.4
2026-07-12T0000,2524A,105.8211,32.4444,广元市,老城,,21,10,21,3,10,66,66,79,66,2,12,6,9,0.3,0.6
2026-07-12T0000,2526A,105.8629,32.429,广元市,监测站,,23,14,33,3,11,73,73,93,78,4,12,2,6,0.3,0.5
2026-07-12T0000,3617A,105.8047,32.4167,广元市,经开区,,22,9,28,3,16,68,68,84,68,6,16,5,6,0.5,0.7
2026-07-12T0000,1345A,113.2346,23.1423,广州市,广雅中学,,36,36,34,21,18,68,68,163,121,32,23,6,6,0.6,0.6
2026-07-12T0000,1346A,113.2611,23.105,广州市,市五中,,43,43,31,24,19,77,77,205,159,34,19,4,5,/,/
2026-07-12T0000,1348A,113.3477,23.0916,广州市,广东商学院,,47,47,34,28,18,64,64,180,143,36,19,6,6,0.6,0.5
2026-07-12T0000,1349A,113.4332,23.105,广州市,市八十六中,,38,35,29,26,19,79,79,193,146,45,36,7,7,/,/
2026-07-12T0000,1350A,113.3506,22.9488,广州市,番禺中学,,28,24,30,19,18,58,58,187,154,20,17,7,7,0.5,0.5
2026-07-12T0000,1351A,113.2147,23.3918,广州市,花都师范,颗粒物(PM10),53,53,36,27,23,83,83,154,128,34,23,7,4,0.6,0.6
2026-07-12T0000,1352A,113.2599,23.1329,广州市,市监测站,,40,40,32,23,17,78,78,184,139,25,18,3,3,/,/
2026-07-12T0000,1353A,113.5618,23.3119,广州市,九龙镇镇龙,,42,42,35,25,20,11,11,129,70,33,25,6,7,0.8,0.7
2026-07-12T0000,1354A,113.2764,23.1544,广州市,麓湖,,39,39,31,23,17,55,55,177,112,41,24,7,7,0.7,0.6
2026-07-12T0000,2846A,113.3209,23.1323,广州市,体育西,,36,36,32,22,18,83,83,187,150,33,24,6,7,0.5,0.5
2026-07-12T0000,3298A,113.5718,23.5493,广州市,从化街口,,32,32,35,18,23,28,28,126,68,23,18,8,8,0.6,0.6
2026-07-12T0000,3299A,113.3463,23.369,广州市,白云竹料,,45,45,44,27,25,34,34,160,84,54,29,4,3,0.9,0.7
2026-07-12T0000,3300A,113.2981,23.2365,广州市,白云嘉禾,,42,42,42,25,20,62,62,180,116,47,30,9,8,/,/
2026-07-12T0000,3301A,113.4256,23.1716,广州市,黄埔科学城,细颗粒物(PM2.5),52,51,36,36,23,48,48,193,127,31,18,7,8,0.6,0.4
2026-07-12T0000,3302A,113.3942,23.0485,广州市,番禺大学城,,31,31,30,20,15,88,88,207,178,24,21,2,2,0.5,0.5
2026-07-12T0000,3303A,113.4923,22.8169,广州市,南沙黄阁,,30,30,33,9,22,54,54,198,147,20,22,8,7,/,/
2026-07-12T0000,3304A,113.534,22.7893,广州市,南沙街,,24,24,29,16,18,56,56,189,142,16,17,8,8,0.7,0.6
2026-07-12T0000,3443A,113.2905,23.5541,广州市,花都梯面,,20,20,23,14,18,8,8,NA,NA,37,29,3,3,/,/
2026-07-12T0000,3445A,113.786,23.7479,广州市,从化良口,,26,21,25,18,17,56,56,103,70,10,8,5,5,/,/
2026-07-12T0000,3446A,113.805,23.2614,广州市,增城荔城,,26,26,27,14,16,26,26,119,68,29,20,8,9,0.8,0.7
2026-07-12T0000,2506A,109.604387,23.066791,贵港市,江南子站,NA,NA,NA,NA,NA,NA,NA,NA,NA,NA,NA,NA,NA,NA,NA,NA
2026-07-12T0000,2508A,109.5669,23.1065,贵港市,荷城子站,NA,NA,NA,NA,NA,NA,NA,NA,NA,NA,NA,NA,NA,NA,NA,NA
2026-07-12T0000,3405A,109.5886,23.1172,贵港市,新世纪学校,NA,NA,NA,NA,NA,NA,NA,NA,NA,NA,NA,NA,NA,NA,NA,NA
2026-07-12T0000,4260A,109.5933,23.095,贵港市,中山路155-3号,,33,33,23,20,9,26,26,70,50,26,15,/,/,0.6,0.5
2026-07-12T0000,1439A,106.6863,26.6035,贵阳市,马鞍山,,9,9,7,6,5,25,25,65,46,10,6,3,4,/,/
2026-07-12T0000,1441A,106.6241,26.6266,贵阳市,鉴湖路,,24,24,23,3,4,33,33,69,52,16,10,6,7,0.6,0.4
2026-07-12T0000,1442A,106.7468,26.6344,贵阳市,燕子冲,,17,17,16,3,4,34,34,59,48,11,8,8,9,0.4,0.4
2026-07-12T0000,1443A,106.6556,26.4362,贵阳市,碧云窝,,34,34,24,12,6,18,18,63,45,11,5,7,8,/,/
2026-07-12T0000,1445A,106.6963,26.6063,贵阳市,红边门,,19,19,13,3,6,36,36,65,49,12,8,3,11,/,/
2026-07-12T0000,1446A,106.7162383,26.56964667,贵阳市,新华路,,29,29,21,7,4,37,37,72,46,15,10,10,35,0.5,0.3
2026-07-12T0000,1447A,106.6742,26.542,贵阳市,太慈桥,,17,17,14,9,5,11,11,59,33,16,8,5,6,/,/
2026-07-12T0000,4230A,106.688212,26.56952,贵阳市,花果园大街66号,,42,42,14,12,6,35,35,60,48,20,9,2,2,/,/
2026-07-12T0000,4231A,106.687268,26.516892,贵阳市,漓江路57号,,19,19,12,11,5,15,15,56,40,26,9,1,2,0.6,0.5
2026-07-12T0000,1864A,110.3091,25.2705,桂林市,龙隐路小学,,36,34,29,25,14,23,23,85,49,9,7,11,8,0.6,0.6
2026-07-12T0000,1865A,110.2849361,25.22909545,桂林市,八中,,40,40,25,17,10,18,18,76,47,20,10,4,6,0.8,0.8
2026-07-12T0000,3531A,110.296,25.1254,桂林市,旅游学院,,41,41,26,21,12,19,19,75,41,12,5,7,5,0.4,0.4
2026-07-12T0000,4222A,110.1835,25.2444,桂林市,环湖路276号,,33,29,25,23,16,26,26,79,58,22,11,6,8,0.4,0.5
2026-07-12T0000,4301A,110.2803,25.2773,桂林市,信义路13号,,45,36,33,31,20,22,22,81,49,18,10,14,13,0.6,0.6
2026-07-12T0000,2674A,100.2262,34.4854,果洛藏族自治州,玛沁县大武镇,,27,15,22,6,8,84,84,99,89,1,2,19,18,0.3,0.3
2026-07-12T0000,1130A,126.5557,45.8109,哈尔滨市,松北商大,,10,9,21,7,15,30,30,97,69,9,10,5,5,0.3,0.4
2026-07-12T0000,1132A,126.6162,45.719,哈尔滨市,南岗学府路,,18,18,27,3,15,28,28,96,63,13,12,6,6,0.4,0.4
2026-07-12T0000,1133A,126.6894,45.7733,哈尔滨市,太平宏伟公园,,21,21,28,3,7,42,42,98,69,18,14,6,6,0.2,0.3
2026-07-12T0000,1134A,126.6361,45.7672,哈尔滨市,道外承德广场,,29,29,38,3,8,28,28,98,67,14,12,5,5,0.1,0.2
2026-07-12T0000,1136A,126.644,45.7261,哈尔滨市,动力和平路,,16,16,35,3,7,25,25,98,63,17,14,6,5,0.2,0.3
2026-07-12T0000,1137A,126.5933,45.7479,哈尔滨市,道里建国路,,11,10,33,3,14,29,29,97,64,10,8,4,5,1.1,0.7
2026-07-12T0000,1138A,126.6127,45.6119,哈尔滨市,平房东轻厂,,6,6,13,3,6,15,15,92,53,8,9,6,6,0.6,0.6
2026-07-12T0000,1139A,126.5875,45.9827,哈尔滨市,呼兰师专,,16,16,26,3,8,31,31,92,70,17,14,6,6,0.4,0.5
2026-07-12T0000,1140A,126.6299,45.6799,哈尔滨市,省农科院,,15,15,27,3,9,22,22,92,54,18,16,5,5,0.5,0.6
2026-07-12T0000,4282A,126.6769,45.7379,哈尔滨市,华山路1号,,14,14,20,3,8,35,35,102,71,13,10,6,6,0.2,0.1
2026-07-12T0000,4283A,126.9717,45.5356,哈尔滨市,解放大街52号,,11,11,16,3,3,34,34,94,63,10,7,4,5,0.4,0.5
2026-07-12T0000,2688A,93.5124,42.8176,哈密市,地区监测站,,31,25,9,13,7,99,99,130,120,22,6,6,8,0.1,0.1
2026-07-12T0000,2689A,93.5014,42.8312,哈密市,哈密师范学校,,44,44,17,22,9,68,68,124,100,26,8,9,8,0.5,0.2
2026-07-12T0000,2671A,100.9016,36.9464,海北藏族自治州,海晏县西海镇,,25,14,13,12,7,79,79,103,97,5,2,7,7,0.4,0.4
2026-07-12T0000,3867A,102.074,36.5056,海东市,平安区公安局北苑,,24,23,29,11,15,76,76,95,90,10,9,13,12,1.0,0.7
2026-07-12T0000,4163A,102.0984,36.5119,海东市,滨河路,,30,24,16,16,13,14,14,68,49,60,23,10,9,1.4,0.9
2026-07-12T0000,1410A,110.3189,20.0596,海口市,海南大学,,27,27,16,16,10,48,48,92,68,9,8,5,5,0.4,0.4
2026-07-12T0000,1411A,110.2827,20.0051,海口市,秀英海南医院,,20,17,16,14,11,46,46,97,66,8,10,5,5,0.3,0.3
2026-07-12T0000,1412A,110.3391,19.9979,海口市,海南师范大学,,19,18,27,13,11,46,46,98,64,7,7,3,3,0.3,0.4
2026-07-12T0000,1413A,110.3303,20.0359,海口市,龙华路环保局宿舍,,23,20,17,16,11,45,45,96,68,12,8,/,/,0.3,0.3
2026-07-12T0000,3539A,110.5111,19.9737,海口市,桂林洋子站,,25,25,19,14,11,36,36,57,52,7,7,/,/,/,/
2026-07-12T0000,4134A,110.1952,20.0451,海口市,长滨二路9号,,15,13,14,8,8,47,47,90,65,7,8,/,/,/,/
2026-07-12T0000,2673A,100.6158,36.2985,海南藏族自治州,共和县恰卜恰镇,,28,10,13,7,7,88,88,100,96,2,2,8,10,0.4,0.4
2026-07-12T0000,2676A,97.373,37.376,海西蒙古族藏族自治州,德令哈市,NA,NA,22,23,6,12,117,117,130,129,1,2,10,10,NA,NA
2026-07-12T0000,1049A,114.492,36.5712,邯郸市,矿院,,40,27,22,22,20,126,126,142,137,2,3,3,2,0.4,0.3
2026-07-12T0000,1050A,114.4839,36.6136,邯郸市,丛台公园,,41,30,23,18,14,129,129,138,136,6,4,8,8,0.2,0.3
2026-07-12T0000,3458A,114.7893,36.5592,邯郸市,香泉濮院小区,,39,27,16,25,20,124,124,135,134,12,10,3,3,0.3,0.3
2026-07-12T0000,3580A,114.1998,36.4439,邯郸市,峰峰矿区临水派出所,,38,29,28,26,19,104,104,134,122,9,8,2,2,0.3,0.3
2026-07-12T0000,4068A,114.5209,36.7697,邯郸市,建安街268号,,36,36,29,23,14,115,115,119,119,10,13,3,3,0.3,0.2
2026-07-12T0000,4069A,114.5488,36.6177,邯郸市,丛台东路558号,,45,45,31,27,16,114,114,127,124,14,11,3,3,0.3,0.3
2026-07-12T0000,2635A,107.0155,33.0707,汉中市,市监测站,,15,14,25,3,17,47,47,92,58,4,9,4,4,0.3,0.4
2026-07-12T0000,2636A,107.0083,33.114,汉中市,鑫源开发区,,16,13,27,3,15,49,49,93,59,6,13,5,7,0.5,0.6
2026-07-12T0000,2637A,107.0072,33.0323,汉中市,南郑大河坎水厂,,15,10,25,3,14,48,48,88,50,4,10,3,3,0.3,0.4
2026-07-12T0000,1223A,120.2073,30.2111,杭州市,滨江,,12,6,34,3,12,36,36,34,33,3,5,4,4,0.4,0.4
2026-07-12T0000,1224A,120.0625,30.2737,杭州市,西溪,,10,NA,18,6,15,29,29,34,30,3,4,4,4,0.7,0.7
2026-07-12T0000,1226A,120.3417,30.315,杭州市,下沙,,14,14,27,3,9,42,42,38,36,3,6,4,3,0.6,0.5
2026-07-12T0000,1227A,120.1252,30.2465,杭州市,卧龙桥,,11,11,27,3,11,33,33,38,34,5,7,5,5,0.2,0.2
2026-07-12T0000,1228A,120.1902,30.2691,杭州市,浙江农大,,10,8,28,3,16,32,32,34,32,5,8,6,7,0.3,0.3
2026-07-12T0000,1230A,120.1195,30.3121,杭州市,和睦小学,,10,6,12,3,11,31,31,33,30,2,3,7,7,0.6,0.6
2026-07-12T0000,1231A,120.3076,30.4146,杭州市,临平镇,,12,6,34,3,11,36,36,37,34,2,3,6,6,0.5,0.5
2026-07-12T0000,1232A,120.2753,30.1839,杭州市,城厢镇,,16,16,34,3,10,37,37,34,33,2,5,4,5,0.4,0.4
2026-07-12T0000,1233A,120.0883,30.1808,杭州市,云栖,,12,7,29,3,9,36,36,37,35,4,6,5,5,0.5,0.5
2026-07-12T0000,3557A,119.9463,30.0496,杭州市,镇二中,,11,6,21,3,9,34,34,35,33,4,7,5,5,0.7,0.6
2026-07-12T0000,3558A,119.7184,30.2367,杭州市,市府大楼,,10,6,19,3,11,31,31,43,34,2,6,7,7,0.4,0.3
2026-07-12T0000,3656A,120.1554,30.2863,杭州市,消防大队,,10,6,27,3,11,31,31,34,31,2,3,8,8,0.8,0.8
2026-07-12T0000,1270A,117.1957,31.7845,合肥市,明珠广场,,27,27,31,15,15,43,43,104,88,2,6,8,8,0.4,0.5
2026-07-12T0000,1271A,117.307,31.8765,合肥市,三里街,,24,24,30,13,13,35,35,88,74,5,10,10,10,0.4,0.5
2026-07-12T0000,1272A,117.2587,31.8703,合肥市,琥珀山庄,,24,24,31,11,13,39,39,96,80,6,8,6,8,0.3,0.4
2026-07-12T0000,1275A,117.2593,31.9376,合肥市,庐阳区,,29,29,31,14,14,40,40,98,83,7,11,8,10,0.6,0.7
2026-07-12T0000,1276A,117.345251,31.861615,合肥市,瑶海区,,24,24,29,13,14,37,37,95,80,4,8,9,10,0.4,0.4
2026-07-12T0000,1277A,117.3033,31.7967,合肥市,包河区,,31,31,33,11,13,36,36,91,72,11,18,8,9,0.5,0.6
2026-07-12T0000,1278A,117.278,31.7392,合肥市,滨湖新区,,29,29,31,11,10,39,39,102,85,8,8,6,7,0.5,0.6
2026-07-12T0000,1279A,117.1324,31.8395,合肥市,高新区,,31,31,33,12,14,40,40,100,83,7,8,8,8,0.6,0.5
2026-07-12T0000,3464A,117.3802,31.9148,合肥市,高教基地,,19,19,28,12,13,42,42,100,85,3,6,6,7,0.4,0.5
2026-07-12T0000,4098A,117.2518,31.8404,合肥市,中国科学技术大学,,19,19,30,10,13,43,43,115,93,5,9,10,12,0.5,0.6
2026-07-12T0000,3614A,79.9241,37.0878,和田地区,地区环保局,颗粒物(PM10),161,271,424,74,106,125,125,129,126,2,4,3,2,0.2,0.2
2026-07-12T0000,3615A,79.9132,37.1137,和田地区,市环保局,颗粒物(PM10),153,256,405,74,109,119,119,133,126,2,3,3,2,0.3,0.3
2026-07-12T0000,2517A,108.0496,24.6957,河池市,市环保站,,39,37,31,27,13,13,13,83,52,20,8,4,4,0.9,0.9
2026-07-12T0000,4302A,108.0901,24.6945,河池市,上任中路54号,,45,45,28,21,13,10,10,82,51,28,11,4,4,0.9,0.8
2026-07-12T0000,1697A,114.6962,23.7538,河源市,东埔,细颗粒物(PM2.5),54,50,35,37,26,50,50,73,62,14,12,10,6,0.8,0.7
2026-07-12T0000,1698A,114.6895,23.7232,河源市,老城,,33,33,35,16,18,36,36,76,50,14,14,6,7,0.8,0.7
2026-07-12T0000,3374A,115.5562,35.089,菏泽市,定陶老年大学,,31,31,36,15,20,82,82,115,115,13,12,4,3,0.4,0.5
2026-07-12T0000,4114A,115.4239,35.2593,菏泽市,黄河路600号,,30,30,34,16,18,87,87,148,131,9,11,4,4,0.3,0.3
2026-07-12T0000,4115A,115.5025,35.2727,菏泽市,菏泽市人社局,NA,NA,30,34,14,18,NA,NA,95,NA,13,14,3,2,NA,0.1
2026-07-12T0000,4184A,115.479691,35.244011,菏泽市,永昌路1号,,36,36,38,14,18,84,84,154,133,8,9,6,6,0.4,0.4
2026-07-12T0000,4193A,115.471542,35.280012,菏泽市,长城路999号,,29,29,33,18,18,78,78,148,127,12,10,7,6,0.4,0.4
2026-07-12T0000,2514A,111.5264,24.4178,贺州市,环保小区,,31,31,27,12,15,44,44,139,90,9,9,10,9,0.2,0.3
2026-07-12T0000,2515A,111.561,24.4074,贺州市,政协大楼,,29,NA,25,20,17,47,47,147,90,18,14,12,13,0.5,0.5
2026-07-12T0000,3534A,111.4744,24.455,贺州市,西湾,颗粒物(PM10),55,57,39,18,16,20,20,116,68,22,12,11,10,0.4,0.4
2026-07-12T0000,2385A,114.17,35.9019,鹤壁市,市监测站,细颗粒物(PM2.5),60,NA,35,40,33,100,100,114,108,11,8,1,3,0.7,0.6
2026-07-12T0000,2386A,114.2953,35.7512,鹤壁市,市交警支队,,44,44,30,29,21,95,95,98,97,16,14,8,6,0.7,0.5
2026-07-12T0000,2387A,114.2877,35.7302,鹤壁市,迎宾馆,细颗粒物(PM2.5),54,49,34,37,22,109,109,127,118,13,9,13,7,0.7,0.6
2026-07-12T0000,3474A,114.2616,35.6824,鹤壁市,大新区,细颗粒物(PM2.5),60,42,34,40,24,103,103,130,111,14,10,4,4,0.5,0.5
2026-07-12T0000,3596A,114.1573,35.9607,鹤壁市,南山宾馆,细颗粒物(PM2.5),60,46,33,40,33,120,120,130,118,9,10,9,9,0.5,0.5
2026-07-12T0000,2244A,130.2537,47.3416,鹤岗市,哈啤分公司,,23,23,20,13,10,17,17,86,47,13,13,4,4,0.2,0.2
2026-07-12T0000,2245A,130.2683,47.3087,鹤岗市,斯达机电,,26,24,19,18,13,29,29,82,53,16,11,7,6,0.4,0.3
2026-07-12T0000,2246A,130.3114,47.3388,鹤岗市,东山纸板厂,,16,NA,21,8,10,4,4,66,35,32,17,3,2,0.2,0.2
2026-07-12T0000,2263A,127.4832,50.2524,黑河市,交通局,,28,24,23,19,13,44,44,80,56,8,9,6,6,0.3,0.3
2026-07-12T0000,2264A,127.5146,50.2339,黑河市,环保局,,38,30,22,26,16,39,39,79,54,13,10,10,8,0.4,0.3
2026-07-12T0000,1074A,115.6839,37.754,衡水市,电机北厂,颗粒物(PM10),51,51,44,15,23,137,137,148,146,8,10,3,3,0.5,0.4
2026-07-12T0000,1075A,115.6303,37.7318,衡水市,市监测站,,44,38,39,8,19,138,138,153,150,9,10,9,6,0.6,0.6
2026-07-12T0000,3188A,115.6684,37.7216,衡水市,市城管局,,43,43,44,12,22,134,134,149,145,8,10,12,15,0.3,0.3
2026-07-12T0000,3459A,115.599,37.5491,衡水市,地表水厂,,45,45,43,17,19,128,128,138,135,17,12,3,2,0.3,0.3
2026-07-12T0000,2457A,112.6209,26.9268,衡阳市,衡阳化工总厂,,38,38,27,25,14,40,40,95,70,11,9,3,4,0.6,0.6
2026-07-12T0000,2458A,112.621,26.8957,衡阳市,珠晖区环保局,,25,18,28,17,14,66,66,101,78,9,8,7,9,0.9,0.8
2026-07-12T0000,2459A,112.628,26.8654,衡阳市,市委党校,,39,32,24,27,16,56,56,101,84,13,7,5,5,0.7,0.4
2026-07-12T0000,2460A,112.6007,26.8977,衡阳市,市监测站,,29,22,24,20,13,60,60,100,84,13,9,2,3,0.7,0.7
2026-07-12T0000,2461A,112.5658,26.9013,衡阳市,真空机电公司,,33,28,22,23,15,60,60,108,83,16,12,6,6,0.9,1
2026-07-12T0000,3399A,112.6703,26.8817,衡阳市,师范学院,,31,31,26,21,17,40,40,101,78,12,5,9,9,0.7,0.6
2026-07-12T0000,3038A,103.3757,23.3679,红河哈尼族彝族自治州,州图书馆,,22,16,16,15,11,50,50,56,48,2,3,3,4,0.3,0.3
2026-07-12T0000,4154A,103.401,23.3561,红河哈尼族彝族自治州,蒙自市朝阳路,,16,12,13,11,10,46,46,54,44,3,3,4,5,0.2,0.2
2026-07-12T0000,1090A,111.6506,40.7517,呼和浩特市,呼市一监,,19,17,18,9,24,60,60,76,70,4,10,6,7,0.5,0.6
2026-07-12T0000,1094A,111.7516,40.8369,呼和浩特市,如意水处理厂,,28,24,31,19,26,63,63,71,66,6,17,5,5,0.5,0.7
2026-07-12T0000,1095A,111.727798,40.806187,呼和浩特市,二十九中,,32,25,28,22,34,63,63,75,70,3,14,9,9,0.8,1
2026-07-12T0000,1097A,111.717,40.7617,呼和浩特市,化肥厂生活区,,30,NA,26,21,31,58,58,76,68,7,19,11,11,0.7,1
2026-07-12T0000,3699A,111.6519,40.8389,呼和浩特市,海东办,,32,27,19,22,12,55,55,67,61,9,23,7,6,0.4,0.5
2026-07-12T0000,4275A,111.591512,40.827312,呼和浩特市,成吉思汗西街8号,,19,19,18,10,13,48,48,59,53,12,24,5,5,0.4,0.5
2026-07-12T0000,4276A,111.6597,40.8077,呼和浩特市,公园东路75号,,32,22,21,22,24,74,74,86,82,8,17,12,12,0.9,1
2026-07-12T0000,4277A,111.5427,40.7846,呼和浩特市,金海路35号,,42,NA,26,29,23,45,45,60,54,8,20,3,3,0.6,0.7
2026-07-12T0000,3061A,119.7511,49.1576,呼伦贝尔市,国华电力东,,34,34,19,12,13,13,13,82,52,31,12,5,6,0.3,0.3
2026-07-12T0000,4279A,119.7569,49.2222,呼伦贝尔市,伊敏大街东7号,颗粒物(PM10),65,71,23,40,16,4,4,78,52,50,16,6,5,1.0,0.6
2026-07-12T0000,1250A,120.075,30.867,湖州市,城西水厂,,21,21,27,7,13,32,32,48,34,2,4,5,6,0.2,0.3
2026-07-12T0000,2873A,120.083,30.8929,湖州市,仁皇山新区,,22,22,32,7,14,33,33,49,36,1,4,4,5,0.4,0.4
2026-07-12T0000,2907A,120.1846,30.8592,湖州市,吴兴区站,,22,22,30,7,13,31,31,46,33,2,2,5,5,0.4,0.4
2026-07-12T0000,3562A,120.4146,30.8538,湖州市,南浔区站,,19,19,29,3,15,31,31,41,31,2,3,4,4,0.5,0.5
2026-07-12T0000,1607A,120.904878,40.721091,葫芦岛市,龙港区,,26,26,26,14,13,46,46,72,70,5,5,5,5,0.3,0.3
2026-07-12T0000,1608A,120.8382,40.7521,葫芦岛市,化工街,,25,24,17,17,12,44,44,72,71,9,9,4,3,0.3,0.3
2026-07-12T0000,1609A,120.8339,40.7078,葫芦岛市,新区,,23,18,22,16,12,44,44,70,68,4,4,3,3,0.4,0.4
2026-07-12T0000,1610A,120.8697,40.7679,葫芦岛市,东城区,,26,25,23,18,15,50,50,74,73,7,10,3,2,0.3,0.4
2026-07-12T0000,2483A,109.9297,27.5383,怀化市,河西地税局,,30,30,22,13,15,8,8,78,38,16,9,5,5,/,/
2026-07-12T0000,2484A,109.9783,27.5342,怀化市,市四医院,,35,35,24,22,12,19,19,85,51,21,12,8,8,0.2,0.1
2026-07-12T0000,2485A,109.9971,27.5579,怀化市,监测楼,,22,21,21,15,14,37,37,92,57,9,10,10,11,0.4,0.4
2026-07-12T0000,1210A,119.0566,33.5991,淮安市,钵池山,,36,36,30,13,11,25,25,56,34,6,6,5,6,0.5,0.5
2026-07-12T0000,1211A,119.0083,33.578,淮安市,北京南路,,29,29,31,13,12,25,25,61,34,2,3,6,6,0.5,0.5
2026-07-12T0000,1212A,118.9938,33.6083,淮安市,市监测站,,24,24,19,11,12,26,26,58,34,5,7,6,6,0.3,0.4
2026-07-12T0000,1213A,119.135,33.5038,淮安市,楚州区监测站,,22,22,23,14,13,24,24,56,34,5,4,6,6,0.4,0.4
2026-07-12T0000,3426A,118.8757,33.2897,淮安市,新华书店,,26,26,32,15,15,27,27,53,32,6,10,7,7,0.3,0.8
2026-07-12T0000,4092A,119.119691,33.550006,淮安市,枚皋中路89号,,31,31,29,12,11,27,27,56,36,6,6,8,8,0.5,0.5
2026-07-12T0000,4206A,119.028838,33.631911,淮安市,承德北路606号,,34,34,26,14,12,23,23,57,33,3,3,6,6,0.6,0.6
2026-07-12T0000,2282A,116.8005,33.9749,淮北市,监测站,,28,28,32,16,19,44,44,125,82,7,9,6,6,0.1,0.2
2026-07-12T0000,2283A,116.8094,33.9008,淮北市,烈山区政府,,20,20,35,12,13,44,44,132,88,3,7,3,5,0.3,0.4
2026-07-12T0000,4017A,116.7926,33.9534,淮北市,市博物馆,,23,23,33,15,17,41,41,107,74,5,8,3,4,0.3,0.3
2026-07-12T0000,4100A,116.8322,33.9884,淮北市,杜集区第一实验学校,,28,28,38,12,14,38,38,118,79,8,10,4,5,0.4,0.5
2026-07-12T0000,2277A,116.8304,32.7726,淮南市,潘集区政府,,30,30,30,13,16,32,32,90,73,5,8,5,5,0.1,0.2
2026-07-12T0000,2279A,116.8569,32.5949,淮南市,谢家集区政府,,28,28,24,13,18,38,38,102,83,6,8,7,8,0.0,0.2
2026-07-12T0000,2280A,116.8279,32.6333,淮南市,八公山区政府,,35,35,35,16,19,37,37,104,82,7,7,7,7,0.0,0.2
2026-07-12T0000,2894A,117.0561,32.6536,淮南市,经济技术开发区消防队,,21,21,24,12,16,40,40,102,80,6,7,8,8,0.4,0.5
2026-07-12T0000,3329A,117.011,32.5891,淮南市,山南新区,,24,24,23,13,16,37,37,105,84,6,6,11,13,0.4,0.5
2026-07-12T0000,4209A,117.003137,32.644456,淮南市,国庆中路369号,,32,32,35,13,16,30,30,91,72,8,9,9,9,0.1,0.2
2026-07-12T0000,2446A,114.9021,30.474,黄冈市,职工中心,,23,18,21,6,15,71,71,111,90,2,5,8,9,0.4,0.4
2026-07-12T0000,2929A,114.8858,30.4519,黄冈市,红卫路,,20,16,24,11,17,63,63,92,74,2,4,6,5,0.4,0.5
2026-07-12T0000,3398A,114.9134,30.4446,黄冈市,市林业局,,25,20,23,15,17,80,80,112,94,4,8,4,4,0.3,0.4
2026-07-12T0000,2672A,102.02,35.5101,黄南藏族自治州,同仁县隆务镇,,30,NA,440,9,9,96,96,103,96,2,1,11,12,0.2,0.2
2026-07-12T0000,2295A,118.2905,29.6965,黄山市,延安路89号,,13,13,18,3,10,29,29,63,50,5,5,2,2,0.3,0.3
2026-07-12T0000,2297A,118.1369,30.2755,黄山市,黄山区政府5号楼,,10,10,22,3,9,32,32,64,56,4,3,3,4,0.6,0.6
2026-07-12T0000,4210A,118.335445,29.720283,黄山市,滨江东路7-2号,,25,25,32,3,9,27,27,60,47,4,4,/,/,/,/
2026-07-12T0000,2423A,115.0547,30.2332,黄石市,沈家营,,37,37,40,9,17,42,42,96,75,5,11,5,8,0.2,0.4
2026-07-12T0000,2426A,114.899,30.211,黄石市,铁山,,28,27,30,19,18,52,52,127,88,8,8,4,4,0.2,0.3
2026-07-12T0000,2427A,115.0259,30.2108,黄石市,团城山,,32,32,36,10,17,46,46,118,80,4,8,4,4,0.6,0.8
2026-07-12T0000,3149A,115.0174,30.1591,黄石市,笔架山北路,颗粒物(PM10),55,56,46,12,17,53,53,120,86,3,4,4,5,0.3,0.5
2026-07-12T0000,4185A,115.078022,30.21118,黄石市,磁湖东路29号,,40,40,39,6,19,44,44,115,76,7,21,2,7,0.5,0.7
2026-07-12T0000,1392A,114.4181,23.0528,惠州市,河南岸金山湖子站,,42,42,33,26,21,98,98,132,107,25,21,8,8,0.7,0.6
2026-07-12T0000,1393A,114.4055,23.0824,惠州市,下埔横江三路子站,颗粒物(PM10),52,52,37,29,18,130,130,148,131,20,16,5,6,0.7,0.6
2026-07-12T0000,1395A,114.4645,22.7832,惠州市,惠阳区承修路船湖子站,,36,36,38,18,22,96,96,146,140,18,19,4,5,0.6,0.7
2026-07-12T0000,1396A,114.5316,22.7423,惠州市,大亚湾管委会子站,,48,48,38,28,19,128,128,139,130,24,24,6,6,0.7,0.6
2026-07-12T0000,3314A,114.4334,22.8134,惠州市,惠阳秋长,,41,41,38,23,21,102,102,144,136,24,24,/,/,/,/
2026-07-12T0000,3452A,114.6521,22.7755,惠州市,大亚湾霞涌,,45,29,26,25,17,144,144,192,145,18,17,/,/,/,/
2026-07-12T0000,4300A,114.4089,23.1147,惠州市,文华一路1号,,46,46,34,26,19,128,128,138,124,21,19,/,/,/,/
2026-07-12T0000,2240A,130.9618,45.2926,鸡西市,环保局,,19,16,23,8,9,60,60,84,70,9,12,12,12,0.4,0.4
2026-07-12T0000,2243A,130.9294,45.2959,鸡西市,第一中学,,18,12,22,10,13,57,57,78,64,8,8,6,6,0.4,0.4
2026-07-12T0000,3707A,131.0069,45.2988,鸡西市,欧美日汽修厂,,17,13,24,11,12,54,54,78,63,11,13,8,9,0.7,0.7
2026-07-12T0000,2367A,114.9753,27.0803,吉安市,红声器材厂,,35,35,43,17,25,84,84,132,121,14,12,9,9,0.3,0.3
2026-07-12T0000,2369A,114.9903,27.1313,吉安市,市环境监测站,,38,38,40,12,20,76,76,133,119,12,8,9,9,/,/
2026-07-12T0000,2370A,115.009527,27.096792,吉安市,青原区法院,,41,41,41,18,23,87,87,132,118,10,12,10,9,0.3,0.3
2026-07-12T0000,1772A,126.54,43.8622,吉林市,哈达湾,,12,10,12,8,8,31,31,73,25,8,10,6,6,0.4,0.4
2026-07-12T0000,1773A,126.5843,43.8358,吉林市,东局子,,12,8,10,8,8,18,18,60,18,6,7,3,3,0.5,0.5
2026-07-12T0000,1774A,126.5051,43.8243,吉林市,电力学院,,9,NA,5,6,8,28,28,72,24,4,6,5,5,0.4,0.4
2026-07-12T0000,1775A,126.6133,43.8971,吉林市,江北,,13,13,15,8,8,23,23,56,23,5,4,7,7,0.4,0.5
2026-07-12T0000,1776A,126.5549,43.8304,吉林市,江南公园,,11,11,11,7,9,25,25,60,15,2,5,3,4,0.2,0.3
2026-07-12T0000,2868A,126.4737,43.953,吉林市,九站,,9,8,12,6,9,28,28,77,25,1,4,3,1,0.3,0.3
2026-07-12T0000,1299A,116.9866,36.6118,济南市,科干所,,30,27,31,16,15,96,96,132,124,15,14,6,7,0.5,0.7
2026-07-12T0000,1300A,116.9379,36.6652,济南市,农科所,,28,24,31,11,17,89,89,136,118,8,8,4,4,0.1,0.2
2026-07-12T0000,1301A,117.1265,36.6736,济南市,开发区,,30,27,31,13,19,95,95,128,119,5,5,6,6,0.5,0.6
2026-07-12T0000,1303A,117.0616,36.6865,济南市,省种子仓库,,41,41,36,14,17,93,93,123,113,7,5,7,6,0.2,0.2
2026-07-12T0000,1304A,116.9495185,36.644937,济南市,机床二厂,,30,29,31,14,18,94,94,128,116,8,6,6,6,0.2,0.3
2026-07-12T0000,1305A,117.0496,36.6629,济南市,市监测站,,32,32,32,15,19,87,87,113,103,11,8,4,3,0.4,0.5
2026-07-12T0000,1306A,116.7674,36.5458,济南市,长清党校,,33,27,33,18,18,104,104,140,128,9,8,5,5,0.1,0.3
2026-07-12T0000,1961A,117.5323,36.6865,济南市,东山小学,,30,29,39,13,22,94,94,143,124,7,8,5,4,0.3,0.3
2026-07-12T0000,3059A,117.7181,36.205,济南市,泰兴公司,,41,41,45,16,23,54,54,124,98,14,13,8,8,0.4,0.4
2026-07-12T0000,3064A,117.6861,36.2172,济南市,莱芜战役纪念馆,,31,31,42,15,23,63,63,136,108,13,12,12,10,0.5,0.3
2026-07-12T0000,3494A,117.1673,36.9782,济南市,济阳区政府,,42,42,44,16,19,83,83,120,97,14,15,4,3,0.2,0.2
2026-07-12T0000,3495A,117.1168,36.6299,济南市,锦屏中学,,32,32,33,14,18,82,82,111,105,5,4,2,2,0.1,0.2
2026-07-12T0000,4108A,117.7107,36.2385,济南市,山财大街5号,,27,27,37,13,23,68,68,144,116,8,10,8,9,0.7,0.7
2026-07-12T0000,4109A,116.9744,36.6889,济南市,无影山路12号,,28,24,27,15,17,88,88,124,114,10,8,7,7,0.4,0.4
2026-07-12T0000,1653A,116.6229,35.4288,济宁市,火炬城,NA,NA,NA,45,NA,19,NA,NA,137,NA,NA,9,NA,5,NA,0.6
2026-07-12T0000,3500A,116.5808,35.3703,济宁市,北湖一中,,32,32,39,16,17,68,68,159,110,13,8,6,4,0.5,0.6
2026-07-12T0000,3501A,116.8251,35.5592,济宁市,服务中心,,34,34,37,15,18,75,75,163,106,12,7,3,3,0.2,0.3
2026-07-12T0000,3678A,116.5907,35.4054,济宁市,市第七中学,,35,35,42,19,18,63,63,150,106,12,7,6,5,0.3,0.5
2026-07-12T0000,4111A,116.6075,35.4566,济宁市,任和路,,33,33,48,13,17,74,74,161,114,11,8,4,3,0.4,0.6
2026-07-12T0000,4112A,116.5648,35.3921,济宁市,文体南路1号,,39,39,39,26,17,61,61,139,103,11,7,5,4,0.4,0.5
2026-07-12T0000,4122A,112.6071,35.1015,济源市,市委党校,,40,40,35,15,14,102,102,113,110,9,8,8,8,0.5,0.5
2026-07-12T0000,4123A,112.596,35.0702,济源市,沁园中路1号,,41,41,30,11,13,106,106,125,117,12,11,3,3,0.5,0.5
2026-07-12T0000,2255A,130.2749,46.8028,佳木斯市,佳纺,,32,32,21,13,14,57,57,80,64,5,4,3,3,0.3,0.3
2026-07-12T0000,2257A,130.3258,46.7975,佳木斯市,环保局,,20,17,16,3,15,63,63,84,71,6,6,5,6,0.3,0.3
2026-07-12T0000,4285A,130.363,46.806,佳木斯市,顺和街,,25,18,16,17,12,60,60,74,63,5,8,2,2,0.3,0.4
2026-07-12T0000,4286A,130.3952,46.8268,佳木斯市,长安路196号,,22,22,19,14,11,67,67,84,71,6,8,5,5,0.3,0.3
2026-07-12T0000,1252A,120.7439,30.778,嘉兴市,清河小学,,13,9,30,3,9,40,40,41,36,2,2,5,5,0.3,0.4
2026-07-12T0000,1253A,120.7261,30.7477,嘉兴市,嘉兴学院,,15,15,24,3,12,36,36,37,33,3,5,3,3,0.3,0.3
2026-07-12T0000,2872A,120.7845,30.7524,嘉兴市,南湖区残联,,14,14,31,3,12,40,40,40,36,2,2,5,6,0.5,0.5
2026-07-12T0000,3407A,120.6915,30.7741,嘉兴市,秀洲住建,NA,NA,NA,23,NA,11,NA,NA,41,NA,NA,2,NA,6,NA,0.2
2026-07-12T0000,1945A,98.291,39.7705,嘉峪关市,气象局,,41,41,27,21,12,104,104,139,134,17,10,8,12,0.6,0.6
2026-07-12T0000,2884A,98.2672,39.7978,嘉峪关市,酒钢宾馆,,36,36,32,9,8,110,110,138,134,12,12,8,18,0.4,0.7
2026-07-12T0000,3248A,98.2644,39.7723,嘉峪关市,雄关区,,43,43,38,7,8,93,93,135,127,20,13,6,8,0.4,0.4
2026-07-12T0000,1383A,113.1063,22.6058,江门市,北街,,22,15,24,15,12,60,60,153,116,2,6,/,/,/,/
2026-07-12T0000,1384A,113.073,22.5835,江门市,西区,,23,19,26,16,14,63,63,142,100,4,13,/,/,/,/
2026-07-12T0000,1385A,113.0218,22.531,江门市,圭峰西,,28,NA,26,19,15,59,59,120,88,6,11,/,/,/,/
2026-07-12T0000,1386A,113.0826,22.5947,江门市,东湖,,28,24,22,19,12,66,66,147,106,5,13,7,8,0.3,0.4
2026-07-12T0000,3311A,113.1077,22.5647,江门市,江海富民,,33,33,37,18,13,60,60,155,118,6,13,/,/,0.5,0.5
2026-07-12T0000,3449A,113.0496,22.4669,江门市,新会银湖,,22,18,29,15,14,26,26,137,86,29,15,2,2,0.4,0.4
2026-07-12T0000,3335A,113.3137,35.2643,焦作市,马村街道办,,42,42,34,24,19,85,85,121,106,13,11,8,8,0.3,0.3
2026-07-12T0000,3336A,113.2464,35.2374,焦作市,焦作技师学院,,36,36,30,22,20,111,111,134,125,7,7,5,6,0.7,0.6
2026-07-12T0000,3477A,113.1656,35.2536,焦作市,中站许衡医院,,39,39,31,24,18,113,113,127,122,9,8,8,7,0.5,0.5
2026-07-12T0000,3981A,113.2456,35.18,焦作市,原李万街道办,颗粒物(PM10),51,51,35,16,18,106,106,130,121,7,6,10,10,0.4,0.3
2026-07-12T0000,4264A,113.234,35.219,焦作市,新安路1731号,,39,39,30,23,18,116,116,143,134,8,8,8,8,0.3,0.3
2026-07-12T0000,4295A,113.2722,35.2121,焦作市,人民路3066号,,35,35,29,19,18,97,97,125,115,7,7,7,6,0.6,0.6
2026-07-12T0000,1708A,116.3701,23.5345,揭阳市,新兴,,27,27,34,17,20,31,31,68,49,12,8,8,8,0.5,0.5
2026-07-12T0000,1709A,116.3261,23.5442,揭阳市,西马,,30,30,36,15,19,32,32,71,50,13,10,7,7,0.5,0.6
2026-07-12T0000,1710A,116.361,23.5627,揭阳市,东兴,,24,24,34,14,21,34,34,69,48,13,14,4,6,/,/
2026-07-12T0000,1711A,116.4151,23.5295,揭阳市,渔湖,颗粒物(PM10),93,109,38,16,20,37,37,74,51,12,9,2,3,/,/
2026-07-12T0000,3320A,116.4028,23.5699,揭阳市,曲溪,,36,36,33,11,21,35,35,78,55,13,11,6,8,0.5,0.5
2026-07-12T0000,1944A,102.1691,38.5166,金昌市,天庆家园,,36,17,19,3,9,113,113,114,106,6,12,8,10,0.1,0.2
2026-07-12T0000,4022A,102.1648,38.5369,金昌市,金川区人防中心,,36,9,11,7,10,114,114,124,114,5,8,8,10,0.2,0.3
2026-07-12T0000,4239A,102.193042,38.531887,金昌市,长春路96号,,32,15,19,3,12,100,100,110,103,10,10,4,11,0.2,0.3
2026-07-12T0000,1262A,119.6478,29.0773,金华市,十五中,,10,6,19,3,5,29,29,50,33,5,6,2,2,0.3,0.3
2026-07-12T0000,1263A,119.6859,29.1032,金华市,监测站,,10,6,18,3,3,30,30,44,32,2,5,2,2,0.3,0.3
2026-07-12T0000,3659A,119.656,29.1132,金华市,气象局,,10,6,15,3,5,30,30,46,32,3,6,3,2,0.1,0.2
2026-07-12T0000,1767A,121.1114,41.0879,锦州市,南山,,23,23,24,12,13,41,41,58,57,9,9,1,1,0.3,0.3
2026-07-12T0000,1768A,121.060361,40.842794,锦州市,开发区,,36,36,25,13,12,40,40,65,62,7,6,4,4,0.3,0.3
2026-07-12T0000,1769A,121.1836,41.1118,锦州市,百股街道,,19,18,22,13,13,49,49,75,72,7,7,2,2,0.2,0.3
2026-07-12T0000,1770A,121.1176,41.1224,锦州市,天安街道,,22,22,26,12,15,46,46,66,62,8,9,4,4,0.4,0.4
2026-07-12T0000,1771A,121.1303,41.1385,锦州市,北湖公园,,22,20,23,15,16,44,44,59,59,5,7,3,3,0.2,0.3
2026-07-12T0000,2160A,112.8496,35.5051,晋城市,自来水公司,,38,34,24,11,6,121,121,134,131,5,5,4,4,0.6,0.6
2026-07-12T0000,2162A,112.8509,35.4886,晋城市,市环保局,,37,32,28,17,13,118,118,129,127,8,7,4,4,0.4,0.4
2026-07-12T0000,3620A,112.8258,35.4804,晋城市,泽州一中,,35,25,27,12,14,110,110,131,127,13,6,3,4,0.4,0.4
2026-07-12T0000,4078A,112.8246,35.5152,晋城市,前书院路,,38,29,28,6,9,121,121,136,135,7,6,4,4,0.6,0.5
2026-07-12T0000,4079A,112.8864,35.4773,晋城市,祥云街666号,,39,27,25,17,14,122,122,127,127,6,6,3,3,0.5,0.5
2026-07-12T0000,2174A,112.6992,37.6984,晋中市,榆次区政府,,38,NA,39,26,29,52,52,125,77,16,11,7,7,1.2,1.3
2026-07-12T0000,2865A,112.7195,37.683,晋中市,榆次三中,,42,29,37,29,27,46,46,116,75,19,10,9,9,1.1,0.6
2026-07-12T0000,4080A,112.7375,37.7215,晋中市,广安街188号,,46,46,40,27,24,52,52,128,78,17,11,8,9,0.5,0.4
2026-07-12T0000,4200A,112.7478,37.6954,晋中市,迎宾街26号,,39,29,33,27,26,49,49,122,76,19,13,6,7,0.7,0.4
2026-07-12T0000,2439A,112.2012,31.048,荆门市,竹园小学,,30,22,30,21,19,58,58,100,92,12,11,5,4,0.8,0.8
2026-07-12T0000,2440A,112.1968,30.9892,荆门市,掇刀,,30,23,25,21,18,88,88,104,103,7,8,12,11,0.6,0.6
2026-07-12T0000,3012A,112.1849,31.0361,荆门市,西山林语,,29,NA,24,20,17,50,50,98,82,7,6,9,9,1.0,0.9
2026-07-12T0000,3547A,112.1631,31.0134,荆门市,龙泉中学南校,NA,NA,26,22,15,14,NA,NA,109,105,NA,6,NA,6,NA,0.8
2026-07-12T0000,4124A,112.2213,31.0654,荆门市,新台西路6号,,36,36,30,23,20,43,43,106,89,19,8,5,6,0.5,0.5
2026-07-12T0000,1844A,112.2493,30.3198,荆州市,市图书馆,,33,30,21,23,17,76,76,111,90,10,6,4,4,0.5,0.5
2026-07-12T0000,1845A,112.2009,30.3543,荆州市,市委党校,,46,36,24,32,17,60,60,108,86,16,7,4,5,0.5,0.4
2026-07-12T0000,3194A,112.2749,30.3124,荆州市,管委会,,36,35,22,25,18,71,71,112,82,12,9,8,9,0.5,0.5
2026-07-12T0000,4268A,112.1722,30.3366,荆州市,学苑路85号,,35,34,26,24,19,52,52,104,74,20,12,2,2,0.8,0.6
2026-07-12T0000,2343A,117.2114,29.2931,景德镇市,老干部活动中心,,21,21,16,8,10,51,51,56,50,4,6,5,6,0.5,0.5
2026-07-12T0000,2344A,117.1893,29.2789,景德镇市,兽医站,,26,26,22,9,13,58,58,61,54,3,5,3,3,0.3,0.4
2026-07-12T0000,2346A,117.246,29.2958,景德镇市,陶研所,,40,40,18,10,9,47,47,45,45,5,6,4,4,0.3,0.4
2026-07-12T0000,4289A,117.154766,29.256967,景德镇市,青少年活动中心,,23,23,26,10,11,43,43,48,47,10,10,8,6,/,/
2026-07-12T0000,1803A,115.9873,29.6816,九江市,十里,,30,30,33,12,20,92,92,130,96,7,16,4,9,0.3,0.4
2026-07-12T0000,1804A,115.9583,29.7047,九江市,茅山头,,27,24,28,13,21,85,85,126,90,5,13,4,4,0.4,0.5
2026-07-12T0000,1805A,115.9877,29.7295,九江市,西园,NA,NA,23,29,10,19,NA,NA,120,NA,6,20,3,4,0.2,0.3
2026-07-12T0000,1808A,115.9112,29.6038,九江市,综合工业园,,26,22,29,11,17,81,81,132,96,16,19,3,5,0.2,0.3
2026-07-12T0000,3190A,116.0254,29.6995,九江市,外国语学校,,32,32,27,9,20,79,79,118,85,6,14,12,14,0.5,0.7
2026-07-12T0000,4253A,116.010205,29.659402,九江市,莲花大道8号,,24,18,19,13,18,76,76,115,85,8,10,7,8,0.5,0.6
2026-07-12T0000,4240A,98.495752,39.733935,酒泉市,玉门东路5号,颗粒物(PM10),55,56,31,22,14,103,103,135,124,12,8,7,8,0.2,0.2
2026-07-12T0000,4241A,98.5099,39.7506,酒泉市,北大街108号,颗粒物(PM10),65,70,36,24,12,79,79,137,121,20,8,11,12,0.2,0.2
2026-07-12T0000,2698A,76.0071,39.466,喀什地区,巡警大队,颗粒物(PM10),74,83,342,24,101,111,111,148,141,27,13,5,4,0.4,0.2
2026-07-12T0000,2699A,75.9756,39.4693,喀什地区,吾办,颗粒物(PM10),75,85,284,25,87,109,109,149,140,26,9,10,8,0.5,0.4
2026-07-12T0000,4027A,75.9485,39.4688,喀什地区,老干局,颗粒物(PM10),78,89,286,35,69,96,96,144,135,25,9,3,4,0.4,0.2
2026-07-12T0000,1824A,114.3389,34.778,开封市,肿瘤医院,,36,33,32,25,22,92,92,134,124,18,13,7,6,0.4,0.4
2026-07-12T0000,1826A,114.2884,34.7966,开封市,世纪星幼儿园,,29,29,33,20,23,92,92,139,131,17,13,6,5,0.6,0.5
2026-07-12T0000,3147A,114.3434,34.8101,开封市,龙亭公园,,37,37,32,19,17,96,96,126,121,10,8,4,3,0.3,0.4
2026-07-12T0000,3210A,114.3645,34.7955,开封市,汴京公园,NA,NA,NA,33,19,21,NA,NA,145,NA,16,15,5,4,0.6,0.7
2026-07-12T0000,3473A,114.2485,34.8306,开封市,技师学院,,32,27,35,19,20,102,102,138,132,13,10,5,4,0.4,0.5
2026-07-12T0000,3592A,114.4518,34.7503,开封市,祥符区生态环境局,,42,42,32,18,23,98,98,128,120,9,8,10,10,0.4,0.4
2026-07-12T0000,1951A,84.886,45.6029,克拉玛依市,长征新村,,35,35,25,19,11,107,107,129,123,12,6,5,4,0.5,0.4
2026-07-12T0000,1952A,84.8894,45.5827,克拉玛依市,南林小区,,44,44,29,18,5,70,70,118,99,29,8,7,7,0.8,0.3
2026-07-12T0000,1954A,84.896,44.3328,克拉玛依市,独山子区,颗粒物(PM10),60,63,39,22,12,70,70,133,116,27,7,6,6,0.4,0.3
2026-07-12T0000,1955A,85.6888,46.0909,克拉玛依市,乌尔禾区商贸楼,颗粒物(PM10),55,56,29,34,17,76,76,122,110,20,8,9,8,0.5,0.3
2026-07-12T0000,3612A,85.1045,45.6895,克拉玛依市,白碱滩区新站,,48,48,33,17,8,107,107,128,124,12,5,11,8,0.1,0.1
2026-07-12T0000,2697A,76.1457,39.7143,克孜勒苏柯尔克孜自治州,市人民政府,,36,35,230,16,62,115,115,155,144,17,11,7,7,0.1,0.1
2026-07-12T0000,3665A,76.1654,39.7157,克孜勒苏柯尔克孜自治州,克州文化中心,,44,44,229,29,68,140,140,155,152,7,7,12,9,0.2,0.2
2026-07-12T0000,1450A,102.8203,24.889,昆明市,呈贡新区,,24,24,26,3,9,67,67,84,73,17,10,2,3,0.7,0.7
2026-07-12T0000,1452A,102.7253,25.0904,昆明市,龙泉镇,,16,13,22,3,11,49,49,81,65,20,18,5,6,0.3,0.4
2026-07-12T0000,1453A,102.7267,25.0378,昆明市,东风东路,,24,17,19,9,13,76,76,85,69,23,18,1,3,0.3,0.4
2026-07-12T0000,1454A,102.6744,25.0671,昆明市,金鼎山,,24,8,25,3,12,75,75,81,64,17,16,3,5,0.4,0.4
2026-07-12T0000,1455A,102.6643,25.0401,昆明市,碧鸡广场,,25,19,22,8,15,80,80,73,62,11,15,5,7,0.6,0.7
2026-07-12T0000,3179A,102.7491,25.012,昆明市,官渡区博物馆,,18,6,19,3,9,56,56,86,65,27,14,2,4,0.4,0.4
2026-07-12T0000,3375A,102.8016,24.8336,昆明市,青年创业园,,23,23,15,3,7,63,63,83,75,18,9,3,4,0.3,0.3
2026-07-12T0000,3550A,102.8,24.9787,昆明市,昆明学院,,23,8,17,6,8,72,72,86,76,15,12,5,6,0.4,0.4
2026-07-12T0000,3551A,102.5969,24.6738,昆明市,晋宁区生态环境分局,,19,15,17,13,13,57,57,74,58,9,9,6,8,0.4,0.4
2026-07-12T0000,3552A,102.6673,24.9861,昆明市,云天化总部,,26,15,18,3,10,83,83,82,68,12,14,4,7,0.3,0.4
2026-07-12T0000,1456A,91.132,29.6515,拉萨市,八廓街,,25,10,8,7,6,80,80,93,81,7,7,6,7,0.3,0.3
2026-07-12T0000,1457A,91.1221,29.6748,拉萨市,市环保局,,24,12,9,3,6,74,74,90,79,11,9,6,6,0.3,0.2
2026-07-12T0000,1458A,91.0874,29.6476,拉萨市,区监测站,,24,9,7,9,6,76,76,86,76,12,10,6,6,0.2,0.2
2026-07-12T0000,1459A,91.1774,29.6541,拉萨市,西藏大学,,26,10,8,6,6,81,81,95,82,7,10,4,4,0.3,0.3
2026-07-12T0000,1460A,90.9798,29.6586,拉萨市,区辐射站,,23,8,10,6,6,72,72,77,74,14,13,7,6,0.3,0.3
2026-07-12T0000,1461A,91.0831,29.6292,拉萨市,拉萨火车站,,26,9,7,3,5,82,82,86,78,9,10,4,5,0.4,0.4
2026-07-12T0000,2520A,109.2203,23.7252,来宾市,来宾技工学校,,34,34,20,9,6,55,55,93,67,12,12,8,6,0.6,0.5
2026-07-12T0000,3535A,109.1781,23.7293,来宾市,兴宾区政府,,23,23,17,3,5,52,52,106,86,6,5,6,8,0.5,0.5
2026-07-12T0000,4002A,109.2312,23.7428,来宾市,中南小学,,26,26,16,12,7,33,33,91,69,16,8,6,6,0.6,0.5
2026-07-12T0000,1479A,103.8309,36.0467,兰州市,铁路设计院,,29,29,28,20,17,50,50,97,79,34,23,6,6,0.7,0.6
2026-07-12T0000,3241A,103.7439,36.0841,兰州市,百合公园,,24,24,26,7,11,35,35,68,58,27,17,8,5,0.6,0.6
2026-07-12T0000,3242A,103.9613,35.9985,兰州市,和平,,19,NA,12,11,10,59,59,99,89,20,8,7,7,0.7,0.8
2026-07-12T0000,4236A,103.629272,36.093822,兰州市,庄浪东路808号,,17,15,19,9,11,36,36,70,56,33,20,8,8,0.3,0.3
2026-07-12T0000,4237A,103.7251,36.104344,兰州市,安宁西路88号,,23,20,20,9,13,72,72,87,85,16,12,7,7,0.3,0.3
2026-07-12T0000,4238A,103.846982,36.067567,兰州市,北滨河东路1号,,20,18,18,14,12,34,34,77,54,39,22,12,12,0.5,0.5
2026-07-12T0000,1067A,116.6712,39.5109,廊坊市,药材公司,,28,NA,24,9,24,87,87,106,88,3,7,3,3,0.3,0.6
2026-07-12T0000,1068A,116.7215,39.5592,廊坊市,开发区,,26,11,24,3,19,82,82,114,90,1,6,3,3,0.3,0.6
2026-07-12T0000,1070A,116.7246,39.5273,廊坊市,北华航天学院,,27,27,21,8,22,80,80,111,87,4,8,3,3,0.4,0.6
2026-07-12T0000,2919A,116.7022,39.5454,廊坊市,河北工业大学,,27,13,21,10,21,84,84,113,94,2,6,3,3,0.4,0.6
2026-07-12T0000,2536A,103.7629,29.5844,乐山市,牛耳桥,,20,20,13,9,5,43,43,89,59,20,12,4,4,0.9,0.7
2026-07-12T0000,2537A,103.7501,29.6002,乐山市,市第三水厂,,18,15,11,6,2,55,55,83,61,18,12,2,2,1.1,1
2026-07-12T0000,2538A,103.7571,29.5664,乐山市,市监测站,,18,18,12,8,5,43,43,95,59,16,9,3,2,1.0,0.8
2026-07-12T0000,3361A,103.7313,29.563,乐山市,理工大学,,16,16,10,10,6,39,39,88,60,16,9,3,3,1.0,0.7
2026-07-12T0000,2599A,100.2497,26.8802,丽江市,丽江古城,,13,13,13,3,4,26,26,55,38,17,9,3,4,0.6,0.5
2026-07-12T0000,2600A,100.2203,26.8906,丽江市,市中心,,9,7,9,3,5,28,28,50,30,13,9,8,7,0.5,0.5
2026-07-12T0000,1267A,119.9141,28.4513,丽水市,监测站大楼,,10,6,13,3,4,31,31,35,33,4,6,4,4,0.3,0.3
2026-07-12T0000,1268A,119.93,28.4589,丽水市,莲都小学,,11,6,13,3,5,35,35,40,37,3,5,/,/,/,/
2026-07-12T0000,1269A,119.8794,28.4232,丽水市,余庄前,,10,6,13,3,4,31,31,31,28,3,7,7,7,0.5,0.5
2026-07-12T0000,1173A,119.1759,34.5885,连云港市,市环境监测站,,19,19,21,9,11,33,33,89,47,2,4,5,5,0.3,0.2
2026-07-12T0000,3000A,119.3577,34.6971,连云港市,德源药业,,27,27,31,9,11,33,33,59,35,4,9,5,5,0.2,0.2
2026-07-12T0000,3007A,119.178,34.8442,连云港市,新城一中,,24,24,32,13,15,38,38,55,42,2,8,2,2,0.7,0.7
2026-07-12T0000,3008A,119.3607,34.7519,连云港市,胡沟管理处,,29,29,31,7,9,36,36,63,44,9,8,8,8,0.3,0.3
2026-07-12T0000,3009A,119.1478,34.5913,连云港市,矿山设计院,,24,24,26,7,9,33,33,84,46,3,6,2,2,0.2,0.2
2026-07-12T0000,3434A,119.2414,34.6539,连云港市,工贸学校,,30,30,30,12,13,36,36,87,48,4,7,5,5,0.4,0.4
2026-07-12T0000,3664A,119.4171,34.734,连云港市,连云街道,,24,24,28,9,12,38,38,63,44,3,6,6,6,0.3,0.3
2026-07-12T0000,2573A,102.2629,27.8981,凉山彝族自治州,西昌市政府,,40,NA,28,28,21,28,28,66,48,20,14,6,7,0.5,0.7
2026-07-12T0000,2574A,102.2686,27.885,凉山彝族自治州,凉山州政府,,38,28,21,26,15,36,36,67,53,20,14,5,6,0.7,0.6
2026-07-12T0000,4229A,102.2342,27.8859,凉山彝族自治州,凯乐南路30号,,29,NA,17,20,14,18,18,63,40,32,17,4,6,0.6,0.6
2026-07-12T0000,2212A,123.1978,41.2036,辽阳市,宏伟区,,21,21,14,11,5,36,36,52,38,3,4,6,6,0.3,0.3
2026-07-12T0000,2213A,123.1684,41.2497,辽阳市,新华园,,21,21,14,11,6,37,37,57,40,3,4,5,4,0.2,0.2
2026-07-12T0000,2214A,123.2355,41.2663,辽阳市,滨河路,,20,20,15,14,6,32,32,54,37,6,5,7,7,0.1,0.1
2026-07-12T0000,4083A,123.153,41.2874,辽阳市,铁西路150号,,22,21,15,15,8,42,42,59,44,2,4,6,6,0.2,0.2
2026-07-12T0000,2227A,125.1359,42.8845,辽源市,环保局,,19,7,14,3,2,58,58,95,46,1,3,3,3,0.4,0.4
2026-07-12T0000,4085A,125.0998,42.9134,辽源市,安宁大街333号,NA,NA,6,9,3,4,NA,NA,81,NA,8,4,4,4,0.2,0.3
2026-07-12T0000,1625A,115.9789,36.4372,聊城市,区政府,,29,29,35,7,17,92,92,167,143,9,5,12,10,0.5,0.6
2026-07-12T0000,3200A,115.9772,36.4986,聊城市,监控中心,,30,23,29,10,17,96,96,166,146,7,5,10,8,0.3,0.4
2026-07-12T0000,3513A,116.0443,36.436,聊城市,九州社区,,30,30,37,10,18,94,94,163,140,8,4,8,6,0.3,0.5
2026-07-12T0000,4018A,116.0564,36.4609,聊城市,星美广场,,26,26,40,8,18,83,83,154,130,6,5,6,5,0.3,0.4
2026-07-12T0000,4113A,116.0091,36.4495,聊城市,利民路,,32,22,30,8,17,100,100,173,147,12,7,13,13,0.2,0.3
2026-07-12T0000,2632A,94.3683,29.6373,林芝市,林芝监测站,,16,15,7,11,5,11,11,42,30,10,6,4,4,0.4,0.3
2026-07-12T0000,2633A,94.3616,29.6634,林芝市,林芝人民医院,,14,14,8,3,5,6,6,40,27,9,7,4,4,0.4,0.4
2026-07-12T0000,2603A,100.0779,23.8981,临沧市,市环保局,,19,19,11,7,5,17,17,39,30,12,10,8,8,0.4,0.4
2026-07-12T0000,2604A,100.0894,23.882,临沧市,市气象局,,13,12,14,3,4,39,39,47,44,5,6,5,6,0.4,0.4
2026-07-12T0000,1733A,111.5552,36.0791,临汾市,临钢医院,,25,25,31,6,10,54,54,121,69,12,15,4,5,0.5,0.5
2026-07-12T0000,1734A,111.4984,36.0734,临汾市,技工学校,,19,17,34,11,18,60,60,118,68,9,8,4,5,0.6,0.5
2026-07-12T0000,1736A,111.5017,36.0857,临汾市,市委,,34,34,51,3,11,55,55,88,60,8,7,6,6,1.1,1.1
2026-07-12T0000,3018A,111.5048,36.1015,临汾市,唐尧大酒店,,38,38,55,3,11,60,60,121,69,11,11,4,4,0.7,0.7
2026-07-12T0000,4244A,111.4879,36.053,临汾市,启星学校,,22,19,31,15,17,53,53,106,65,10,9,4,5,0.9,0.8
2026-07-12T0000,4271A,103.2464,35.6123,临夏回族自治州,滨河东路1号,,19,17,13,7,5,24,24,82,62,38,11,6,6,0.5,0.4
2026-07-12T0000,4310A,103.207136,35.599807,临夏回族自治州,新华街21号,,20,14,16,11,8,63,63,94,85,8,5,8,8,0.4,0.4
2026-07-12T0000,1618A,118.3429,35.0532,临沂市,沂河小区,,27,27,34,6,14,18,18,93,52,5,6,10,11,0.1,0.2
2026-07-12T0000,1619A,118.2962,35.0568,临沂市,鲁南制药厂,,27,27,28,6,13,20,20,92,56,6,7,10,12,0.4,0.5
2026-07-12T0000,1620A,118.2793,34.9976,临沂市,新光毛纺厂,,17,17,25,9,16,10,10,101,55,7,6,5,8,0.2,0.3
2026-07-12T0000,1621A,118.3955,35.0889,临沂市,河东保险公司,,24,24,29,10,13,24,24,95,56,5,6,7,9,0.1,0.1
2026-07-12T0000,3370A,118.3563,35.0215,临沂市,十里堡居委,,14,14,22,3,12,17,17,85,50,11,12,10,10,0.4,0.5
2026-07-12T0000,3496A,118.359,35.1067,临沂市,南坊新区,,29,29,33,10,16,25,25,104,61,9,10,6,8,0.1,0.2
2026-07-12T0000,3860A,118.3915,35.0297,临沂市,皇山花园小区,,17,17,26,7,14,23,23,95,54,5,7,8,8,0.4,0.5
2026-07-12T0000,1870A,109.4854,24.3898,柳州市,柳东小学,,17,16,18,9,7,54,54,86,69,10,6,4,4,0.6,0.6
2026-07-12T0000,1871A,109.4109,24.3304,柳州市,环保监测站,,17,17,20,11,8,40,40,92,71,14,10,7,7,0.7,0.7
2026-07-12T0000,1872A,109.3886,24.3408,柳州市,河西水厂,,43,43,22,16,16,22,22,105,76,35,11,14,6,1.0,0.6
2026-07-12T0000,1873A,109.4263,24.2951,柳州市,市四中,,42,34,24,29,11,19,19,92,68,30,10,6,6,0.8,0.6
2026-07-12T0000,1874A,109.396,24.3658,柳州市,市九中,颗粒物(PM10),55,57,24,21,10,17,17,95,73,32,10,9,6,0.9,0.6
2026-07-12T0000,1875A,109.4912,24.3164,柳州市,古亭山,,14,10,18,9,9,12,12,79,42,27,11,3,3,0.6,0.6
2026-07-12T0000,3402A,109.5422,24.3994,柳州市,市二中,,31,31,20,20,9,8,8,105,54,32,10,6,7,0.8,0.6
2026-07-12T0000,2307A,116.5078,31.7369,六安市,监测大楼,NA,NA,NA,20,NA,19,51,51,83,77,7,6,6,5,0.4,0.5
2026-07-12T0000,2308A,116.4738,31.7642,六安市,皖西学院,,35,35,26,14,15,62,62,96,93,4,4,6,6,0.3,0.4
2026-07-12T0000,2309A,116.4997,31.7904,六安市,朝阳厂,,22,NA,19,15,17,55,55,88,85,7,7,7,8,0.2,0.2
2026-07-12T0000,2310A,116.5566,31.7885,六安市,开发区,,36,36,31,19,21,57,57,94,89,7,8,6,6,0.2,0.2
2026-07-12T0000,2577A,104.8293,26.592,六盘水市,黄土坡,,16,12,16,6,10,49,49,88,80,19,7,6,4,0.6,0.4
2026-07-12T0000,2579A,104.8481,26.5898,六盘水市,民中,,16,10,12,10,10,51,51,83,76,12,7,3,1,0.6,0.4
2026-07-12T0000,2580A,104.9541,26.5506,六盘水市,双水,,15,9,13,7,6,47,47,80,71,7,6,4,4,0.7,0.6
2026-07-12T0000,4151A,104.8899,26.5685,六盘水市,钟山大道中段564号,,16,11,15,3,8,49,49,84,77,6,4,6,6,0.5,0.5
2026-07-12T0000,2336A,117.022,25.1031,龙岩市,龙岩市监测站,,24,24,29,15,20,69,69,76,64,5,11,6,8,0.2,0.3
2026-07-12T0000,2337A,117.0257,25.0662,龙岩市,闽西职业技术学院,,21,21,40,12,21,66,66,81,60,1,7,6,6,0.3,0.4
2026-07-12T0000,2338A,117.0195,25.0306,龙岩市,龙岩学院,,20,20,28,13,20,58,58,80,66,6,7,3,3,/,/
2026-07-12T0000,2885A,104.9344,33.3827,陇南市,滨江中学,,28,28,27,6,6,48,48,65,57,7,9,8,8,0.5,0.6
2026-07-12T0000,3247A,104.9551,33.3709,陇南市,市总工会,,27,27,26,9,8,39,39,72,54,4,9,6,7,0.4,0.5
2026-07-12T0000,2488A,111.9984,27.7346,娄底市,市监测站,,39,32,32,27,20,64,64,93,80,16,14,10,11,1.3,0.9
2026-07-12T0000,2491A,111.9888,27.7035,娄底市,市政府,,40,33,27,28,19,51,51,96,85,13,7,8,6,0.6,0.5
2026-07-12T0000,4127A,111.9812,27.7591,娄底市,涟钢职大,,50,26,26,14,14,61,61,115,87,8,10,3,4,5.0,2.1
2026-07-12T0000,4128A,112.0303,27.7457,娄底市,娄底体校,,44,44,29,27,18,68,68,101,88,13,8,4,4,0.6,0.6
2026-07-12T0000,1894A,105.4427,28.9063,泸州市,小市上码头,,27,6,16,3,6,85,85,100,89,6,8,7,7,0.4,0.5
2026-07-12T0000,1895A,105.4241,28.8573,泸州市,兰田宪桥,,29,19,24,10,12,90,90,126,105,8,10,2,2,0.4,0.4
2026-07-12T0000,1896A,105.4378,28.8833,泸州市,市环监站,,29,11,14,3,4,91,91,109,99,8,10,5,6,0.7,0.6
2026-07-12T0000,4272A,105.3689,28.7783,泸州市,纳溪中医医院,NA,NA,NA,31,NA,19,NA,NA,33,NA,NA,19,NA,3,NA,0.6
2026-07-12T0000,2183A,111.1447,37.5212,吕梁市,环保局,,25,11,14,8,8,77,77,82,82,4,10,4,4,0.4,0.5
2026-07-12T0000,2185A,111.1285,37.5338,吕梁市,自来水公司,,23,12,13,3,9,73,73,78,78,6,12,3,3,0.5,0.6
2026-07-12T0000,2867A,111.1225,37.5093,吕梁市,马茂庄小学,,36,36,15,15,8,28,28,62,56,43,19,3,3,0.4,0.5
2026-07-12T0000,1812A,112.3934,34.6517,洛阳市,市委党校,NA,NA,22,23,14,17,NA,NA,123,NA,6,7,8,7,0.4,0.5
2026-07-12T0000,1815A,112.494,34.6883,洛阳市,河南林校,,37,34,29,19,13,116,116,132,132,12,9,12,12,0.3,0.3
2026-07-12T0000,1816A,112.3843,34.623,洛阳市,开发区管委会,,35,24,22,9,14,110,110,146,144,5,5,9,12,0.5,0.6
2026-07-12T0000,1817A,112.4263,34.6249,洛阳市,市委新办公区,,36,28,17,14,12,113,113,132,132,8,8,12,14,0.3,0.4
2026-07-12T0000,3340A,112.6005,34.6323,洛阳市,伊滨,,37,31,21,11,11,117,117,139,138,8,7,5,5,0.4,0.4
2026-07-12T0000,3341A,112.495,34.6338,洛阳市,中移产业园,,41,20,18,16,13,129,129,134,134,3,3,8,8,0.7,0.8
2026-07-12T0000,3593A,112.5736,34.8993,洛阳市,吉利监测站,,35,35,33,12,14,80,80,115,108,12,9,7,7,0.2,0.2
2026-07-12T0000,3635A,112.3678,34.6623,洛阳市,河科大西苑校区,,35,23,24,12,14,111,111,130,130,3,4,15,19,0.6,0.6
2026-07-12T0000,3636A,112.4387,34.678,洛阳市,英才小学,,38,NA,17,21,12,121,121,123,123,3,4,9,10,0.5,0.5
2026-07-12T0000,4214A,112.460027,34.694929,洛阳市,春都路1号院,,39,NA,19,24,13,122,122,121,121,6,7,2,2,0.2,0.2
2026-07-12T0000,2399A,114.051,33.5721,漯河市,三五一五工厂,,40,40,27,20,18,81,81,147,125,25,21,5,5,0.1,0.1
2026-07-12T0000,2400A,114.0055,33.5698,漯河市,漯河大学,,47,47,37,23,19,84,84,151,130,24,20,6,6,0.4,0.5
2026-07-12T0000,2401A,114.0134,33.5826,漯河市,市水利局,,29,27,24,17,19,90,90,151,133,23,20,6,6,0.4,0.5
2026-07-12T0000,2402A,114.0261,33.5697,漯河市,市广电局,,35,32,24,24,18,80,80,150,130,22,17,4,4,0.4,0.4
2026-07-12T0000,3478A,113.9691,33.568,漯河市,市图书馆,,32,29,27,22,17,81,81,150,131,24,18,6,9,0.5,0.6
2026-07-12T0000,4250A,114.089259,33.588274,漯河市,韶山路11号,,38,38,32,21,18,72,72,155,127,28,18,7,6,0.4,0.4
2026-07-12T0000,1798A,118.5084,31.6838,马鞍山市,湖东路四小,,21,21,34,14,14,30,30,84,53,2,5,7,8,0.5,0.5
2026-07-12T0000,1799A,118.5019,31.6449,马鞍山市,开发区,,33,33,38,17,16,35,35,90,58,2,4,6,7,0.4,0.5
2026-07-12T0000,3633A,118.4914,31.681,马鞍山市,雨山,,32,32,29,13,15,34,34,90,57,2,6,6,6,0.5,0.5
2026-07-12T0000,4191A,118.527362,31.722269,马鞍山市,慈湖高新区,,39,39,35,15,15,32,32,86,55,5,6,7,7,0.4,0.4
2026-07-12T0000,1686A,111.0285,21.469,茂名市,电白南海,,23,19,21,9,11,72,72,79,78,3,4,6,7,0.5,0.6
2026-07-12T0000,1687A,110.9294,21.6533,茂名市,茂石化七小,,39,39,24,27,15,50,50,70,65,10,8,17,11,0.4,0.4
2026-07-12T0000,1688A,110.9108,21.6688,茂名市,健康路,,40,29,15,28,15,50,50,69,66,7,6,23,9,0.5,0.5
2026-07-12T0000,1689A,110.8592,21.6826,茂名市,高岭,,45,44,29,31,17,41,41,64,60,10,8,31,10,/,/
2026-07-12T0000,3450A,111.0101,21.5165,茂名市,电白水东,,22,NA,12,10,11,68,68,75,72,4,5,3,5,/,/
2026-07-12T0000,2540A,103.8414,30.0871,眉山市,气象局,,26,20,14,18,7,61,61,87,59,20,7,6,11,0.7,0.8
2026-07-12T0000,3148A,103.829,30.0563,眉山市,区人社局,,34,34,26,7,4,87,87,98,79,12,15,10,7,0.7,0.5
2026-07-12T0000,4148A,103.8836,30.0695,眉山市,眉职院,,23,15,15,3,10,72,72,98,75,10,11,6,6,0.4,0.4
2026-07-12T0000,1690A,116.1248,24.3307,梅州市,梅江月梅,细颗粒物(PM2.5),98,NA,37,59,43,12,12,64,37,20,12,/,/,/,/
2026-07-12T0000,1691A,116.0798,24.2719,梅州市,梅县新城,,36,29,30,25,23,14,14,72,46,24,13,10,10,0.5,0.5
2026-07-12T0000,3315A,116.1234,24.2994,梅州市,梅龙,,41,41,30,26,21,25,25,61,45,16,10,8,7,0.7,0.7
2026-07-12T0000,1878A,104.7775,31.4741,绵阳市,富乐山,,23,11,21,9,12,71,71,104,93,6,8,11,11,0.7,0.7
2026-07-12T0000,1880A,104.6698,31.4668,绵阳市,高新区自来水公司,,24,8,20,6,12,76,76,111,95,3,6,11,11,0.6,0.7
2026-07-12T0000,3491A,104.6899,31.5324,绵阳市,西科大附属小学,,24,17,20,7,14,74,74,102,92,5,7,4,6,0.3,0.4
2026-07-12T0000,3492A,104.5647,31.5343,绵阳市,安州区旅游局,,25,NA,19,8,10,79,79,102,92,3,5,4,5,0.2,0.3
2026-07-12T0000,4146A,104.7092,31.4972,绵阳市,科技城新区公安局,,28,20,23,7,12,87,87,109,103,4,8,12,12,0.6,0.7
2026-07-12T0000,4226A,104.765114,31.453094,绵阳市,绵阳市气象局,,23,16,25,3,10,73,73,92,87,5,10,7,6,0.5,0.5
2026-07-12T0000,1784A,129.61,44.561,牡丹江市,环保大楼,,9,6,13,6,7,17,17,68,45,7,10,6,6,0.3,0.4
2026-07-12T0000,1787A,129.6364,44.6075,牡丹江市,机车工厂,,13,13,20,3,8,17,17,61,41,8,14,10,10,0.4,0.4
2026-07-12T0000,1788A,129.6386,44.5462,牡丹江市,第一中学,,18,18,16,3,4,19,19,76,40,5,10,8,9,0.4,0.4
2026-07-12T0000,4287A,129.5992,44.5964,牡丹江市,东晓云街98号,,25,25,25,3,5,18,18,70,50,8,9,5,5,0.3,0.3
2026-07-12T0000,2531A,105.0703,29.61,内江市,市监测站,,29,18,28,12,19,91,91,133,116,10,10,14,14,0.6,0.5
2026-07-12T0000,2533A,105.0657,29.5807,内江市,内江二中,,30,30,24,14,19,90,90,127,108,10,10,13,12,0.6,0.4
2026-07-12T0000,2534A,105.0407,29.5828,内江市,内江日报社,,27,NA,18,14,19,86,86,128,108,12,10,9,9,0.6,0.5
2026-07-12T0000,4147A,105.0433,29.6105,内江市,玉峰路西段888号,,26,18,27,15,27,82,82,112,95,10,11,11,12,0.5,0.4
2026-07-12T0000,2628A,92.0653,31.4846,那曲市,那曲监测站,,20,13,16,10,12,63,63,87,80,11,12,3,4,0.4,0.4
2026-07-12T0000,4243A,92.0515,31.4787,那曲市,那曲市委宣传部,,21,6,8,3,7,67,67,76,75,6,9,6,6,0.2,0.2
2026-07-12T0000,1291A,115.8887,28.7006,南昌市,省林业公司,,23,17,25,13,17,71,71,90,82,5,9,4,4,0.6,0.6
2026-07-12T0000,1292A,115.813,28.7443,南昌市,林科所,,24,24,18,13,15,69,69,87,79,2,3,5,5,0.5,0.6
2026-07-12T0000,1294A,115.8518,28.687,南昌市,建工学校,,22,16,22,14,17,70,70,89,82,6,8,6,7,0.4,0.5
2026-07-12T0000,1295A,115.8926,28.6425,南昌市,象湖,,22,19,17,15,17,68,68,90,82,8,9,9,9,0.3,0.4
2026-07-12T0000,3046A,115.9084,28.6062,南昌市,机电学校,,37,37,33,14,18,75,75,90,85,2,6,6,6,0.5,0.6
2026-07-12T0000,3690A,115.9718,28.7032,南昌市,外国语学校,,31,31,28,13,16,75,75,84,78,4,8,11,11,0.6,0.7
2026-07-12T0000,4106A,115.7923,28.6873,南昌市,工业二路,,24,24,30,16,17,69,69,93,84,2,4,6,6,0.4,0.5
2026-07-12T0000,4192A,115.931587,28.686774,南昌市,南京东路235号,,25,25,23,14,18,78,78,93,87,6,9,4,4,0.5,0.6
2026-07-12T0000,1906A,106.0791,30.8022,南充市,南充市委,,28,28,22,14,11,49,49,99,86,17,9,6,6,0.3,0.2
2026-07-12T0000,1907A,106.1038,30.8215,南充市,南充炼油厂,,25,23,23,13,12,77,77,103,95,11,8,7,8,0.4,0.4
2026-07-12T0000,4227A,106.108336,30.788436,南充市,梨树横街98号,,28,28,22,15,13,70,70,104,91,21,11,7,7,0.4,0.3
2026-07-12T0000,4304A,106.1172,30.843,南充市,清泉寺北路188号,颗粒物(PM10),55,57,31,16,13,57,57,101,87,18,8,7,8,0.5,0.5
2026-07-12T0000,4305A,106.067,30.7616,南充市,同庆路1号,,32,32,22,15,12,58,58,105,96,24,12,6,7,0.4,0.4
2026-07-12T0000,1151A,118.8033,32.1085,南京市,迈皋桥,,25,25,25,7,8,39,39,96,58,6,9,5,6,0.3,0.4
2026-07-12T0000,1152A,118.7487,32.057,南京市,草场门,,27,27,27,11,10,33,33,84,49,4,6,4,5,0.3,0.4
2026-07-12T0000,1154A,118.770105,32.004342,南京市,中华门,,31,31,28,10,8,30,30,85,50,4,5,6,7,0.2,0.2
2026-07-12T0000,1155A,118.8059,32.0329,南京市,瑞金路,,34,34,27,9,8,33,33,85,51,7,8,4,4,0.4,0.4
2026-07-12T0000,1156A,118.7946,32.0774,南京市,玄武湖,,30,30,31,8,7,29,29,76,43,3,6,7,7,0.3,0.4
2026-07-12T0000,1157A,118.6415,32.0964,南京市,浦口,,26,26,31,10,11,28,28,86,49,7,9,4,4,0.4,0.4
2026-07-12T0000,1158A,118.730129,32.000956,南京市,奥体中心,,31,31,30,6,7,31,31,89,53,5,6,4,4,0.4,0.4
2026-07-12T0000,1159A,118.9072,32.1047,南京市,仙林大学城,,41,41,34,9,7,31,31,86,50,7,7,8,8,0.5,0.6
2026-07-12T0000,3422A,118.8443,31.919,南京市,江宁彩虹桥,,34,34,34,8,7,34,34,95,56,3,2,4,4,0.4,0.4
2026-07-12T0000,3427A,118.8497,32.3599,南京市,六合雄州,,32,32,29,6,7,29,29,79,42,6,12,4,4,0.5,0.5
2026-07-12T0000,4086A,118.7641,32.0841,南京市,新模范马路66号,,29,29,32,8,6,38,38,92,55,2,3,4,4,0.2,0.3
2026-07-12T0000,4249A,118.8707617,31.34017673,南京市,汶溪路181号,,34,34,27,8,5,33,33,82,51,11,12,3,4,0.5,0.5
2026-07-12T0000,4312A,119.019,31.6512,南京市,中山西路1号,,24,24,28,9,6,30,30,81,46,7,9,4,4,0.4,0.4
2026-07-12T0000,1401A,108.3098,22.788,南宁市,二十一中,,25,21,20,17,11,69,69,88,77,10,9,3,2,0.7,0.6
2026-07-12T0000,1402A,108.3135,22.8529,南宁市,北湖,,35,31,24,24,15,64,64,83,68,10,12,3,3,0.7,0.6
2026-07-12T0000,1403A,108.3205,22.8222,南宁市,市监测站,,24,24,22,14,11,76,76,97,85,6,6,3,3,0.6,0.5
2026-07-12T0000,1404A,108.3828,22.8038,南宁市,大自然花园,,27,27,20,9,13,61,61,83,68,10,9,4,3,0.8,0.7
2026-07-12T0000,1406A,108.2397,22.8462,南宁市,区农职院,,35,NA,26,24,17,55,55,96,69,12,8,3,3,0.5,0.5
2026-07-12T0000,1407A,108.3285,22.7356,南宁市,英华嘉园,,32,32,22,16,13,64,64,80,69,9,8,4,4,0.6,0.5
2026-07-12T0000,3401A,108.4829,22.762,南宁市,红星社区,,26,23,21,18,12,63,63,82,71,12,9,10,5,0.8,0.5
2026-07-12T0000,4132A,108.2927,23.1477,南宁市,起凤路9号,颗粒物(PM10),53,54,25,34,14,43,43,73,56,20,9,2,1,0.7,0.5
2026-07-12T0000,4221A,108.2177,22.7774,南宁市,乐贤路16号,,36,35,26,25,15,48,48,102,68,26,18,12,5,0.6,0.5
2026-07-12T0000,2332A,118.1682,26.6371,南平市,南平市监测站,,16,15,21,7,15,49,49,56,47,5,9,4,4,0.3,0.4
2026-07-12T0000,2334A,118.1757,26.6276,南平市,南平七中,,15,14,22,6,14,46,46,51,46,5,9,4,4,0.2,0.3
2026-07-12T0000,1168A,120.9056,31.9669,南通市,狼山街道,,32,32,22,13,10,38,38,42,36,4,3,3,4,0.1,0.2
2026-07-12T0000,1170A,120.8635,32.0231,南通市,城中,,49,49,34,17,11,35,35,40,33,2,2,3,2,0.2,0.2
2026-07-12T0000,1171A,120.9376,31.9301,南通市,星湖花园,,38,38,26,13,10,36,36,39,34,2,3,2,3,0.2,0.2
2026-07-12T0000,1172A,120.8053,32.046,南通市,紫琅学院,颗粒物(PM10),53,54,31,13,10,35,35,41,33,2,2,4,5,0.4,0.4
2026-07-12T0000,3291A,121.0631,32.0644,南通市,通州监测站,,31,31,27,13,8,35,35,36,33,2,2,6,6,0.4,0.4
2026-07-12T0000,3432A,120.9348,31.9874,南通市,环境教育馆,,41,41,31,14,10,34,34,37,32,1,4,5,5,0.4,0.4
2026-07-12T0000,4091A,120.8692,31.9885,南通市,洪江路,,25,25,22,14,11,34,34,38,32,2,2,4,4,0.7,0.7
2026-07-12T0000,2404A,112.5338,33.0086,南阳市,瓦房庄,,23,23,24,3,11,66,66,117,90,17,11,5,4,0.4,0.4
2026-07-12T0000,2405A,112.5002,32.9734,南阳市,汉画馆,,25,25,24,3,11,69,69,120,91,16,12,6,6,0.4,0.5
2026-07-12T0000,2406A,112.5778,33.0144,南阳市,气象站,,21,21,19,3,11,60,60,126,90,26,16,6,6,0.3,0.4
2026-07-12T0000,2407A,112.548,32.9687,南阳市,理工学院,,27,27,22,10,13,56,56,118,86,22,12,7,6,0.4,0.4
2026-07-12T0000,4008A,112.5233,32.9921,南阳市,卧龙区政府,,21,17,21,3,13,67,67,123,93,16,11,6,5,0.4,0.4
2026-07-12T0000,1234A,121.8352,29.9111,宁波市,区环保大楼,,19,19,33,3,10,45,45,42,42,2,2,4,6,0.5,0.7
2026-07-12T0000,1235A,121.5595,29.8208,宁波市,万里学院,NA,NA,17,26,3,6,45,45,44,44,2,3,NA,5,NA,0.3
2026-07-12T0000,1236A,121.713,29.9564,宁波市,龙赛医院,,16,16,32,3,9,42,42,41,41,1,2,6,6,0.2,0.1
2026-07-12T0000,1240A,121.5855,29.8635,宁波市,太古小学,,13,10,27,3,8,41,41,40,40,2,2,4,4,0.5,0.5
2026-07-12T0000,1241A,121.5239,29.8673,宁波市,市环境监测中心,,15,15,25,3,7,42,42,39,39,2,2,7,7,0.2,0.3
2026-07-12T0000,2871A,121.6156,29.9015,宁波市,万里国际学校,,15,12,26,3,8,45,45,43,43,2,2,6,6,0.3,0.4
2026-07-12T0000,3710A,121.5593,29.8976,宁波市,白沙活动中心,,14,13,23,3,10,42,42,40,40,2,2,7,7,0.5,0.5
2026-07-12T0000,4095A,121.8962,29.7529,宁波市,中科路88号,,18,18,31,6,9,48,48,45,45,2,2,6,6,0.4,0.4
2026-07-12T0000,2341A,119.5387,26.6611,宁德市,宁德市监测站,,14,14,12,3,3,42,42,46,46,7,8,4,5,0.5,0.5
2026-07-12T0000,3209A,119.5231,26.6562,宁德市,宁德一中,,13,10,11,3,4,41,41,48,47,2,3,9,9,0,0
2026-07-12T0000,2618A,98.859,25.8541,怒江傈僳族自治州,州监测站,,15,10,12,10,8,30,30,54,47,10,7,5,5,0.5,0.4
2026-07-12T0000,2619A,98.8607,25.8168,怒江傈僳族自治州,泸水一中,,18,16,13,12,11,23,23,48,40,12,11,4,4,0.5,0.5
2026-07-12T0000,1888A,101.6891,26.571,攀枝花市,弄弄坪,,39,39,42,13,10,47,47,58,54,15,20,12,12,0.9,0.3
2026-07-12T0000,1889A,101.577,26.5914,攀枝花市,河门口,,37,37,36,18,14,53,53,71,66,8,13,26,20,0.7,1
2026-07-12T0000,1891A,101.7365,26.4986,攀枝花市,仁和,,49,34,17,34,12,36,36,45,32,11,9,11,8,0.9,0.6
2026-07-12T0000,2835A,101.7222,26.567,攀枝花市,四十中小,,23,23,29,15,12,49,49,66,61,8,16,18,21,1.1,0.9
2026-07-12T0000,1604A,122.0303,41.1489,盘锦市,开发区,,17,17,21,9,12,50,50,58,50,10,12,8,8,0.4,0.5
2026-07-12T0000,1605A,122.0486,41.0883,盘锦市,兴隆台,,23,20,21,16,12,30,30,54,44,16,15,4,4,0.5,0.6
2026-07-12T0000,1606A,121.8297,41.1026,盘锦市,新生街道,,22,20,19,15,13,33,33,88,42,8,7,4,6,0.4,0.5
2026-07-12T0000,1832A,113.3257,33.7423,平顶山市,新华旅馆,NA,NA,39,29,20,16,88,88,158,128,35,18,10,6,NA,0.4
2026-07-12T0000,1833A,113.2917,33.737,平顶山市,规划设计院,,34,34,27,19,15,80,80,138,114,26,16,8,8,0.4,0.5
2026-07-12T0000,1834A,113.182,33.7738,平顶山市,平顶山工学院,,31,28,19,19,16,97,97,159,138,21,12,8,6,0.6,0.6
2026-07-12T0000,3594A,112.8736,33.9068,平顶山市,石龙区,,43,43,24,12,16,78,78,140,131,24,12,10,9,0.7,0.6
2026-07-12T0000,4116A,113.284,33.7139,平顶山市,姚电大道23号,,35,35,31,24,16,74,74,157,124,33,16,8,8,0.4,0.4
2026-07-12T0000,2656A,106.6633,35.5338,平凉市,聚贤嘉苑,,27,22,19,8,5,85,85,86,86,9,9,7,7,0.5,0.6
2026-07-12T0000,2657A,106.7021,35.5307,平凉市,博物馆,,30,29,26,3,4,94,94,91,91,7,6,16,16,0.4,0.5
2026-07-12T0000,2348A,113.8384,27.6436,萍乡市,中医院,,34,34,30,22,17,37,37,103,56,13,12,8,10,0.7,0.7
2026-07-12T0000,2350A,113.8677,27.6438,萍乡市,市环保局,,39,39,26,22,20,31,31,105,62,12,10,13,15,0.4,0.4
2026-07-12T0000,2351A,113.8663,27.6202,萍乡市,安源区政府,,35,33,32,24,19,33,33,102,59,10,11,9,11,0.5,0.6
2026-07-12T0000,4107A,113.8686,27.6668,萍乡市,联洪村委会,,41,41,32,24,19,13,13,100,53,28,9,8,10,0.4,0.4
2026-07-12T0000,2319A,119.0142,25.4324,莆田市,荔城区仓后路,,20,20,19,12,5,33,33,41,34,8,6,/,/,/,/
2026-07-12T0000,2320A,119.0016,25.4553,莆田市,莆田市监测站,,22,22,13,11,3,30,30,47,NA,6,5,3,3,0.4,0.3
2026-07-12T0000,2321A,119.112,25.4561,莆田市,涵江区六中,,22,18,16,15,6,37,37,44,40,8,7,/,/,0.4,0.3
2026-07-12T0000,2322A,119.1014,25.3215,莆田市,秀屿区政府,,22,19,19,15,6,42,42,46,41,8,7,6,5,0.7,0.6
2026-07-12T0000,2392A,115.0312,35.7636,濮阳市,环保局,,32,32,38,14,18,101,101,148,142,12,11,4,4,0.3,0.4
2026-07-12T0000,3021A,115,35.7667,濮阳市,濮水河管理处,,34,34,29,18,18,98,98,148,141,10,9,3,2,0.6,0.7
2026-07-12T0000,4118A,115.0552,35.7816,濮阳市,中原东路68号,颗粒物(PM10),53,54,50,22,18,99,99,146,139,9,8,5,5,0.8,0.9
2026-07-12T0000,4216A,115.0923632,35.76857718,濮阳市,任丘路479号,,39,39,39,19,19,100,100,154,146,8,9,2,2,0.6,0.6
2026-07-12T0000,2601A,100.9801,22.7634,普洱市,市环保局,,35,35,27,13,8,16,16,44,31,6,6,6,5,0.9,0.9
2026-07-12T0000,2602A,100.9763,22.8237,普洱市,普洱第二中学,,30,30,25,16,10,12,12,45,29,8,8,6,6,0.8,0.7
2026-07-12T0000,3345A,131.0413,45.7795,七台河市,中波台,,12,NA,6,8,11,26,26,76,49,18,15,5,6,0.5,0.5
2026-07-12T0000,3637A,131.0136,45.7688,七台河市,人民广场,,10,10,19,3,9,30,30,68,41,9,11,5,5,0.5,0.5
2026-07-12T0000,3684A,130.8639,45.8144,七台河市,新建矿广场,,23,17,19,16,12,10,10,55,31,37,19,17,15,0.5,0.3
2026-07-12T0000,1779A,123.9307,47.3641,齐齐哈尔市,安居小区,,24,24,31,9,18,70,70,78,75,5,7,6,4,0.6,0.8
2026-07-12T0000,1780A,123.9497,47.3389,齐齐哈尔市,中心广场,,22,20,39,7,18,70,70,81,75,11,12,5,5,0.5,0.6
2026-07-12T0000,1781A,123.9483,47.3229,齐齐哈尔市,农牧车辆厂,,31,31,55,12,43,72,72,82,78,8,8,6,6,0.0,0.1
2026-07-12T0000,1783A,123.9442,47.2994,齐齐哈尔市,市环境监测站,,22,NA,26,15,37,66,66,76,73,8,7,3,2,0.3,0.4
2026-07-12T0000,3662A,123.6341,47.2079,齐齐哈尔市,富区青少年活动中心,,19,19,34,3,12,58,58,89,80,12,9,6,5,0.4,0.5
2026-07-12T0000,2591A,107.9765,26.5724,黔东南苗族侗族自治州,市环境监测站,,15,13,13,10,10,34,34,66,48,4,5,2,2,0.3,0.3
2026-07-12T0000,2881A,107.8909,26.531,黔东南苗族侗族自治州,凯里学院,,15,NA,9,10,11,18,18,68,44,10,5,2,2,0.5,0.5
2026-07-12T0000,2593A,107.5223,26.2371,黔南布依族苗族自治州,小围寨,,12,12,11,3,7,27,27,60,49,11,5,5,5,0.5,0.5
2026-07-12T0000,3538A,107.5175,26.2977,黔南布依族苗族自治州,沙坝,,14,14,9,6,6,23,23,60,48,7,4,3,3,0.6,0.6
2026-07-12T0000,2589A,104.9022,25.0943,黔西南布依族苗族自治州,场坝街,,15,14,13,9,6,48,48,68,61,6,3,7,2,0.3,0.2
2026-07-12T0000,2590A,104.8812,25.0994,黔西南布依族苗族自治州,坪东大道,,15,15,13,8,6,35,35,67,57,9,3,6,5,0.4,0.3
2026-07-12T0000,2502A,108.6238,21.9667,钦州市,市环保站,,21,19,23,3,8,67,67,92,73,6,10,3,6,0.5,0.5
2026-07-12T0000,2503A,108.655,21.9481,钦州市,沙埠小学,,24,24,30,8,8,62,62,88,70,10,10,2,2,1.0,0.9
2026-07-12T0000,2504A,108.5989,21.7435,钦州市,港区一小,颗粒物(PM10),51,51,33,11,8,23,23,76,64,44,14,5,3,0.9,0.7
2026-07-12T0000,3404A,108.5959,21.9634,钦州市,北职校,,22,22,25,8,11,63,63,94,72,7,12,3,3,0.5,0.5
2026-07-12T0000,1046A,119.5247,39.9346,秦皇岛市,建设大厦,,41,41,39,6,14,57,57,87,81,5,15,5,5,0.2,0.4
2026-07-12T0000,3132A,119.5979,39.938,秦皇岛市,文明里,,38,38,49,10,16,53,53,83,78,2,9,6,6,0.2,0.2
2026-07-12T0000,4066A,119.7458,39.9952,秦皇岛市,南园路157号,,33,33,31,3,14,49,49,60,55,1,14,8,8,0.2,0.3
2026-07-12T0000,4067A,119.5131,39.8858,秦皇岛市,翠岛大街1号,,29,29,24,14,14,51,51,80,76,4,7,3,3,0.2,0.3
2026-07-12T0000,4198A,119.509013,39.825305,秦皇岛市,北戴河轮滑馆,颗粒物(PM10),51,51,42,9,15,50,50,90,79,5,9,9,9,0.2,0.3
2026-07-12T0000,1310A,120.404,36.0625,青岛市,市南区东部子站,,24,24,29,7,10,29,29,38,37,9,10,7,6,0.3,0.3
2026-07-12T0000,1311A,120.362344,36.10282,青岛市,四方区子站,,24,24,25,8,10,39,39,44,43,3,2,11,10,0.6,0.6
2026-07-12T0000,1312A,120.294373,36.054183,青岛市,市南区西部子站,,22,22,24,7,9,37,37,44,43,4,6,6,6,0.5,0.5
2026-07-12T0000,1313A,120.4581,36.0858,青岛市,崂山区子站,,48,48,36,10,11,37,37,40,40,1,4,6,6,0.2,0.2
2026-07-12T0000,1315A,120.3945,36.3083,青岛市,城阳区子站,,24,24,23,11,9,37,37,40,36,1,2,8,7,0.2,0.2
2026-07-12T0000,3642A,120.3454,36.0735,青岛市,市北区南部,,25,25,25,6,7,27,27,44,42,8,7,4,2,0.7,0.7
2026-07-12T0000,3643A,120.3897,36.18,青岛市,李沧区北部,,14,14,16,8,8,34,34,40,38,5,7,4,3,0.5,0.5
2026-07-12T0000,4110A,120.5222,36.4089,青岛市,盟旺路653号,,27,27,20,7,7,35,35,41,37,4,4,6,6,0.6,0.6
2026-07-12T0000,4290A,120.196923,35.954556,青岛市,珠江路669号,,24,24,28,6,9,29,29,36,34,6,5,4,4,0.2,0.2
2026-07-12T0000,4291A,120.0424,35.8656,青岛市,黄岛区人民政府广场,,31,31,32,8,10,34,34,42,38,5,5,5,5,0.5,0.5
2026-07-12T0000,1703A,113.0218,23.7086,清远市,凤城街办,颗粒物(PM10),53,53,40,28,24,66,66,149,107,23,19,/,/,/,/
2026-07-12T0000,3025A,113.0479,23.6343,清远市,技师学院,,48,48,38,28,23,54,54,156,114,18,21,7,7,0.6,0.6
2026-07-12T0000,3318A,112.9898,23.7403,清远市,清新太和,,30,22,37,10,24,96,96,166,122,7,12,9,9,0.5,0.5
2026-07-12T0000,3455A,113.076,23.72,清远市,清城东城,,34,34,36,16,23,59,59,140,108,14,12,/,/,/,/
2026-07-12T0000,2661A,107.6325,35.7357,庆阳市,庆阳五中,,26,15,18,7,9,81,81,89,86,6,6,5,5,0.3,0.1
2026-07-12T0000,2662A,107.6361,35.7067,庆阳市,市环保局,,25,17,21,3,10,80,80,88,84,7,8,5,6,0.4,0.4
2026-07-12T0000,1916A,103.7897,25.5036,曲靖市,环境监测站,,15,13,23,6,12,46,46,96,77,9,9,1,2,0.6,0.6
2026-07-12T0000,1917A,103.8013,25.5357,曲靖市,烟厂办公区,,16,15,20,3,11,51,51,94,77,6,8,1,2,0.6,0.6
2026-07-12T0000,3376A,103.7926,25.4651,曲靖市,南苑二区,,20,20,23,8,13,41,41,90,71,12,10,3,4,0.7,0.6
2026-07-12T0000,3377A,103.7442,25.5259,曲靖市,曲靖师范学院,,22,22,20,14,14,46,46,95,74,11,13,4,5,0.4,0.4
2026-07-12T0000,1264A,118.8694,28.94,衢州市,环保大楼,,9,7,20,3,9,26,26,51,31,7,10,/,/,/,/
2026-07-12T0000,1266A,118.8622,28.9809,衢州市,衢州学院,,13,13,24,3,10,27,27,51,30,11,13,5,6,0.3,0.4
2026-07-12T0000,4097A,118.9646,28.9832,衢州市,衢州三中,,8,8,19,3,10,22,22,52,31,10,11,4,3,0.8,0.6
2026-07-12T0000,1611A,118.5818,24.9116,泉州市,涂山街,,37,37,29,21,18,34,34,63,42,16,9,8,4,0.6,0.6
2026-07-12T0000,1612A,118.597,24.8976,泉州市,津头埔,,31,31,30,16,15,36,36,58,38,20,13,6,3,0.5,0.5
2026-07-12T0000,1613A,118.6669,24.9422,泉州市,万安,,38,38,27,17,14,32,32,50,40,19,11,8,4,0.5,0.5
2026-07-12T0000,4105A,118.6355,24.9148,泉州市,霞新路6号,,30,29,22,21,16,34,34,61,41,18,9,/,/,0.5,0.4
2026-07-12T0000,2626A,88.8873,29.2723,日喀则市,日喀则监测站,,29,12,4,11,2,91,91,92,88,3,4,10,9,0.4,0.4
2026-07-12T0000,3726A,88.8775,29.2425,日喀则市,林业技术推广中心,,30,NA,7,12,2,96,96,96,87,2,3,10,10,0.4,0.4
2026-07-12T0000,1659A,119.4711,35.421,日照市,监测站,,19,19,24,9,12,33,33,35,32,5,10,6,7,0.2,0.2
2026-07-12T0000,1660A,119.523,35.4216,日照市,市政府广场,,22,22,23,7,9,40,40,43,38,2,5,11,10,0.4,0.4
2026-07-12T0000,1661A,119.5511,35.4113,日照市,港务局,,24,24,29,7,8,38,38,33,33,8,8,7,6,0.9,0.9
2026-07-12T0000,3507A,119.5326,35.4627,日照市,职业技术学院,,24,24,27,7,6,42,42,45,41,2,2,8,8,0.3,0.3
2026-07-12T0000,3604A,119.3267,35.1043,日照市,岚山环保分局,NA,NA,22,30,8,12,NA,NA,38,NA,3,6,9,9,0.5,0.6
2026-07-12T0000,1835A,111.1922,34.7752,三门峡市,市政府,,19,12,25,3,12,60,60,94,76,6,8,5,6,0.8,0.8
2026-07-12T0000,1836A,111.1588,34.794,三门峡市,开发区,NA,NA,NA,27,10,14,63,63,96,77,11,11,4,4,0.5,0.5
2026-07-12T0000,3039A,111.1911,34.7829,三门峡市,三门峡市第一小学,,21,8,25,3,12,67,67,92,79,6,7,5,4,0.6,0.6
2026-07-12T0000,3598A,111.1031,34.719,三门峡市,富达温泉假日酒店,,19,14,23,3,11,59,59,91,68,9,13,5,7,0.5,0.5
2026-07-12T0000,2324A,117.621,26.2626,三明市,三钢,,16,15,28,10,21,49,49,64,43,9,14,13,12,0.5,1.1
2026-07-12T0000,2325A,117.6352,26.2714,三明市,三明二中,,18,18,27,12,19,54,54,75,50,6,11,4,4,0.4,0.8
2026-07-12T0000,2326A,117.6028,26.2377,三明市,三元区政府,,21,21,28,12,20,48,48,63,47,7,11,14,12,0.6,0.8
2026-07-12T0000,1877A,109.4962,18.2682,三亚市,河西子站,,17,17,22,8,11,52,52,53,51,2,4,3,3,0.1,0.1
2026-07-12T0000,3540A,109.7348,18.3443,三亚市,君悦子站,,15,6,21,6,9,45,45,58,53,6,6,2,2,0.1,0.2
2026-07-12T0000,4135A,109.1714,18.3739,三亚市,城东小学站,,31,31,29,10,11,20,20,54,44,9,5,/,/,/,/
2026-07-12T0000,2624A,91.7592,29.234,山南市,山南监测站,,19,8,4,3,2,59,59,77,69,10,5,13,10,0.2,0.2
2026-07-12T0000,2625A,91.7701,29.2436,山南市,山南人民医院,,19,8,7,3,3,60,60,74,68,7,4,11,8,0.2,0.1
2026-07-12T0000,1674A,116.6795,23.3666,汕头市,金平子站,,36,26,36,22,25,113,113,104,84,9,10,3,4,0.8,0.8
2026-07-12T0000,1675A,116.7248,23.3632,汕头市,龙湖子站,,34,34,42,20,24,96,96,95,79,5,7,7,8,/,/
2026-07-12T0000,1676A,116.7257,23.2774,汕头市,濠江子站,,49,49,50,19,28,84,84,116,113,10,10,9,9,/,/
2026-07-12T0000,1677A,116.7518,23.4712,汕头市,澄海子站,颗粒物(PM10),53,54,43,24,25,74,74,90,68,10,11,4,6,0.6,0.7
2026-07-12T0000,1678A,116.6088,23.2539,汕头市,潮阳子站,,42,42,32,18,22,107,107,102,102,5,7,7,7,0.8,0.8
2026-07-12T0000,3444A,116.4539,23.2684,汕头市,潮南峡山,,34,NA,33,19,20,107,107,88,87,6,6,12,8,0.5,0.4
2026-07-12T0000,3624A,116.4069,23.2533,汕头市,潮南子站,,32,23,36,17,20,100,100,87,87,5,8,6,7,/,/
2026-07-12T0000,1693A,115.3653,22.7751,汕尾市,市环保局,,27,NA,30,14,15,84,84,162,127,6,10,5,6,0.6,0.5
2026-07-12T0000,1695A,115.362,22.7926,汕尾市,新城中学,,31,NA,30,11,15,97,97,182,146,5,8,6,6,0.6,0.6
2026-07-12T0000,2645A,109.9155,33.8714,商洛市,监测站,,25,25,24,15,16,49,49,99,65,6,8,4,6,0.5,0.5
2026-07-12T0000,3045A,109.9647,33.8486,商洛市,商州区中学,,33,33,24,18,12,52,52,85,62,6,7,4,5,0.8,0.8
2026-07-12T0000,2408A,115.6701,34.4283,商丘市,环境监测站,,29,25,34,20,21,76,76,158,118,5,6,5,5,0.4,0.5
2026-07-12T0000,2409A,115.6458,34.4047,商丘市,粮食局,,35,35,33,13,18,76,76,158,118,6,6,1,2,0.4,0.5
2026-07-12T0000,3171A,115.6069,34.4465,商丘市,梁园区档案局,,31,31,33,16,17,75,75,147,117,5,6,1,2,0.2,0.3
2026-07-12T0000,4119A,115.6701,34.3767,商丘市,北海东路185号,,37,37,35,16,18,68,68,160,111,11,8,4,4,0.3,0.4
2026-07-12T0000,4120A,115.6172,34.3704,商丘市,中山大街3号,,40,40,36,12,14,72,72,151,115,9,9,6,6,0.4,0.5
2026-07-12T0000,1141A,121.401,31.2382,上海市,普陀,,17,17,38,8,16,44,44,37,36,3,5,5,5,0,0
2026-07-12T0000,1142A,121.4774,31.2043,上海市,十五厂,,20,20,41,10,18,39,39,34,34,2,3,5,5,0.4,0.4
2026-07-12T0000,1143A,121.4673,31.3011,上海市,虹口,,20,20,41,9,17,40,40,34,32,2,2,4,4,0.5,0.4
2026-07-12T0000,1147A,121.4253,31.226,上海市,静安监测站,NA,NA,NA,38,NA,16,NA,NA,39,NA,NA,5,NA,7,NA,0.3
2026-07-12T0000,1148A,121.7029,31.1905,上海市,浦东川沙,,31,31,39,13,16,51,51,45,45,2,3,8,8,0.4,0.4
2026-07-12T0000,1149A,121.5339,31.229,上海市,浦东新区监测站,,24,24,41,10,16,40,40,33,33,3,3,6,6,0.3,0.4
2026-07-12T0000,1150A,121.5776,31.2038,上海市,浦东张江,,23,23,37,10,17,51,51,44,44,2,2,6,6,0.1,0.1
2026-07-12T0000,3265A,121.4242,31.3303,上海市,宝山庙行,,39,39,56,10,17,39,39,34,32,2,2,11,11,0.1,0.1
2026-07-12T0000,3266A,121.8789,31.4662,上海市,崇明上实东滩,,38,38,38,17,16,44,44,37,37,2,3,9,9,0.2,0.2
2026-07-12T0000,3268A,121.316,31.2839,上海市,嘉定南翔,,17,17,35,6,16,41,41,34,34,2,5,3,4,0.1,0.2
2026-07-12T0000,3269A,121.3357,30.7455,上海市,金山新城,,45,45,39,13,16,42,42,33,33,2,2,3,4,0.5,0.4
2026-07-12T0000,3270A,121.4996,31.0741,上海市,闵行浦江,,27,27,40,9,16,36,36,31,31,2,2,6,6,0.3,0.3
2026-07-12T0000,3271A,121.2886,31.1663,上海市,青浦徐泾,,19,19,35,7,15,37,37,35,33,2,2,4,4,0.1,0.1
2026-07-12T0000,3272A,121.2193,31.0382,上海市,松江图书馆,,20,20,38,9,16,41,41,39,37,5,8,6,6,0.3,0.3
2026-07-12T0000,3273A,121.3904,31.206,上海市,长宁仙霞,,18,18,37,7,17,37,37,33,33,2,2,6,6,0.2,0.2
2026-07-12T0000,3274A,121.7964,31.0507,上海市,浦东惠南,,43,43,43,12,16,59,59,54,54,2,3,8,8,0.6,0.6
2026-07-12T0000,3544A,121.4891,30.925,上海市,奉贤南桥新城,,31,31,37,11,14,44,44,38,38,1,3,2,3,0.5,0.5
2026-07-12T0000,4183A,121.417401,31.16637,上海市,冠生园路458号,,25,25,36,7,16,41,41,37,37,2,4,5,5,0.3,0.3
2026-07-12T0000,4205A,121.541914,31.268301,上海市,宁武路151号,,26,26,49,10,18,42,42,36,36,2,5,6,6,0.3,0.3
2026-07-12T0000,2382A,117.9758,28.4439,上饶市,市监测站,,17,17,24,10,11,33,33,62,44,12,6,9,8,/,/
2026-07-12T0000,2383A,117.9521,28.4637,上饶市,凤凰光学,,16,16,23,9,10,37,37,63,46,3,6,3,7,0.5,0.5
2026-07-12T0000,3685A,117.897,28.4316,上饶市,双创科技城,,19,19,26,8,12,36,36,59,40,6,11,4,6,0.4,0.4
2026-07-12T0000,4211A,118.190438,28.444845,上饶市,裕丰大道,,16,12,20,11,9,16,16,54,32,13,8,13,9,0.8,0.7
2026-07-12T0000,1669A,113.5821,24.7733,韶关市,市八中,,20,20,47,10,19,30,30,101,64,17,10,8,7,0.6,0.5
2026-07-12T0000,1671A,113.5916,24.7973,韶关市,园林处,,50,50,28,32,22,17,17,108,59,28,13,7,8,/,/
2026-07-12T0000,1673A,113.5971,24.6864,韶关市,曲江监测站,,32,32,42,16,27,42,42,116,76,18,13,6,11,0.7,0.6
2026-07-12T0000,2809A,113.6668,24.7756,韶关市,大学路288号,,19,NA,34,13,21,35,35,117,63,7,9,10,18,/,/
2026-07-12T0000,3622A,113.5556,24.8082,韶关市,碧湖山庄,,22,22,29,14,18,33,33,85,52,15,11,5,4,0.6,0.5
2026-07-12T0000,2464A,111.5277,27.2442,邵阳市,市化工厂,,48,35,24,33,22,26,26,104,69,14,9,6,7,0.6,0.4
2026-07-12T0000,2466A,111.4327,27.2276,邵阳市,市环保局,,45,NA,27,31,22,34,34,101,69,12,8,4,4,0.4,0.4
2026-07-12T0000,4218A,111.446,27.2472,邵阳市,北塔二期4-26地块,NA,NA,NA,32,10,14,38,38,86,61,10,8,6,5,0.5,0.5
2026-07-12T0000,4219A,111.4739,27.2282,邵阳市,邵水西路287号,,40,37,27,28,22,49,49,99,73,9,7,2,2,0.4,0.4
2026-07-12T0000,1247A,120.6053,29.9927,绍兴市,城东开发委,,16,16,31,7,14,45,45,39,38,1,4,8,8,0.2,0.2
2026-07-12T0000,2921A,120.5482,30.0003,绍兴市,树下王站,,14,10,28,3,11,43,43,37,35,2,5,3,4,0.3,0.3
2026-07-12T0000,3408A,120.5685,29.936,绍兴市,绍兴中专,,16,16,31,3,10,44,44,40,38,2,3,4,5,0.6,0.5
2026-07-12T0000,3409A,120.4905,30.086,绍兴市,柯桥区政府,,20,20,30,7,11,44,44,36,36,3,7,5,5,0.4,0.4
2026-07-12T0000,3410A,120.8751,30.0249,绍兴市,重华小学,,14,14,31,6,13,41,41,36,36,2,5,8,10,0.6,0.6
2026-07-12T0000,3411A,120.837,30.0137,绍兴市,上虞中学,,14,14,33,6,12,44,44,37,37,3,6,7,8,0.3,0.3
2026-07-12T0000,3560A,120.4715,30.0414,绍兴市,柯桥妇保,,15,15,29,7,13,45,45,37,37,1,4,6,6,0.2,0.2
2026-07-12T0000,3658A,120.6156,30.0762,绍兴市,袍江中学,,18,18,35,8,13,45,45,38,38,1,5,5,5,0.2,0.3
2026-07-12T0000,1356A,114.0948,22.5506,深圳市,通心岭子站,,17,16,23,9,12,52,52,194,150,14,14,4,3,0.9,0.9
2026-07-12T0000,1357A,114.1153,22.5713,深圳市,洪湖,,25,25,25,13,13,50,50,191,149,15,16,6,6,0.5,0.4
2026-07-12T0000,1358A,113.9823,22.5398,深圳市,华侨城,,19,19,28,7,12,48,48,185,129,9,17,/,/,/,/
2026-07-12T0000,1359A,113.9181,22.517,深圳市,南海子站,,15,15,25,7,10,44,44,199,128,10,14,5,6,0.7,0.7
2026-07-12T0000,1360A,114.2345,22.565,深圳市,盐田,,28,28,24,14,14,88,88,173,151,16,16,6,6,0.4,0.4
2026-07-12T0000,1363A,114.4911,22.5381,深圳市,南澳,,25,24,25,17,6,74,74,151,116,13,14,/,/,/,/
2026-07-12T0000,1364A,114.41,22.6346,深圳市,葵涌,,33,33,31,21,16,83,83,162,123,25,18,8,7,0.8,0.7
2026-07-12T0000,1365A,114.2967,22.5978,深圳市,梅沙,NA,NA,34,33,16,14,54,54,163,114,NA,20,/,/,/,/
2026-07-12T0000,1366A,114.0563,22.7353,深圳市,观澜,,32,32,37,15,20,72,72,237,182,18,26,7,7,0.7,0.7
2026-07-12T0000,3305A,114.0614,22.556,深圳市,莲花,,12,12,25,8,11,37,37,136,108,14,12,/,/,/,/
2026-07-12T0000,3306A,114.0144,22.6163,深圳市,民治,,17,12,33,8,17,54,54,196,150,12,22,/,/,/,/
2026-07-12T0000,3307A,114.1756,22.6421,深圳市,横岗,,23,16,34,16,19,66,66,230,177,25,27,/,/,/,/
2026-07-12T0000,3447A,114.344,22.7115,深圳市,坪山,,27,27,36,18,22,67,67,162,133,27,26,7,7,0.9,0.8
2026-07-12T0000,3623A,113.8952,22.586,深圳市,西乡,,25,25,29,11,13,37,37,192,126,21,17,3,4,0.7,0.7
2026-07-12T0000,4220A,114.214113,22.713717,深圳市,黄阁路,,27,23,34,13,18,84,84,222,176,18,22,7,7,0.6,0.7
2026-07-12T0000,1099A,123.5058,41.7084,沈阳市,浑南东路,,11,11,13,6,7,19,19,41,21,17,17,4,4,0.5,0.6
2026-07-12T0000,1100A,123.4238,41.6992,沈阳市,新秀街,,32,32,17,8,9,28,28,36,24,15,14,11,7,0.2,0.4
2026-07-12T0000,1102A,123.5903,41.8412,沈阳市,东陵路,,20,20,15,3,5,27,27,52,24,7,8,2,2,0.7,0.6
2026-07-12T0000,1103A,123.4267,41.8466,沈阳市,陵东街,,17,17,16,6,7,30,30,48,30,12,12,3,3,0.5,0.6
2026-07-12T0000,1104A,123.4116,41.7654,沈阳市,文化路,,16,16,16,10,7,26,26,48,30,12,9,3,3,0.6,0.7
2026-07-12T0000,1105A,123.4673,41.787,沈阳市,小河沿,,14,14,15,3,6,22,22,33,22,9,10,2,2,0.4,0.6
2026-07-12T0000,1106A,123.4019,41.7978,沈阳市,太原街,,21,21,20,3,7,31,31,54,35,12,8,3,3,0.5,0.6
2026-07-12T0000,1108A,123.3778,41.9233,沈阳市,京沈街,,16,16,17,8,8,38,38,60,37,10,10,7,5,0.5,0.6
2026-07-12T0000,2897A,123.2429,41.7341,沈阳市,沈辽西路,,20,20,18,6,8,32,32,44,35,10,10,6,6,0.5,0.6
2026-07-12T0000,2900A,123.5951,41.9085,沈阳市,裕农路,,11,11,12,6,4,26,26,53,25,11,7,5,5,0.8,0.6
2026-07-12T0000,2429A,110.78,32.6494,十堰市,滨河新村,,22,17,22,15,13,52,52,97,92,20,5,/,/,0.8,0.8
2026-07-12T0000,2430A,110.7305,32.6408,十堰市,刘家沟,,30,29,20,21,14,52,52,100,89,6,6,/,/,/,/
2026-07-12T0000,2431A,110.8843,32.5712,十堰市,铁二处,,22,19,22,15,18,44,44,95,79,4,6,8,10,0.7,0.7
2026-07-12T0000,3545A,110.8053,32.8401,十堰市,郧阳区金沙路,,25,25,24,17,14,74,74,106,101,17,10,8,8,0.6,0.6
2026-07-12T0000,2709A,86.0391,44.298,石河子市,艾青诗歌馆,,45,45,55,24,18,81,81,129,116,33,9,5,4,0.6,0.4
2026-07-12T0000,3442A,86.047,44.2331,石河子市,南区管委会,颗粒物(PM10),51,51,60,15,13,78,78,121,110,6,5,5,6,0.3,0.3
2026-07-12T0000,4051A,86.0791,44.3018,石河子市,世纪广场,NA,NA,34,66,NA,20,75,75,132,112,30,9,3,2,0.7,0.6
2026-07-12T0000,4167A,86.0126,44.2349,石河子市,城南景苑小区,,32,16,50,12,18,102,102,125,113,6,8,6,6,0.1,0.1
2026-07-12T0000,1030A,114.5919,38.0328,石家庄市,高新区,,25,24,41,16,26,78,78,134,97,7,4,3,3,0.3,0.5
2026-07-12T0000,1032A,114.4556,38.0136,石家庄市,西南高教,,32,32,30,14,26,86,86,145,97,2,2,3,3,0.2,0.4
2026-07-12T0000,1033A,114.533,38.0177,石家庄市,世纪公园,,19,19,39,10,23,56,56,116,71,1,2,3,3,0.4,0.7
2026-07-12T0000,1034A,114.5105,38.0489,石家庄市,人民会堂,,29,15,37,12,25,90,90,143,100,6,6,3,3,0.3,0.4
2026-07-12T0000,3456A,114.2887,38.0905,石家庄市,鹿泉一中,,27,27,44,3,25,41,41,135,88,8,6,3,3,0.5,0.6
2026-07-12T0000,4024A,114.6491,37.9014,石家庄市,栾城区星河路,,27,NA,30,14,24,85,85,136,96,7,10,3,3,0.2,0.4
