timepoint,stationcode,longitude,latitude,area,positionname,primarypollutant,aqi,pm10,pm10_24h,pm2_5,pm2_5_24h,o3,o3_24h,o3_8h,o3_8h_24h,no2,no2_24h,so2,so2_24h,co,co_24h
2026-05-08T1300,2568A,102.2503,31.8896,阿坝藏族羌族自治州,马师校,,24,15,21,10,6,76,76,60,60,9,6,6,6,0.4,0.4
2026-05-08T1300,3994A,102.2174,31.9016,阿坝藏族羌族自治州,马尔康中学西区,,24,6,17,6,6,75,75,62,62,7,6,6,6,0.2,0.2
2026-05-08T1300,2695A,80.2899,41.1684,阿克苏地区,电视台,细颗粒物(PM2.5),226,216,232,176,140,79,79,64,64,15,16,2,3,0.4,0.5
2026-05-08T1300,2696A,80.2592,41.1541,阿克苏地区,艺术中心,细颗粒物(PM2.5),140,135,180,104,101,87,87,67,67,10,29,3,4,0.5,0.6
2026-05-08T1300,2205A,105.699,38.8409,阿拉善盟,蒙二幼,NA,NA,NA,29,NA,6,NA,NA,113,NA,NA,8,NA,10,NA,0.3
2026-05-08T1300,2206A,105.7198,38.8508,阿拉善盟,环保局新楼,,38,38,28,7,7,116,116,108,108,4,4,10,9,0.4,0.4
2026-05-08T1300,2708A,88.1266,47.8515,阿勒泰地区,市站,,34,34,26,3,4,98,98,88,87,6,7,6,5,0.1,0.2
2026-05-08T1300,4166A,88.1198,47.7931,阿勒泰地区,阿勒泰路33号,,37,37,31,3,3,94,94,86,83,3,5,5,5,0.1,0.1
2026-05-08T1300,2630A,80.1171,32.4999,阿里地区,阿里监测站,,39,27,60,17,27,124,124,106,106,2,5,7,10,0.3,0.3
2026-05-08T1300,3192A,80.0906,32.5029,阿里地区,阿里藏医院,,39,24,54,6,21,122,122,102,102,2,4,6,7,0.4,0.4
2026-05-08T1300,2644A,109.0088,32.6974,安康市,汉滨区检察院,,38,38,34,20,12,57,57,20,20,8,11,6,5,0.4,0.3
2026-05-08T1300,4054A,109.0324,32.6913,安康市,市邮政管理局,颗粒物(PM10),52,52,41,23,16,60,60,26,26,10,12,7,7,0.4,0.4
2026-05-08T1300,2291A,117.0806,30.5181,安庆市,环科院,,44,44,40,20,27,127,127,103,103,5,7,8,7,0.4,0.5
2026-05-08T1300,2292A,117.0331,30.5118,安庆市,马山宾馆,,45,45,39,20,26,125,125,103,103,7,7,6,5,0.4,0.5
2026-05-08T1300,2294A,116.9897,30.6146,安庆市,安庆大学,,40,30,35,9,23,126,126,106,106,6,7,4,4,0.3,0.4
2026-05-08T1300,3173A,117.0598,30.5351,安庆市,市人大,颗粒物(PM10),53,53,41,17,25,125,125,104,104,9,6,6,5,0.4,0.5
2026-05-08T1300,3123A,105.9408,26.2431,安顺市,凤凰山,,40,38,48,28,28,105,105,81,81,6,8,5,8,0.6,0.6
2026-05-08T1300,3124A,105.9443,26.2567,安顺市,金钟山,,45,39,46,31,26,92,92,71,71,5,5,6,8,0.5,0.5
2026-05-08T1300,3125A,105.8983,26.248,安顺市,娄家坡,,45,45,46,30,28,95,95,73,73,5,7,8,8,0.5,0.5
2026-05-08T1300,1819A,114.3552,36.1017,安阳市,红庙街,颗粒物(PM10),51,51,58,13,9,128,128,84,84,8,15,4,2,0.3,0.3
2026-05-08T1300,1820A,114.361,36.0681,安阳市,银杏小区,颗粒物(PM10),74,83,54,7,18,134,134,86,86,5,15,7,5,0.2,0.1
2026-05-08T1300,3141A,114.3921,36.0879,安阳市,信访局,颗粒物(PM10),65,70,50,16,13,139,139,86,86,6,15,5,2,0.5,0.4
2026-05-08T1300,3669A,114.4706,36.0634,安阳市,左辅环卫站,颗粒物(PM10),65,70,46,14,13,132,132,79,79,8,21,2,3,0.3,0.2
2026-05-08T1300,4117A,114.2918,36.0769,安阳市,钢三路198号,颗粒物(PM10),51,51,40,26,14,120,120,77,77,8,15,5,2,0.3,0.3
2026-05-08T1300,1748A,123.0441,41.1201,鞍山市,深沟寺,,30,20,27,3,9,94,94,68,68,6,24,7,13,0.4,1.3
2026-05-08T1300,1749A,123.011,41.0931,鞍山市,太阳城,,30,9,22,3,10,93,93,66,66,6,17,8,10,0.5,0.9
2026-05-08T1300,1750A,123.0483,41.1445,鞍山市,太平,,30,16,39,6,13,95,95,62,62,8,22,8,9,0.6,0.9
2026-05-08T1300,1751A,122.964,41.0968,鞍山市,铁西三道街,,29,18,40,8,19,90,90,55,55,10,35,9,15,0.6,1.1
2026-05-08T1300,1753A,123.0219,41.0822,鞍山市,明达新区,,29,13,20,3,8,91,91,64,64,8,17,8,9,0.5,0.7
2026-05-08T1300,4201A,122.944647,41.082639,鞍山市,兴盛南路290号,,30,18,45,6,16,93,93,53,53,12,35,8,13,0.4,1.1
2026-05-08T1300,2195A,107.4206,40.7609,巴彦淖尔市,附二中,颗粒物(PM10),101,121,67,37,20,117,117,104,104,5,11,7,9,0.4,0.5
2026-05-08T1300,2196A,107.37,40.7372,巴彦淖尔市,市环保大楼,颗粒物(PM10),93,110,66,26,16,117,117,104,104,5,9,7,9,0.2,0.3
2026-05-08T1300,1956A,86.1476,41.7529,巴音郭楞蒙古自治州,孔雀公园,颗粒物(PM10),105,133,269,44,129,90,90,32,32,14,21,4,4,0.1,0.3
2026-05-08T1300,1957A,86.1971,41.7166,巴音郭楞蒙古自治州,棉纺厂,颗粒物(PM10),120,172,385,47,150,94,94,45,45,13,18,/,/,/,/
2026-05-08T1300,1958A,86.236,41.7172,巴音郭楞蒙古自治州,经济开发区,颗粒物(PM10),94,111,310,55,129,85,85,53,51,6,9,11,9,0.2,0.2
2026-05-08T1300,3181A,106.776805,31.852614,巴中市,市五中,,35,35,41,18,15,64,64,39,39,14,15,6,6,0.6,0.5
2026-05-08T1300,3183A,106.7419,31.8654,巴中市,圣泉水务公司,,30,30,36,19,17,65,65,42,42,15,20,6,6,0.8,0.6
2026-05-08T1300,3616A,106.7617,31.8343,巴中市,市中心医院,,33,33,37,20,18,73,73,40,40,13,16,6,6,0.5,0.4
2026-05-08T1300,2235A,122.7909,45.608,白城市,洮北区环保局,,35,14,32,3,12,109,109,85,85,11,23,3,4,0.1,0.2
2026-05-08T1300,2236A,122.8741,45.5725,白城市,市环保局,NA,NA,14,25,3,12,99,99,80,80,NA,25,NA,3,0.1,0.2
2026-05-08T1300,2231A,126.4219,41.9172,白山市,喜丰,,30,27,20,3,6,93,93,68,68,12,10,11,11,0.5,0.6
2026-05-08T1300,2232A,126.4082,41.9416,白山市,环保局,,30,16,13,6,8,94,94,76,76,7,8,9,10,0.6,0.7
2026-05-08T1300,2647A,104.1727,36.5448,白银市,第三小学,,45,45,58,12,20,116,116,62,62,6,28,8,24,0.4,0.6
2026-05-08T1300,2648A,104.1467,36.5482,白银市,动力公司,,44,44,50,17,18,119,119,69,69,5,27,8,14,0.2,0.6
2026-05-08T1300,2512A,106.6102,23.901,百色市,市监测站,,30,21,35,3,21,95,95,40,40,6,17,7,8,0.4,0.6
2026-05-08T1300,2513A,106.6524,23.8842,百色市,市中心血站,,34,34,41,7,27,91,91,46,46,3,19,8,11,0.6,0.8
2026-05-08T1300,4133A,106.6273,23.8798,百色市,龙景西路,,33,33,44,7,23,90,90,38,38,7,18,10,10,0.4,0.5
2026-05-08T1300,2270A,117.396,32.9389,蚌埠市,工人疗养院,,37,33,46,3,17,118,118,89,89,13,22,4,7,0.2,0.3
2026-05-08T1300,2271A,117.3606,32.9428,蚌埠市,百货大楼,,38,27,40,3,13,119,119,93,93,10,17,6,7,0.2,0.3
2026-05-08T1300,2273A,117.4183,32.8909,蚌埠市,蚌埠学院,,39,29,40,3,19,123,123,91,91,6,16,3,5,0.2,0.4
2026-05-08T1300,2274A,117.3534,32.9672,蚌埠市,淮上区政府,,39,31,46,3,15,123,123,94,94,11,17,5,6,0.1,0.3
2026-05-08T1300,2275A,117.3143,32.8977,蚌埠市,高新区,,36,14,32,3,13,114,114,87,87,10,14,6,8,0.2,0.4
2026-05-08T1300,3715A,117.3091,32.9314,蚌埠市,蚌埠田家炳中学,,37,34,44,3,13,118,118,97,97,11,13,5,6,0.2,0.3
2026-05-08T1300,1585A,109.8761,40.6533,包头市,市环境监测站,颗粒物(PM10),65,70,39,22,22,136,136,76,76,10,32,10,11,0.5,0.6
2026-05-08T1300,1587A,109.9992,40.5843,包头市,包头八中,NA,NA,70,54,NA,21,126,126,68,68,9,36,11,14,0.5,0.6
2026-05-08T1300,1589A,109.8641,40.6288,包头市,惠龙物流,颗粒物(PM10),70,77,38,10,17,128,128,73,73,8,29,8,10,0.4,0.5
2026-05-08T1300,1590A,110.0376,40.5546,包头市,东河鸿龙湾,颗粒物(PM10),56,58,44,20,18,128,128,68,68,5,30,15,16,0.4,0.5
2026-05-08T1300,3283A,109.9154,40.5684,包头市,滨河大厦,颗粒物(PM10),73,82,34,33,22,134,134,68,68,6,34,8,10,0.5,0.6
2026-05-08T1300,3419A,109.9449,40.6259,包头市,包头市委党校,颗粒物(PM10),58,61,36,22,17,132,132,69,69,7,35,9,13,0.5,0.6
2026-05-08T1300,3683A,109.8332,40.6577,包头市,昆区政府,颗粒物(PM10),62,66,38,15,19,122,122,67,67,14,40,7,8,0.6,0.6
2026-05-08T1300,1931A,107.0802,34.3129,宝鸡市,竹园沟,,37,29,32,12,10,117,117,64,64,5,7,7,7,0.1,0.1
2026-05-08T1300,1933A,107.1429,34.3549,宝鸡市,监测站,颗粒物(PM10),61,65,35,10,9,120,120,62,62,10,12,6,6,0.3,0.3
2026-05-08T1300,1934A,107.1172,34.3759,宝鸡市,技工学校,颗粒物(PM10),52,52,35,16,13,120,120,66,66,10,10,4,4,0.4,0.4
2026-05-08T1300,1936A,107.2025,34.3518,宝鸡市,文理学院,,48,48,38,14,13,115,115,66,66,14,16,6,6,0.4,0.4
2026-05-08T1300,1937A,107.2396,34.3626,宝鸡市,三迪小学,,50,50,41,22,18,123,123,64,64,13,17,6,6,0.4,0.4
2026-05-08T1300,4155A,107.1721,34.3558,宝鸡市,滨河北路,,36,36,41,15,15,114,114,57,57,9,13,7,7,0.4,0.3
2026-05-08T1300,4308A,107.3898,34.3601,宝鸡市,陈仓区北开路21号,,49,49,41,18,16,121,121,58,58,10,18,8,8,0.4,0.4
2026-05-08T1300,1051A,115.4803,38.8568,保定市,游泳馆,,48,48,46,12,20,130,130,78,78,11,18,6,4,0.4,0.3
2026-05-08T1300,1052A,115.509,38.8895,保定市,华电二区,,47,47,38,11,16,134,134,69,69,10,15,1,4,0.4,0.3
2026-05-08T1300,1053A,115.4588,38.9037,保定市,接待中心,NA,NA,91,53,NA,17,126,126,NA,NA,4,7,4,3,0.5,0.3
2026-05-08T1300,1054A,115.4484,38.8344,保定市,地表水厂,颗粒物(PM10),71,79,79,11,17,130,130,80,80,11,21,4,3,0.3,0.3
2026-05-08T1300,3581A,115.3136,38.9511,保定市,满城区生态环境分局,颗粒物(PM10),63,68,47,30,18,133,133,82,82,12,14,5,3,0.4,0.2
2026-05-08T1300,3582A,115.4709,38.7628,保定市,清苑区第二中学,NA,NA,NA,66,NA,22,NA,NA,106,NA,NA,22,NA,6,NA,0.3
2026-05-08T1300,3583A,115.6231,39.0223,保定市,徐水物探局,颗粒物(PM10),83,95,64,27,20,131,131,70,70,15,20,4,2,0.5,0.4
2026-05-08T1300,4004A,115.4199,38.8665,保定市,双鹰农机,颗粒物(PM10),75,85,64,23,23,129,129,82,82,10,15,3,4,0.3,0.2
2026-05-08T1300,4034A,115.515,38.8589,保定市,植保所站,颗粒物(PM10),73,81,80,12,16,130,130,80,80,12,17,4,3,0.4,0.4
2026-05-08T1300,2594A,99.1589,25.1137,保山市,市环境监测站,,30,24,22,11,15,96,96,52,52,8,8,6,6,0.4,0.4
2026-05-08T1300,2595A,99.1616,25.1381,保山市,市环保局,,31,24,22,21,21,98,98,53,53,6,6,6,6,0.4,0.4
2026-05-08T1300,1867A,109.1435,21.4085,北海市,海滩公园,,22,22,24,3,10,54,54,46,43,9,8,6,7,0.7,0.6
2026-05-08T1300,1868A,109.0983,21.466,北海市,新市环保局,,18,13,17,10,13,56,56,49,49,7,7,8,9,0.6,0.5
2026-05-08T1300,1869A,109.1775,21.5232,北海市,北海工业园,,30,30,23,14,14,54,54,38,38,9,10,6,8,0.8,0.7
2026-05-08T1300,3400A,109.1844,21.4396,北海市,龙潭自来水厂,,25,24,18,17,10,53,53,37,34,9,9,10,10,1.1,1
2026-05-08T1300,1001A,116.3611,39.8786,北京市,万寿西宫,,35,20,33,7,10,112,112,60,60,10,29,3,3,0.2,0.2
2026-05-08T1300,1003A,116.4174,39.9289,北京市,东四,,34,28,37,9,12,108,108,56,56,13,29,3,2,0,0.1
2026-05-08T1300,1004A,116.4073,39.8858,北京市,天坛,,33,21,30,15,12,105,105,52,52,16,27,4,4,0.1,0.2
2026-05-08T1300,1005A,116.4622,39.9364,北京市,农展馆,,32,30,29,9,10,102,102,45,45,11,29,3,2,0.2,0.3
2026-05-08T1300,1006A,116.3399,39.9293,北京市,官园,,31,26,31,13,13,99,99,56,56,11,29,2,2,0.1,0.2
2026-05-08T1300,1007A,116.2879,39.9613,北京市,海淀万柳,,30,28,27,8,8,93,93,48,48,17,34,5,4,0.2,0.3
2026-05-08T1300,1008A,116.6635,40.1349,北京市,顺义新城,,46,46,45,13,7,100,100,58,58,13,24,1,1,0.3,0.3
2026-05-08T1300,1009A,116.6275,40.327,北京市,怀柔镇,,33,22,20,6,5,105,105,66,66,6,6,3,2,0.3,0.2
2026-05-08T1300,1010A,116.2295,40.217,北京市,昌平镇,,31,30,26,9,8,97,97,62,62,13,13,3,3,0.3,0.3
2026-05-08T1300,1011A,116.3968,39.982,北京市,奥体中心,,28,25,31,14,15,89,89,47,47,17,36,4,4,0.1,0.2
2026-05-08T1300,3418A,116.8336,40.4095,北京市,密云新城,,32,18,23,7,11,101,101,66,66,3,9,3,3,0.1,0.1
2026-05-08T1300,3671A,116.0879,39.9725,北京市,门头沟三家店,,41,41,25,11,12,112,112,74,74,8,13,3,3,0.2,0.2
2026-05-08T1300,3672A,116.1507,39.8246,北京市,丰台云岗,,49,49,37,19,8,122,122,72,72,7,14,1,2,0.3,0.2
2026-05-08T1300,3674A,115.9578,39.7602,北京市,房山燕山,,39,39,24,16,9,108,108,70,70,5,7,4,4,0.2,0.2
2026-05-08T1300,3675A,116.4669,39.7734,北京市,大兴旧宫,,38,28,42,9,14,121,121,46,46,7,29,1,2,0.2,0.3
2026-05-08T1300,3694A,115.9859,40.4562,北京市,延庆石河营,NA,NA,NA,26,NA,9,NA,NA,90,NA,NA,30,NA,1,NA,0.3
2026-05-08T1300,3695A,116.6151,40.3052,北京市,怀柔新城,,31,18,16,3,6,97,97,63,63,10,8,4,4,0.3,0.3
2026-05-08T1300,3696A,116.2542,39.8764,北京市,丰台小屯,,33,30,42,9,10,104,104,54,54,4,26,3,2,0.2,0.3
2026-05-08T1300,3697A,116.8399,40.3843,北京市,密云镇,,34,14,23,7,9,106,106,64,64,4,23,5,5,0.2,0.2
2026-05-08T1300,4057A,115.9423,40.4431,北京市,延庆百泉,,33,16,23,3,8,103,103,51,51,5,12,1,1,0.3,0.3
2026-05-08T1300,4058A,116.6598,39.9164,北京市,通州新华,,29,29,55,11,14,84,84,48,48,10,30,3,3,0.4,0.4
2026-05-08T1300,4182A,116.1942,39.9158,北京市,石景山八角,,33,30,21,9,6,105,105,67,67,6,13,3,2,0.2,0.2
2026-05-08T1300,4194A,117.078628,40.151726,北京市,平谷新城,,31,21,26,3,18,99,99,56,56,8,14,3,2,0.3,0.3
2026-05-08T1300,1761A,123.8274146,41.31234549,本溪市,大峪,,30,12,15,6,7,94,94,51,51,6,14,7,7,0.4,0.7
2026-05-08T1300,1763A,123.7169,41.3094,本溪市,彩屯,,32,25,30,3,15,101,101,60,60,9,18,10,10,0.5,1
2026-05-08T1300,1764A,123.7672166,41.28649327,本溪市,东明,,38,38,45,3,11,96,96,53,53,6,25,7,10,0.5,1.3
2026-05-08T1300,1765A,123.799345,41.266614,本溪市,新立屯,,32,29,30,3,7,102,102,62,62,5,22,8,8,0.3,1.3
2026-05-08T1300,1766A,123.829144,41.336777,本溪市,威宁,,31,29,29,3,7,97,97,50,50,6,18,6,6,0.4,0.7
2026-05-08T1300,2587A,105.287,27.3133,毕节市,八中,颗粒物(PM10),53,54,49,16,22,88,88,78,78,7,8,8,8,0.5,0.5
2026-05-08T1300,2588A,105.3079,27.2987,毕节市,师专,,41,41,46,14,20,86,86,83,83,6,7,10,10,0.5,0.5
2026-05-08T1300,4263A,105.3688,27.3598,毕节市,工业大道,,47,47,56,15,22,89,89,79,79,4,8,10,11,/,/
2026-05-08T1300,1629A,117.9961,37.3604,滨州市,第二水厂,颗粒物(PM10),56,58,46,16,12,125,125,84,84,9,19,8,9,0.3,0.3
2026-05-08T1300,1630A,117.9789,37.3931,滨州市,北中新校,颗粒物(PM10),84,97,80,14,11,131,131,89,89,11,23,9,14,0.2,0.4
2026-05-08T1300,3514A,117.9379,37.3959,滨州市,中海酒店,颗粒物(PM10),78,88,41,17,16,141,141,93,93,15,26,10,13,0.3,0.3
2026-05-08T1300,3515A,117.9381509,37.35547456,滨州市,开发区一中,颗粒物(PM10),60,63,49,25,21,129,129,81,81,11,25,4,4,0.5,0.5
2026-05-08T1300,3516A,118.0914,37.6938,滨州市,金海六路,,42,29,26,10,11,132,132,90,90,10,28,10,8,0.5,0.5
2026-05-08T1300,4028A,117.9955,37.3752,滨州市,滨州市西街道办事处,,46,46,31,12,13,134,134,93,93,11,22,7,9,0.3,0.4
2026-05-08T1300,2311A,115.8071,33.8399,亳州市,污水处理厂,,41,26,37,6,7,131,131,92,92,7,10,8,8,0.1,0.1
2026-05-08T1300,2312A,115.7789,33.8519,亳州市,三国揽胜宫,NA,NA,NA,65,10,7,130,130,96,96,8,11,8,8,0.1,0.1
2026-05-08T1300,3332A,115.7631,33.803,亳州市,亳州学院,,41,25,36,8,7,130,130,98,98,6,10,6,7,0.1,0.1
2026-05-08T1300,2693A,82.0482,44.8553,博尔塔拉蒙古自治州,市党校,颗粒物(PM10),56,58,56,20,13,125,125,84,84,8,6,4,3,0.7,0.5
2026-05-08T1300,2694A,82.0805,44.8966,博尔塔拉蒙古自治州,市环保局,,48,48,53,3,13,120,120,74,74,9,14,4,3,0.3,0.3
2026-05-08T1300,1071A,116.8733,38.2922,沧州市,沧县城建局,颗粒物(PM10),112,149,54,18,15,134,134,100,100,12,19,5,4,0.2,0.1
2026-05-08T1300,1072A,116.8462,38.3189,沧州市,电视转播站,,50,50,45,12,13,143,143,105,105,11,17,5,6,0.3,0.2
2026-05-08T1300,1073A,116.8588,38.3161,沧州市,市环保局,颗粒物(PM10),65,71,49,16,19,139,139,107,107,10,16,8,7,0.4,0.3
2026-05-08T1300,3324A,116.8011,38.294,沧州市,河北水利电力学院,颗粒物(PM10),63,68,43,25,23,127,127,98,98,8,20,8,6,0.3,0.3
2026-05-08T1300,2622A,97.1813,31.1289,昌都市,昌都监测站,,39,6,14,3,3,124,124,109,102,8,6,6,7,0.5,0.5
2026-05-08T1300,3719A,97.1707,31.1428,昌都市,昌都会议中心,,44,6,8,3,5,138,138,122,122,4,4,8,8,0.4,0.4
2026-05-08T1300,2692A,87.2722,44.0298,昌吉回族自治州,新区政务中心,,44,38,34,3,12,139,139,97,96,10,14,9,6,0.5,0.5
2026-05-08T1300,3613A,87.3069,44.0093,昌吉回族自治州,亚心广场,,48,48,48,20,18,145,145,98,98,6,18,9,6,0.3,0.5
2026-05-08T1300,4164A,87.2057,43.9289,昌吉回族自治州,财政所,,49,49,54,6,10,139,139,96,95,4,13,9,8,0.4,0.4
2026-05-08T1300,1120A,125.2874,43.9024,长春市,客车厂,,32,22,27,13,17,101,101,70,70,10,20,6,7,0.2,0.3
2026-05-08T1300,1121A,125.2943,43.8508,长春市,邮电学院,,33,21,20,10,12,105,105,75,75,6,10,6,6,0.3,0.4
2026-05-08T1300,1122A,125.3648,43.8745,长春市,劳动公园,NA,NA,NA,22,NA,12,107,107,79,79,NA,13,6,6,0.3,0.3
2026-05-08T1300,1123A,125.3233,43.8781,长春市,园林处,,34,19,20,14,14,107,107,82,82,6,11,6,6,0.3,0.4
2026-05-08T1300,1124A,125.4604,43.7904,长春市,净月潭,,34,16,17,9,11,106,106,69,69,6,10,5,5,0.3,0.3
2026-05-08T1300,1126A,125.38,43.8422,长春市,经开区环卫处,,35,25,25,11,14,109,109,81,81,7,12,5,4,0.3,0.3
2026-05-08T1300,1127A,125.234,43.7761,长春市,高新区管委会,NA,NA,20,20,9,11,106,106,82,82,5,11,5,5,NA,0.4
2026-05-08T1300,1128A,125.1695,43.83,长春市,岱山公园,,36,24,28,11,13,113,113,94,94,7,22,4,4,0.2,0.3
2026-05-08T1300,4281A,125.334645,43.916281,长春市,北亚泰大街1068号,,33,23,24,10,13,105,105,74,74,9,18,5,5,0.3,0.4
2026-05-08T1300,1335A,113.082,28.2421,长沙市,经开区环保局,细颗粒物(PM2.5),72,54,39,46,41,102,102,90,90,10,10,4,3,0.6,0.5
2026-05-08T1300,1336A,112.8873,28.2202,长沙市,高开区环保局,颗粒物(PM10),53,53,43,19,34,100,100,84,83,7,5,7,6,0.4,0.5
2026-05-08T1300,1337A,113.0785,28.2012,长沙市,马坡岭,,48,48,42,26,28,104,104,91,91,4,7,6,5,0.7,0.7
2026-05-08T1300,1338A,112.9448,28.1894,长沙市,湖南师范大学,颗粒物(PM10),65,71,45,28,31,96,96,88,88,13,10,6,5,0.5,0.6
2026-05-08T1300,1339A,113.0177,28.1322,长沙市,雨花区环保局,,50,50,38,27,29,104,104,94,94,5,6,4,4,0.7,0.7
2026-05-08T1300,1340A,112.9795,28.2593,长沙市,伍家岭,颗粒物(PM10),59,62,45,23,31,91,91,81,81,9,9,6,5,0.6,0.6
2026-05-08T1300,1341A,113.002,28.1944,长沙市,火车新站,颗粒物(PM10),51,51,41,28,33,94,94,85,85,7,6,6,5,0.5,0.5
2026-05-08T1300,1342A,112.9846,28.1177,长沙市,天心区环保局,,47,47,43,32,34,101,101,91,91,8,8,6,5,0.5,0.6
2026-05-08T1300,1343A,112.8906,28.1307,长沙市,湖南中医药大学,颗粒物(PM10),62,66,47,23,32,94,94,89,87,11,6,8,6,0.6,0.6
2026-05-08T1300,1727A,113.1146,36.1547,长治市,清华站,,42,36,37,9,10,132,132,89,89,9,17,10,9,0.4,0.4
2026-05-08T1300,1730A,113.0887,36.2126,长治市,审计局,,40,33,39,3,10,126,126,84,84,6,16,10,9,0.3,0.4
2026-05-08T1300,1731A,113.0845,36.1856,长治市,长治八中,,41,41,50,10,11,128,128,92,92,7,15,10,10,0.3,0.4
2026-05-08T1300,2845A,113.1561,36.1912,长治市,德盛苑,,43,31,32,7,9,135,135,111,111,11,12,10,10,0.4,0.5
2026-05-08T1300,3568A,113.0603,36.0464,长治市,向阳小学,颗粒物(PM10),60,63,64,12,10,133,133,101,101,13,20,11,9,0.6,0.6
2026-05-08T1300,3569A,112.8788,36.315,长治市,屯留一中,,39,16,28,6,8,123,123,71,71,9,24,6,7,0,0.2
2026-05-08T1300,4189A,113.113092,36.199482,长治市,英华南巷50号,颗粒物(PM10),80,91,48,3,12,129,129,91,91,5,12,9,8,0.4,0.7
2026-05-08T1300,4190A,113.23666,36.33435,长治市,学府街1号,,49,49,40,9,11,124,124,75,75,8,18,6,5,0.4,0.5
2026-05-08T1300,1854A,111.696,28.9725,常德市,市二中,,44,44,48,13,20,105,105,94,92,6,6,10,10,0.7,0.8
2026-05-08T1300,3138A,111.7152,29.0288,常德市,武陵区永安,,48,48,46,15,19,109,109,94,92,3,4,8,8,0.6,0.6
2026-05-08T1300,3139A,111.6891,28.9881,常德市,鼎城区玉霞,,45,45,46,14,20,107,107,95,93,5,6,11,11,0.7,0.8
2026-05-08T1300,3140A,111.6651,29.0526,常德市,武陵区长庚,,48,48,41,15,19,103,103,88,88,7,7,10,10,0.7,0.8
2026-05-08T1300,1196A,119.9524,31.7586,常州市,市监测站,,36,27,47,8,17,113,113,90,90,21,13,11,9,0.8,0.7
2026-05-08T1300,1200A,119.9351,31.703,常州市,武进监测站,,38,19,41,3,17,121,121,95,95,17,13,9,7,0.6,0.6
2026-05-08T1300,3002A,119.9701,31.813,常州市,行政中心,,40,40,41,10,20,106,106,87,87,23,14,9,6,0.4,0.2
2026-05-08T1300,3003A,120.0434,31.7726,常州市,经开区,,37,23,46,6,18,116,116,86,86,8,5,6,4,0.7,0.6
2026-05-08T1300,3010A,119.8919,31.7892,常州市,钟楼,,38,25,37,11,18,120,120,101,101,28,18,11,9,0.5,0.4
2026-05-08T1300,3429A,119.8595,31.706,常州市,武进经发区,,37,24,38,11,20,116,116,92,92,21,18,10,8,0.7,0.7
2026-05-08T1300,3430A,119.5812,31.7256,常州市,金坛城区,,37,28,35,14,22,118,118,96,96,13,9,8,8,0.5,0.6
2026-05-08T1300,4089A,119.9551,31.863,常州市,崇义南街5-H号,,37,32,44,3,20,116,116,89,89,9,8,9,8,0.5,0.5
2026-05-08T1300,2220A,120.4318,41.588,朝阳市,西梁,,31,30,39,7,11,98,98,56,56,7,22,8,8,0.3,0.5
2026-05-08T1300,2221A,120.452,41.565,朝阳市,河畔小区,,32,21,28,3,5,101,101,63,63,7,15,7,8,0.3,0.3
2026-05-08T1300,2222A,120.4176,41.5648,朝阳市,八里堡,,32,15,39,3,9,102,102,19,NA,8,23,8,8,0.3,0.4
2026-05-08T1300,3026A,116.6179,23.6608,潮州市,市政府,,49,49,58,18,34,123,123,77,77,4,13,4,5,0.6,0.7
2026-05-08T1300,4036A,116.646,23.676,潮州市,金山,,48,48,52,14,32,117,117,67,67,4,12,2,4,0.5,0.6
2026-05-08T1300,2473A,113.0116,25.8228,郴州市,市职中,,49,NA,11,34,11,66,66,68,65,7,7,6,5,0.5,0.5
2026-05-08T1300,2475A,113.0381,25.8074,郴州市,市审计局,,48,NA,14,33,10,67,67,72,70,7,4,2,1,/,/
2026-05-08T1300,2476A,113.0348,25.7757,郴州市,市环保局,,43,NA,16,30,11,60,60,67,64,11,7,6,6,0.6,0.5
2026-05-08T1300,4252A,113.0138,25.8011,郴州市,好美居路49号,,29,28,16,20,9,70,70,74,71,10,8,3,3,/,/
2026-05-08T1300,1431A,103.9727,30.7242,成都市,金泉两河,,40,40,57,16,24,101,101,76,76,12,15,4,5,0.3,0.3
2026-05-08T1300,1432A,104.1423,30.6765,成都市,十里店,,37,37,59,23,24,107,107,80,80,8,13,5,5,0.6,0.5
2026-05-08T1300,1433A,104.0594,30.5765,成都市,三瓦窑,,35,26,52,20,21,110,110,89,89,9,13,3,4,0.4,0.3
2026-05-08T1300,1434A,104.1122,30.6306,成都市,沙河铺,,43,43,57,22,22,97,97,78,78,15,18,4,3,0.3,0.3
2026-05-08T1300,2880A,104.0219,30.6561,成都市,大石西路,,31,31,57,21,22,98,98,84,84,12,13,5,5,0.4,0.4
2026-05-08T1300,3136A,104.2724,30.559,成都市,龙泉驿区区政府,,41,41,56,25,26,103,103,65,65,6,12,8,8,0.6,0.6
2026-05-08T1300,3357A,104.0028,30.6891,成都市,金博路,,31,20,44,18,21,98,98,70,70,14,20,5,5,0.4,0.4
2026-05-08T1300,3359A,104.056,30.5228,成都市,华阳,,34,34,51,19,22,106,106,88,88,10,12,2,3,0.2,0.3
2026-05-08T1300,3488A,104.387954,30.746684,成都市,青石路225号,,39,39,62,25,29,108,108,65,65,3,17,6,6,0.5,0.6
2026-05-08T1300,3489A,104.0788,30.4054,成都市,科学城,,44,44,60,20,18,105,105,81,81,12,11,6,6,0.3,0.4
2026-05-08T1300,4011A,103.8505,30.6946,成都市,光华大道三段,,34,34,55,22,24,100,100,84,72,9,11,6,5,0.4,0.4
2026-05-08T1300,4144A,104.3257,30.6406,成都市,八角井街185号,,45,45,62,29,26,98,98,61,61,8,14,8,7,0.5,0.4
2026-05-08T1300,4224A,104.2433276,30.53529463,成都市,鲸龙路1057号,,46,46,62,26,26,110,110,68,68,6,14,8,8,0.3,0.5
2026-05-08T1300,1062A,117.9531,40.908,承德市,铁路,,30,6,23,3,6,93,93,54,54,5,11,8,3,0.4,0.2
2026-05-08T1300,1063A,117.9397,40.9763,承德市,中国银行,,29,NA,15,3,6,91,91,53,53,4,9,24,3,0.8,0.3
2026-05-08T1300,4073A,117.9462,40.95,承德市,杏林街1号,,31,21,21,3,9,98,98,59,59,5,11,14,3,0.7,0.3
2026-05-08T1300,4274A,117.7994,40.9605,承德市,滨河大街98号,,31,17,28,3,8,98,98,54,54,3,12,14,15,0.6,0.4
2026-05-08T1300,2314A,117.4698,30.6617,池州市,池州学院,,37,25,41,16,27,118,118,104,104,16,17,6,5,0.5,0.6
2026-05-08T1300,3237A,117.4918,30.6617,池州市,展览馆,,40,27,44,16,27,127,127,110,110,10,14,4,4,0.5,0.5
2026-05-08T1300,3333A,117.5626,30.695,池州市,第八中学,,36,21,41,14,26,115,115,99,99,13,17,4,5,0.3,0.5
2026-05-08T1300,3334A,117.5037,30.6242,池州市,第十二中学,,38,31,41,12,26,120,120,102,102,13,15,4,5,0.4,0.7
2026-05-08T1300,1744A,118.9229,42.2816,赤峰市,松山一中,,34,9,20,3,9,106,106,65,65,10,24,7,9,0.4,0.5
2026-05-08T1300,1745A,118.9588,42.2733,赤峰市,哈达街,,31,7,24,3,9,99,99,65,65,9,23,7,8,0.4,0.5
2026-05-08T1300,1746A,118.8792,42.2551,赤峰市,天义路,,31,7,16,6,7,98,98,63,63,9,21,5,7,0.4,0.5
2026-05-08T1300,3058A,119.2656,42.0356,赤峰市,银河街,,33,25,35,3,13,104,104,59,59,6,17,10,13,0.5,0.6
2026-05-08T1300,3286A,118.9359,42.3146,赤峰市,桥北物流园区,,30,7,15,3,6,96,96,61,61,3,20,4,4,0.2,0.3
2026-05-08T1300,2521A,107.3473,22.4137,崇左市,市环保局江州分局,,24,24,34,10,21,65,65,43,43,4,9,2,5,0.5,0.5
2026-05-08T1300,4256A,107.375,22.3736,崇左市,石景林东路7号,,22,11,26,11,20,68,68,54,54,5,9,3,3,0.6,0.6
2026-05-08T1300,3207A,118.31131,32.3033,滁州市,市政府原办公楼,,41,18,28,10,25,130,130,101,101,9,13,6,5,0.2,0.4
2026-05-08T1300,3331A,118.3268,32.2633,滁州市,图书馆,,38,24,40,3,20,119,119,94,94,10,12,9,10,0.4,0.5
2026-05-08T1300,4101A,118.3196,32.3335,滁州市,银山路666号,,42,23,32,7,21,133,133,97,97,13,15,7,7,0.1,0.2
2026-05-08T1300,4102A,118.3426,32.2979,滁州市,黄山路555号,,42,22,43,7,21,133,133,101,101,26,12,12,7,0.7,0.6
2026-05-08T1300,2606A,101.5379,25.0492,楚雄彝族自治州,市经济开发区,,46,32,37,32,27,67,67,43,43,7,15,2,4,0.5,0.6
2026-05-08T1300,4153A,101.5536,25.0343,楚雄彝族自治州,团结路562号,,45,34,33,31,31,71,71,49,49,7,14,2,5,0.5,0.5
2026-05-08T1300,2549A,107.5087,31.2186,达州市,市环境监测站,,37,37,60,18,25,38,38,NA,NA,27,38,7,7,0.3,0.3
2026-05-08T1300,2550A,107.4988,31.2132,达州市,凤凰小区,,41,41,50,18,21,46,46,17,17,24,32,6,6,0.5,0.5
2026-05-08T1300,2551A,107.5081,31.1987,达州市,达县机关宾馆,,46,46,51,18,23,22,22,10,10,39,35,6,5,0.6,0.5
2026-05-08T1300,2552A,107.4644,31.2124,达州市,市政中心,颗粒物(PM10),53,54,56,19,20,44,44,14,14,24,34,6,5,0.4,0.4
2026-05-08T1300,2614A,100.2168,25.5818,大理白族自治州,大理市环境监测站,,28,16,16,11,11,87,87,65,65,2,3,4,3,0.3,0.3
2026-05-08T1300,2615A,100.1542,25.7055,大理白族自治州,大理古城,,29,15,16,12,14,90,90,56,56,6,9,9,9,0.8,0.8
2026-05-08T1300,1109A,121.6119,38.974,大连市,甘井子,,33,21,20,3,5,104,104,86,84,8,14,10,10,0.4,0.5
2026-05-08T1300,1110A,121.565,38.9509,大连市,周水子,,30,26,22,3,5,94,94,77,73,16,22,5,5,0.3,0.4
2026-05-08T1300,1111A,121.5637,38.8849,大连市,星海三站,,30,18,20,3,6,93,93,78,78,9,13,4,5,0.3,0.4
2026-05-08T1300,1112A,121.6301,38.9117,大连市,青泥洼桥,,31,7,11,3,5,99,99,80,80,9,20,5,5,0.2,0.3
2026-05-08T1300,1113A,121.6248,38.8643,大连市,傅家庄,,27,17,16,3,4,85,85,80,76,10,11,6,7,0.3,0.3
2026-05-08T1300,1114A,121.5117,38.8636,大连市,七贤岭,,25,NA,9,3,3,80,80,76,70,7,11,6,6,0.2,0.3
2026-05-08T1300,1116A,121.7507,39.1339,大连市,金州,,30,17,20,3,6,96,96,81,81,8,15,7,10,0.3,0.4
2026-05-08T1300,1117A,121.7811,39.0495,大连市,开发区,,30,26,25,3,5,94,94,77,77,10,21,7,7,0.2,0.3
2026-05-08T1300,1118A,121.9762,39.0631,大连市,双D港,,31,18,25,3,6,98,98,84,82,6,11,4,5,0.4,0.4
2026-05-08T1300,4082A,121.2548,38.8188,大连市,旅顺,,27,17,18,3,7,84,84,68,68,9,17,6,8,0.3,0.4
2026-05-08T1300,1789A,124.8085,46.0381,大庆市,大同区,,31,15,29,3,14,98,98,88,88,3,10,1,2,0.2,0.3
2026-05-08T1300,1790A,125.1166,46.5255,大庆市,龙凤区,,30,20,40,3,16,94,94,80,80,6,16,5,5,0.1,0.1
2026-05-08T1300,1791A,124.8894,46.4007,大庆市,红岗区,,29,19,35,3,15,91,91,76,76,2,11,12,12,0.2,0.3
2026-05-08T1300,1792A,125.1391,46.578,大庆市,萨尔图区,,30,19,33,8,18,94,94,75,75,6,20,7,7,0.3,0.4
2026-05-08T1300,1793A,124.9026,46.6217,大庆市,让胡路区,,29,16,32,3,15,92,92,78,78,4,15,4,4,0.6,0.7
2026-05-08T1300,3481A,125.127,46.6277,大庆市,萨区政府监测点,,30,22,30,8,13,95,95,76,76,2,13,8,8,0.3,0.4
2026-05-08T1300,1723A,113.2926,40.0759,大同市,云冈宾馆,颗粒物(PM10),51,51,57,12,15,112,112,56,56,8,29,7,9,0.2,0.6
2026-05-08T1300,1724A,113.3437,40.0921,大同市,大同大学,颗粒物(PM10),67,73,51,16,14,108,108,65,65,12,26,6,8,0.4,0.5
2026-05-08T1300,1725A,113.2637,40.129,大同市,安家小村,颗粒物(PM10),75,84,56,10,10,112,112,58,58,9,23,6,6,0.2,0.7
2026-05-08T1300,3282A,113.3399,40.0586,大同市,大同市卫生学校,颗粒物(PM10),55,57,41,3,10,115,115,63,63,10,24,7,9,0.3,0.6
2026-05-08T1300,3565A,113.1371,40.1122,大同市,云冈站,颗粒物(PM10),55,57,37,17,10,100,100,56,56,9,28,7,11,0.3,0.4
2026-05-08T1300,3566A,113.1186,40.2556,大同市,图书馆,,32,6,28,3,5,102,102,58,58,11,10,7,5,0.2,0.6
2026-05-08T1300,3567A,113.5931,40.0459,大同市,区一中,颗粒物(PM10),79,90,43,8,8,119,119,74,74,9,13,7,6,0.4,0.4
2026-05-08T1300,4199A,113.2798248,40.09972476,大同市,魏都大道141号,颗粒物(PM10),78,88,61,8,15,104,104,50,50,9,29,5,7,0.3,1.1
2026-05-08T1300,2269A,124.1068,50.4091,大兴安岭地区,科技局,,28,10,19,3,6,89,89,74,74,1,4,6,6,0.2,0.2
2026-05-08T1300,3663A,124.117,50.4279,大兴安岭地区,红旗社区,,30,7,11,3,6,95,95,73,73,2,7,4,4,0.2,0.2
2026-05-08T1300,1600A,124.33,40.0625,丹东市,江湾东路,,32,19,19,3,7,102,102,72,72,5,13,4,5,0.3,0.4
2026-05-08T1300,1601A,124.4242,40.1513,丹东市,临江后街,,30,17,16,3,6,95,95,64,64,4,14,5,8,0.2,0.3
2026-05-08T1300,1602A,124.3935,40.1461,丹东市,元宝山,,29,15,17,3,5,92,92,66,66,6,10,6,6,0.3,0.4
2026-05-08T1300,1603A,124.3634,40.1093,丹东市,民主桥,,30,25,25,3,7,93,93,64,64,8,20,7,7,0.4,0.5
2026-05-08T1300,3541A,109.5726195,19.51688767,儋州市,第一中学子站,,36,36,28,18,12,71,71,42,42,8,8,5,6,0.3,0.3
2026-05-08T1300,3542A,109.5567,19.5187,儋州市,东坡学校子站,,25,24,27,17,13,75,75,43,43,3,6,5,6,0.4,0.5
2026-05-08T1300,2616A,98.5611,24.4273,德宏傣族景颇族自治州,德宏州监测站,,22,22,15,12,13,62,62,25,25,7,7,3,3,1.0,0.8
2026-05-08T1300,3677A,98.5887,24.4366,德宏傣族景颇族自治州,芒市人民政府综合楼,,39,39,34,17,13,60,60,25,25,10,9,4,4,0.5,0.5
2026-05-08T1300,1901A,104.424,31.1209,德阳市,东山公园,,31,31,51,17,22,93,93,84,84,5,5,2,3,0.4,0.3
2026-05-08T1300,1902A,104.3827,31.1318,德阳市,西小区,,36,36,53,14,17,92,92,83,83,10,11,3,3,0.4,0.4
2026-05-08T1300,1904A,104.3553,31.1091,德阳市,耐火材料厂,,43,43,58,16,20,100,100,85,85,14,14,2,2,0.2,0.2
2026-05-08T1300,4145A,104.4144,31.1495,德阳市,市林业局,,33,33,51,14,19,102,102,86,86,10,13,3,3,0.3,0.3
2026-05-08T1300,1622A,116.3034,37.4675,德州市,儿童乐园,颗粒物(PM10),67,73,48,22,11,138,138,110,110,8,14,9,7,0.4,0.4
2026-05-08T1300,1624A,116.2992,37.4449,德州市,监理站,,48,39,33,33,18,139,139,100,100,6,19,10,7,0.2,0.3
2026-05-08T1300,3066A,116.2722,37.438,德州市,九衢泉纯净水厂,颗粒物(PM10),91,107,52,45,20,132,132,85,85,16,35,13,8,0.6,0.5
2026-05-08T1300,3371A,116.3693,37.44,德州市,开发区人民医院,颗粒物(PM10),60,63,51,10,11,134,134,104,104,10,20,12,10,0.3,0.3
2026-05-08T1300,3511A,116.5687,37.3331,德州市,陵城艺术中心,,41,41,48,7,17,124,124,90,90,9,19,15,8,0.5,0.5
2026-05-08T1300,4292A,116.352738,37.420875,德州市,新河东路,颗粒物(PM10),56,58,44,7,10,133,133,97,97,7,21,10,8,0.5,0.6
2026-05-08T1300,2621A,99.7054,27.8319,迪庆藏族自治州,迪庆州站,,36,23,18,3,8,115,115,84,84,7,8,7,8,0.3,0.3
2026-05-08T1300,3180A,99.7122,27.8129,迪庆藏族自治州,质量技术监督局,,39,19,14,9,9,123,123,97,97,7,8,8,8,0.3,0.4
2026-05-08T1300,4257A,104.6092,35.5962,定西市,将台街,,38,29,41,3,11,119,119,77,77,3,11,3,3,0.1,0.1
2026-05-08T1300,4309A,104.6159,35.5701,定西市,正龙路62号,,36,19,42,6,11,115,115,82,82,6,8,3,3,0.2,0.2
2026-05-08T1300,4071A,114.9883,38.5232,定州市,交通局,颗粒物(PM10),72,80,54,12,11,122,122,74,74,14,18,9,5,0.4,0.4
2026-05-08T1300,4072A,115.0045,38.5136,定州市,第五中学,颗粒物(PM10),65,71,71,12,14,116,116,65,65,12,21,8,4,0.4,0.4
2026-05-08T1300,1390A,113.7943,23.0132,东莞市,东城石井,颗粒物(PM10),68,75,24,40,11,83,83,43,43,38,22,7,6,0.7,0.5
2026-05-08T1300,1391A,113.7384,22.9659,东莞市,南城西平,,41,41,20,24,8,67,67,48,48,26,17,5,5,0.5,0.4
2026-05-08T1300,3319A,113.7283,23.041,东莞市,万江金泰,细颗粒物(PM2.5),78,83,25,49,14,62,62,44,44,47,23,9,7,0.6,0.4
2026-05-08T1300,4129A,113.8666,23.1062,东莞市,裕兴路,,40,40,30,19,12,59,59,47,47,18,24,8,7,0.7,0.6
2026-05-08T1300,4130A,114.0076,22.9739,东莞市,教育路1号,颗粒物(PM10),76,86,41,46,19,129,129,53,53,31,30,7,5,0.7,0.6
2026-05-08T1300,4131A,113.7981,22.8124,东莞市,长怡路1号,,41,41,23,18,9,77,77,59,59,18,19,4,5,0.6,0.6
2026-05-08T1300,1666A,118.6612,37.4313,东营市,市环保局,,45,44,37,14,12,144,144,94,94,10,23,11,10,0.4,0.4
2026-05-08T1300,3036A,118.6903,37.4337,东营市,开发区管委会,,50,50,42,14,12,145,145,98,98,14,26,8,8,0.5,0.5
2026-05-08T1300,3365A,118.5721,37.5654,东营市,垦利区民丰路,颗粒物(PM10),51,51,38,14,14,147,147,111,111,12,23,16,15,0.4,0.4
2026-05-08T1300,3498A,118.5063,37.8606,东营市,河口城区,,45,36,36,11,13,143,143,102,102,7,16,8,9,0.5,0.6
2026-05-08T1300,3646A,118.4979,37.4623,东营市,胜利站,NA,NA,NA,32,16,14,132,132,88,88,NA,21,8,7,NA,0.6
2026-05-08T1300,3734A,118.5753,37.4405,东营市,理想之城,,47,46,51,18,11,148,148,96,96,17,30,9,8,0.4,0.4
2026-05-08T1300,1591A,110.0024,39.8127,鄂尔多斯市,综合楼,颗粒物(PM10),55,56,52,6,13,112,112,76,76,7,25,7,8,0.4,0.4
2026-05-08T1300,1592A,109.9485,39.8259,鄂尔多斯市,巴音孟克林场办事处,,37,34,36,11,12,118,118,92,92,4,18,6,6,0.3,0.4
2026-05-08T1300,1593A,109.7734,39.5987,鄂尔多斯市,康泽苑,,41,41,28,8,8,115,115,75,75,5,14,6,5,0.3,0.2
2026-05-08T1300,1594A,109.8121,39.5987,鄂尔多斯市,华泰汽车城,颗粒物(PM10),56,58,32,6,8,113,113,66,66,6,23,9,8,0.3,0.3
2026-05-08T1300,1595A,109.9734,39.7884,鄂尔多斯市,奥林花园,颗粒物(PM10),51,51,52,33,14,117,117,70,70,6,30,7,5,0.2,0.3
2026-05-08T1300,2436A,114.894,30.3989,鄂州市,市政府,,42,41,46,21,22,132,132,97,97,10,18,9,9,0.4,0.4
2026-05-08T1300,2437A,114.8986,30.3714,鄂州市,赵家坝,,44,NA,52,20,20,140,140,102,102,7,11,8,8,0.3,0.4
2026-05-08T1300,3654A,114.8093,30.4091,鄂州市,精准医疗中心,,47,47,41,29,25,122,122,94,94,13,16,4,5,0.7,0.6
2026-05-08T1300,2454A,109.4978,30.2979,恩施土家族苗族自治州,湖北民院,,35,30,26,24,15,35,35,39,29,9,4,8,8,0.4,0.3
2026-05-08T1300,3549A,109.5061,30.3771,恩施土家族苗族自治州,龙凤新区,,32,NA,18,22,13,28,28,20,19,12,5,6,7,0.3,0.3
2026-05-08T1300,2499A,108.3411,21.6159,防城港市,沙万,,21,16,30,9,11,66,66,59,59,8,17,10,8,1.0,0.6
2026-05-08T1300,2500A,108.3515,21.7733,防城港市,防城档案局,,23,NA,24,12,12,73,73,60,60,4,8,6,6,0.6,0.6
2026-05-08T1300,2501A,108.3506,21.6414,防城港市,大海花园,,26,26,26,10,11,78,78,67,67,4,12,7,8,0.6,0.6
2026-05-08T1300,1371A,113.1293,23.0065,佛山市,湾梁,,16,NA,23,11,16,44,44,28,28,25,19,/,/,/,/
2026-05-08T1300,1372A,113.1082,23.0477,佛山市,华材职中,,16,NA,22,11,16,47,47,29,29,29,19,4,4,0.5,0.5
2026-05-08T1300,1373A,113.1439,23.045,佛山市,南海气象局,,15,7,32,7,14,46,46,25,25,26,20,/,/,/,/
2026-05-08T1300,1374A,113.2879,22.8094,佛山市,顺德苏岗,,36,NA,20,25,14,89,89,49,49,16,16,/,/,0.5,0.5
2026-05-08T1300,1376A,112.8384,22.8678,佛山市,高明孔堂,,19,19,26,13,10,35,35,26,26,24,14,/,/,/,/
2026-05-08T1300,1377A,112.8835,23.1584,佛山市,三水监测站,,16,NA,20,11,17,41,41,24,24,19,32,4,4,0.7,0.6
2026-05-08T1300,1378A,112.8668,23.185,佛山市,三水云东海,,42,42,39,12,15,36,36,21,21,20,21,/,/,/,/
2026-05-08T1300,3625A,113.2568,22.7629,佛山市,容桂街道办,,29,22,20,20,13,91,91,53,53,17,18,/,/,/,/
2026-05-08T1300,1282A,119.2681,26.0506,福州市,师大,,30,14,26,6,17,96,96,71,71,15,14,3,4,0.3,0.4
2026-05-08T1300,1283A,119.2983,26.1028,福州市,五四北路,,33,NA,25,3,17,104,104,73,73,14,15,4,4,0.4,0.4
2026-05-08T1300,1284A,119.2648,26.0769,福州市,杨桥西路,,31,11,26,3,17,99,99,76,76,16,15,3,4,/,/
2026-05-08T1300,3048A,119.5799,26.0937,福州市,九龙,,35,22,19,3,9,110,110,90,90,6,7,5,5,0.2,0.3
2026-05-08T1300,3526A,119.5188,25.9666,福州市,吴航,,35,12,21,7,13,110,110,93,93,8,12,6,6,0.4,0.5
2026-05-08T1300,4104A,119.3106,26.0648,福州市,路通桥巷6号,,32,9,28,7,21,102,102,70,70,12,15,/,/,/,/
2026-05-08T1300,1755A,123.7974,41.8494,抚顺市,望花区,,34,18,32,3,13,106,106,66,66,8,25,4,5,0.3,0.4
2026-05-08T1300,1756A,123.9161,41.8827,抚顺市,顺城区,,32,6,28,3,12,102,102,59,59,8,24,9,9,0.3,0.5
2026-05-08T1300,1757A,124.0437,41.8615,抚顺市,东洲区,,31,25,31,3,13,99,99,64,64,7,15,8,9,0.4,0.6
2026-05-08T1300,1758A,123.9246,41.8638,抚顺市,新抚区,颗粒物(PM10),59,62,40,6,14,107,107,70,70,8,23,7,7,0.3,0.5
2026-05-08T1300,1759A,124.0972,41.8961,抚顺市,大伙房水库,,37,37,35,6,11,104,104,61,61,6,17,8,8,0.2,0.4
2026-05-08T1300,1760A,123.708,41.8386,抚顺市,沈抚新城,,32,21,31,3,9,100,100,59,59,8,28,8,9,0.4,0.5
2026-05-08T1300,2377A,116.3544,27.9833,抚州市,市站,,30,30,30,21,24,78,78,70,69,7,7,4,9,0.8,0.9
2026-05-08T1300,2378A,116.3562,27.9631,抚州市,血防站,,36,32,33,25,24,84,84,76,76,7,7,7,9,0.4,0.5
2026-05-08T1300,2379A,116.3561,28.0007,抚州市,采茶剧团,,28,28,33,13,22,80,80,71,71,8,7,18,18,0.6,0.7
2026-05-08T1300,2380A,116.3854,27.9648,抚州市,医学分院,,33,33,35,12,20,84,84,78,78,5,5,6,9,0.8,0.9
2026-05-08T1300,2207A,121.6095,41.9978,阜新市,工业园区,,34,22,36,3,7,106,106,68,68,5,18,7,7,0.2,0.3
2026-05-08T1300,2208A,121.6567,42.0188,阜新市,长青街,,32,6,26,3,7,102,102,64,64,5,17,5,5,0.2,0.3
2026-05-08T1300,2209A,121.6672,42.07,阜新市,农业园区,,31,11,28,3,4,99,99,70,70,6,11,5,5,0.3,0.3
2026-05-08T1300,2211A,121.6343,42.0455,阜新市,玉龙新城,,33,11,40,3,10,105,105,66,66,4,24,6,6,0.2,0.3
2026-05-08T1300,2301A,115.8276,32.8929,阜阳市,市监测站,,47,47,56,14,12,132,132,94,94,9,15,8,7,0.4,0.4
2026-05-08T1300,2303A,115.8551,32.8606,阜阳市,开发区,,45,45,55,12,11,130,130,92,92,11,14,6,6,0.4,0.4
2026-05-08T1300,2875A,115.783962,32.889217,阜阳市,阜阳职业技术学院,,43,37,43,12,12,137,137,101,101,7,10,9,9,0.4,0.4
2026-05-08T1300,3468A,115.79,32.8614,阜阳市,市规划展馆,颗粒物(PM10),51,51,51,14,11,132,132,97,97,7,9,9,9,0.5,0.5
2026-05-08T1300,3469A,115.835101,32.918568,阜阳市,枣园社区,,43,39,50,12,12,136,136,95,95,9,15,8,8,0.5,0.5
2026-05-08T1300,2669A,102.9097,34.9841,甘南藏族自治州,州政府,,35,30,46,11,19,110,110,53,53,2,15,3,3,0.2,0.3
2026-05-08T1300,3380A,102.8915,34.9618,甘南藏族自治州,甘肃民族师范学院,,37,37,54,15,22,116,116,58,58,7,24,2,2,0.1,0.2
2026-05-08T1300,2570A,101.96,30.048,甘孜藏族自治州,水桥子,,26,21,45,3,16,83,83,78,72,4,8,6,6,0.2,0.2
2026-05-08T1300,3065A,101.9534,29.9976,甘孜藏族自治州,州环保局,,30,15,42,6,15,94,94,85,82,10,10,7,7,0.4,0.4
2026-05-08T1300,2363A,114.9368,25.8663,赣州市,地委,,32,32,23,20,13,82,82,76,76,4,4,1,1,0.7,0.7
2026-05-08T1300,2364A,114.946,25.8483,赣州市,气象台,,38,28,24,26,16,80,80,72,72,8,9,2,2,0.4,0.4
2026-05-08T1300,2365A,114.932,25.8332,赣州市,市图书馆,,32,26,18,22,15,84,84,81,81,7,7,3,4,0.4,0.4
2026-05-08T1300,2366A,114.8905,25.8472,赣州市,华坚鞋城,,31,31,25,18,13,78,78,75,75,14,9,6,6,0.4,0.4
2026-05-08T1300,3109A,115.0094,25.8614,赣州市,赣县区卫计委,,43,43,17,20,11,72,72,68,68,7,7,5,3,0.6,0.5
2026-05-08T1300,2684A,106.2753,36.0057,固原市,监测站,,37,23,26,6,12,116,116,86,86,5,13,7,6,0.4,0.4
2026-05-08T1300,2685A,106.2384,36.0189,固原市,新区,,36,33,29,3,6,114,114,84,84,6,11,5,5,0.2,0.3
2026-05-08T1300,2544A,106.6307,30.4577,广安市,市委,,31,NA,27,21,12,98,98,100,100,7,10,6,7,0.3,0.3
2026-05-08T1300,2545A,106.6266,30.4662,广安市,友谊中学,,29,16,25,14,12,92,92,97,97,7,9,6,7,0.5,0.5
2026-05-08T1300,2547A,106.6386,30.4551,广安市,广电花园,,27,20,28,16,15,85,85,87,87,9,13,6,6,0.4,0.4
2026-05-08T1300,2902A,106.6347,30.4868,广安市,北辰小学,,28,22,31,15,14,87,87,96,95,8,9,3,4,0.3,0.3
2026-05-08T1300,2524A,105.8211,32.4444,广元市,老城,颗粒物(PM10),58,60,51,27,20,42,42,26,26,43,30,5,2,0.9,0.5
2026-05-08T1300,2526A,105.8629,32.429,广元市,监测站,颗粒物(PM10),60,63,50,38,20,42,42,38,32,42,22,5,4,0.7,0.5
2026-05-08T1300,3617A,105.8047,32.4167,广元市,经开区,颗粒物(PM10),75,84,59,46,24,43,43,36,36,47,33,35,8,1.1,0.5
2026-05-08T1300,1345A,113.2346,23.1423,广州市,广雅中学,,18,13,24,7,12,56,56,34,34,22,20,2,2,0.8,0.7
2026-05-08T1300,1346A,113.2611,23.105,广州市,市五中,,20,19,27,14,16,48,48,39,39,29,25,3,4,/,/
2026-05-08T1300,1348A,113.3477,23.0916,广州市,广东商学院,,25,20,25,17,14,30,30,25,25,39,38,4,4,0.6,0.5
2026-05-08T1300,1349A,113.4332,23.105,广州市,市八十六中,,33,NA,22,23,14,7,7,18,18,48,39,6,7,/,/
2026-05-08T1300,1350A,113.3506,22.9488,广州市,番禺中学,,30,30,27,20,13,42,42,41,41,28,19,5,5,0.7,0.6
2026-05-08T1300,1351A,113.2147,23.3918,广州市,花都师范,,23,11,29,8,16,72,72,38,38,8,27,6,6,0.9,0.9
2026-05-08T1300,1352A,113.2599,23.1329,广州市,市监测站,,18,10,23,6,12,57,57,36,36,17,18,2,3,/,/
2026-05-08T1300,1353A,113.5618,23.3119,广州市,九龙镇镇龙,,19,8,28,7,13,59,59,19,19,12,32,6,7,0.4,0.5
2026-05-08T1300,1354A,113.2764,23.1544,广州市,麓湖,,20,10,24,6,12,61,61,28,28,18,24,4,6,0.6,0.5
2026-05-08T1300,2846A,113.3209,23.1323,广州市,体育西,,28,28,26,18,14,32,32,35,31,33,26,5,6,0.8,0.7
2026-05-08T1300,3298A,113.5718,23.5493,广州市,从化街口,,18,9,33,6,22,56,56,41,41,14,20,4,5,0.8,0.8
2026-05-08T1300,3299A,113.3463,23.369,广州市,白云竹料,,22,12,32,6,16,69,69,37,37,10,27,3,4,0.7,0.7
2026-05-08T1300,3300A,113.2981,23.2365,广州市,白云嘉禾,,22,15,29,9,16,70,70,36,36,18,28,8,9,/,/
2026-05-08T1300,3301A,113.4256,23.1716,广州市,黄埔科学城,,15,9,24,6,14,48,48,18,18,19,17,4,5,0.7,0.7
2026-05-08T1300,3302A,113.3942,23.0485,广州市,番禺大学城,,34,34,33,22,12,27,27,34,34,37,29,7,8,0.5,0.4
2026-05-08T1300,3303A,113.4923,22.8169,广州市,南沙黄阁,细颗粒物(PM2.5),60,45,27,40,14,81,81,42,42,33,22,8,6,/,/
2026-05-08T1300,3304A,113.534,22.7893,广州市,南沙街,,33,33,23,16,10,68,68,47,47,20,16,8,7,0.5,0.4
2026-05-08T1300,3443A,113.2905,23.5541,广州市,花都梯面,,17,12,34,8,19,52,52,35,35,6,20,9,8,/,/
2026-05-08T1300,3445A,113.786,23.7479,广州市,从化良口,,23,6,24,3,15,73,73,52,52,5,13,4,4,/,/
2026-05-08T1300,3446A,113.805,23.2614,广州市,增城荔城,,22,11,27,6,15,68,68,25,25,8,23,6,7,0.5,0.5
2026-05-08T1300,2506A,109.604387,23.066791,贵港市,江南子站,,20,NA,13,10,9,62,62,54,54,7,8,7,7,0.7,0.6
2026-05-08T1300,2508A,109.5669,23.1065,贵港市,荷城子站,,18,9,13,7,10,56,56,50,50,10,10,3,4,0.8,0.7
2026-05-08T1300,3405A,109.5886,23.1172,贵港市,新世纪学校,,19,17,14,10,10,58,58,52,52,11,13,/,/,0.7,0.5
2026-05-08T1300,4260A,109.5933,23.095,贵港市,中山路155-3号,,25,25,20,6,10,64,64,58,57,10,8,/,/,0.5,0.5
2026-05-08T1300,1439A,106.6863,26.6035,贵阳市,马鞍山,,27,27,29,16,18,86,86,90,89,8,9,1,2,/,/
2026-05-08T1300,1441A,106.6241,26.6266,贵阳市,鉴湖路,,48,48,43,15,18,92,92,95,94,11,10,7,7,0.6,0.6
2026-05-08T1300,1442A,106.7468,26.6344,贵阳市,燕子冲,,41,41,39,25,18,85,85,89,88,8,7,8,8,0.5,0.5
2026-05-08T1300,1443A,106.6556,26.4362,贵阳市,碧云窝,,44,44,46,14,16,105,105,100,100,8,9,4,5,/,/
2026-05-08T1300,1445A,106.6963,26.6063,贵阳市,红边门,,36,36,37,16,18,95,95,98,98,11,11,4,5,/,/
2026-05-08T1300,1446A,106.7162383,26.56964667,贵阳市,新华路,,36,36,39,17,17,99,99,102,102,8,9,24,6,0.2,0.3
2026-05-08T1300,1447A,106.6742,26.542,贵阳市,太慈桥,NA,NA,NA,41,NA,20,NA,NA,90,NA,NA,11,NA,4,NA,NA
2026-05-08T1300,4230A,106.688212,26.56952,贵阳市,花果园大街66号,,29,27,24,17,17,90,90,96,95,8,8,3,3,/,/
2026-05-08T1300,4231A,106.687268,26.516892,贵阳市,漓江路57号,,29,29,30,17,19,91,91,94,93,8,9,5,5,0.4,0.4
2026-05-08T1300,1864A,110.3091,25.2705,桂林市,龙隐路小学,,28,23,12,3,7,87,87,83,83,6,6,3,4,0.5,0.5
2026-05-08T1300,1865A,110.2849361,25.22909545,桂林市,八中,,28,27,12,8,3,87,87,83,83,10,10,3,3,0.6,0.6
2026-05-08T1300,3531A,110.296,25.1254,桂林市,旅游学院,,31,31,18,7,4,96,96,87,87,4,5,5,5,0.4,0.4
2026-05-08T1300,4222A,110.1835,25.2444,桂林市,环湖路276号,,26,9,9,3,8,83,83,79,79,4,6,3,8,0.5,0.5
2026-05-08T1300,4301A,110.2803,25.2773,桂林市,信义路13号,,26,19,11,11,5,82,82,79,79,5,5,4,5,0.6,0.6
2026-05-08T1300,2674A,100.2262,34.4854,果洛藏族自治州,玛沁县大武镇,,31,19,20,3,7,97,97,93,90,1,2,17,18,0.3,0.3
2026-05-08T1300,1130A,126.5557,45.8109,哈尔滨市,松北商大,,32,14,27,3,18,100,100,71,71,5,11,4,5,0.2,0.5
2026-05-08T1300,1132A,126.6162,45.719,哈尔滨市,南岗学府路,,34,13,32,3,13,106,106,75,75,4,13,3,3,0.4,0.5
2026-05-08T1300,1133A,126.6894,45.7733,哈尔滨市,太平宏伟公园,,31,12,28,3,16,99,99,73,73,7,15,5,6,0.2,0.2
2026-05-08T1300,1134A,126.6361,45.7672,哈尔滨市,道外承德广场,颗粒物(PM10),63,67,48,3,15,98,98,73,73,9,16,6,7,0.5,0.4
2026-05-08T1300,1136A,126.644,45.7261,哈尔滨市,动力和平路,,31,14,27,3,13,99,99,73,73,4,13,3,5,0.2,0.3
2026-05-08T1300,1137A,126.5933,45.7479,哈尔滨市,道里建国路,,32,22,26,3,13,100,100,73,73,9,18,9,9,0.1,0.2
2026-05-08T1300,1138A,126.6127,45.6119,哈尔滨市,平房东轻厂,,32,7,19,3,15,100,100,71,71,10,24,8,11,0.3,0.5
2026-05-08T1300,1139A,126.5875,45.9827,哈尔滨市,呼兰师专,,30,11,26,3,13,93,93,71,71,8,12,10,9,0.1,0.2
2026-05-08T1300,1140A,126.6299,45.6799,哈尔滨市,省农科院,,32,32,29,3,15,99,99,74,74,5,15,5,6,0.3,0.4
2026-05-08T1300,4282A,126.6769,45.7379,哈尔滨市,华山路1号,,33,17,29,3,13,103,103,76,76,4,14,3,4,0.3,0.3
2026-05-08T1300,4283A,126.9717,45.5356,哈尔滨市,解放大街52号,NA,NA,9,25,3,11,100,100,71,71,NA,18,3,7,0.4,0.6
2026-05-08T1300,2688A,93.5124,42.8176,哈密市,地区监测站,,34,25,31,10,13,108,108,76,76,5,18,6,4,0.1,0.1
2026-05-08T1300,2689A,93.5014,42.8312,哈密市,哈密师范学校,,36,31,33,6,14,113,113,73,73,7,22,4,4,0,0.3
2026-05-08T1300,2671A,100.9016,36.9464,海北藏族自治州,海晏县西海镇,,39,33,43,19,26,123,123,78,78,1,5,6,8,0.3,0.4
2026-05-08T1300,3867A,102.074,36.5056,海东市,平安区公安局北苑,,41,40,71,26,29,131,131,74,74,5,11,13,12,0.5,0.6
2026-05-08T1300,4163A,102.0984,36.5119,海东市,滨河路,,40,40,68,19,29,115,115,56,56,7,29,12,10,0.7,0.7
2026-05-08T1300,1410A,110.3189,20.0596,海口市,海南大学,,19,15,18,8,9,58,58,54,54,7,4,4,5,0.4,0.4
2026-05-08T1300,1411A,110.2827,20.0051,海口市,秀英海南医院,NA,NA,14,15,11,9,78,78,58,58,6,5,6,6,NA,0.3
2026-05-08T1300,1412A,110.3391,19.9979,海口市,海南师范大学,,24,17,18,10,9,76,76,56,56,4,5,4,3,0.4,0.4
2026-05-08T1300,1413A,110.3303,20.0359,海口市,龙华路环保局宿舍,,22,22,20,10,10,70,70,56,56,6,5,/,/,0.4,0.4
2026-05-08T1300,3539A,110.5111,19.9737,海口市,桂林洋子站,,19,14,22,7,9,60,60,44,44,3,6,/,/,/,/
2026-05-08T1300,4134A,110.1952,20.0451,海口市,长滨二路9号,,21,14,15,10,9,66,66,51,51,5,4,/,/,/,/
2026-05-08T1300,2673A,100.6158,36.2985,海南藏族自治州,共和县恰卜恰镇,,37,36,51,23,28,117,117,76,76,4,9,8,10,0.3,0.3
2026-05-08T1300,2676A,97.373,37.376,海西蒙古族藏族自治州,德令哈市,,33,20,19,13,10,103,103,108,105,11,2,16,15,1.1,0.4
2026-05-08T1300,1049A,114.492,36.5712,邯郸市,矿院,颗粒物(PM10),53,53,45,10,14,133,133,86,86,2,16,5,5,0.2,0.3
2026-05-08T1300,1050A,114.4839,36.6136,邯郸市,丛台公园,,43,21,19,3,7,135,135,100,100,4,11,5,5,0.3,0.3
2026-05-08T1300,3458A,114.7893,36.5592,邯郸市,香泉濮院小区,NA,NA,65,54,14,19,122,122,90,90,7,15,NA,4,0.3,0.3
2026-05-08T1300,3580A,114.1998,36.4439,邯郸市,峰峰矿区临水派出所,,43,36,32,17,12,135,135,99,99,4,5,3,3,0.5,0.6
2026-05-08T1300,4068A,114.5209,36.7697,邯郸市,建安街268号,,47,47,44,6,14,139,139,94,94,9,24,2,6,0.4,0.8
2026-05-08T1300,4069A,114.5488,36.6177,邯郸市,丛台东路558号,,47,47,30,3,5,130,130,88,88,2,17,4,3,0.3,0.2
2026-05-08T1300,2635A,107.0155,33.0707,汉中市,市监测站,颗粒物(PM10),53,54,44,26,17,56,56,31,31,17,16,8,5,0.6,0.5
2026-05-08T1300,2636A,107.0083,33.114,汉中市,鑫源开发区,,50,50,49,23,20,53,53,34,34,26,20,11,6,0.6,0.4
2026-05-08T1300,2637A,107.0072,33.0323,汉中市,南郑大河坎水厂,,50,50,41,27,15,42,42,24,22,22,17,8,6,0.6,0.5
2026-05-08T1300,1223A,120.2073,30.2111,杭州市,滨江,,30,24,41,10,20,96,96,90,89,9,11,9,9,0.4,0.5
2026-05-08T1300,1224A,120.0625,30.2737,杭州市,西溪,,29,16,35,11,22,92,92,90,90,7,4,5,5,0.5,0.7
2026-05-08T1300,1226A,120.3417,30.315,杭州市,下沙,,30,18,45,8,20,93,93,83,83,13,14,10,10,0.4,0.6
2026-05-08T1300,1227A,120.1252,30.2465,杭州市,卧龙桥,,31,17,36,9,20,99,99,94,93,11,13,8,8,0.2,0.3
2026-05-08T1300,1228A,120.1902,30.2691,杭州市,浙江农大,,30,21,39,10,21,95,95,81,81,8,13,9,9,0.2,0.3
2026-05-08T1300,1230A,120.1195,30.3121,杭州市,和睦小学,,29,22,34,9,20,92,92,89,89,16,12,7,8,0.3,0.4
2026-05-08T1300,1231A,120.3076,30.4146,杭州市,临平镇,,31,18,41,8,20,98,98,93,93,16,13,7,8,0.4,0.5
2026-05-08T1300,1232A,120.2753,30.1839,杭州市,城厢镇,NA,NA,18,44,7,19,100,100,87,87,NA,11,7,7,0.4,0.6
2026-05-08T1300,1233A,120.0883,30.1808,杭州市,云栖,,30,20,39,9,19,94,94,75,75,17,18,7,7,0.4,0.6
2026-05-08T1300,3557A,119.9463,30.0496,杭州市,镇二中,,29,23,33,15,22,90,90,87,86,12,16,6,5,0.4,0.7
2026-05-08T1300,3558A,119.7184,30.2367,杭州市,市府大楼,,30,14,30,10,22,96,96,84,84,15,13,7,7,0.3,0.4
2026-05-08T1300,3656A,120.1554,30.2863,杭州市,消防大队,,30,21,43,10,21,93,93,88,88,13,8,6,6,0.3,0.4
2026-05-08T1300,1270A,117.1957,31.7845,合肥市,明珠广场,,40,29,38,7,18,127,127,96,96,10,12,8,8,0.3,0.5
2026-05-08T1300,1271A,117.307,31.8765,合肥市,三里街,,36,19,35,3,16,115,115,85,85,8,14,8,7,0.3,0.4
2026-05-08T1300,1272A,117.2587,31.8703,合肥市,琥珀山庄,,37,22,33,3,15,116,116,93,93,5,9,10,8,0.3,0.5
2026-05-08T1300,1275A,117.2593,31.9376,合肥市,庐阳区,,38,31,41,3,16,119,119,92,92,8,12,6,6,0.5,0.6
2026-05-08T1300,1276A,117.345251,31.861615,合肥市,瑶海区,,40,29,38,3,15,126,126,94,94,10,13,7,7,0.3,0.5
2026-05-08T1300,1277A,117.3033,31.7967,合肥市,包河区,颗粒物(PM10),80,92,49,3,15,109,109,80,80,9,26,9,10,0.3,0.4
2026-05-08T1300,1278A,117.278,31.7392,合肥市,滨湖新区,,38,22,40,3,16,119,119,92,92,4,9,6,6,0.4,0.4
2026-05-08T1300,1279A,117.1324,31.8395,合肥市,高新区,,40,36,41,3,16,125,125,98,98,5,9,6,6,0.4,1.2
2026-05-08T1300,3464A,117.3802,31.9148,合肥市,高教基地,,40,19,36,3,15,125,125,92,92,4,9,8,8,0.4,0.4
2026-05-08T1300,4098A,117.2518,31.8404,合肥市,中国科学技术大学,,42,27,34,3,14,133,133,102,102,6,7,8,7,0.4,0.5
2026-05-08T1300,3614A,79.9241,37.0878,和田地区,地区环保局,颗粒物(PM10),147,241,277,103,115,96,96,83,82,4,10,1,2,0.3,0.4
2026-05-08T1300,3615A,79.9132,37.1137,和田地区,市环保局,颗粒物(PM10),144,232,269,66,91,102,102,80,80,5,18,2,3,0.2,0.5
2026-05-08T1300,2517A,108.0496,24.6957,河池市,市环保站,,26,18,21,3,12,83,83,76,76,5,9,6,6,0.5,0.6
2026-05-08T1300,4302A,108.0901,24.6945,河池市,上任中路54号,,25,24,20,3,9,80,80,80,80,2,10,7,7,0.8,0.9
2026-05-08T1300,1697A,114.6962,23.7538,河源市,东埔,,25,6,18,3,12,77,77,58,58,6,11,5,6,0.5,0.5
2026-05-08T1300,1698A,114.6895,23.7232,河源市,老城,,24,NA,24,3,13,74,74,54,54,4,11,6,6,0.5,0.5
2026-05-08T1300,3374A,115.5562,35.089,菏泽市,定陶老年大学,NA,NA,36,37,20,15,126,126,75,75,10,22,NA,6,0.0,0
2026-05-08T1300,4114A,115.4239,35.2593,菏泽市,黄河路600号,,46,46,45,19,15,124,124,85,85,7,18,3,3,0.3,0.3
2026-05-08T1300,4115A,115.5025,35.2727,菏泽市,菏泽市人社局,,47,47,43,14,10,117,117,82,82,5,16,7,7,0.2,0.2
2026-05-08T1300,4184A,115.479691,35.244011,菏泽市,永昌路1号,,42,25,33,17,11,134,134,92,92,6,17,6,6,0.1,0.2
2026-05-08T1300,4193A,115.471542,35.280012,菏泽市,长城路999号,,41,38,46,17,14,130,130,98,98,8,18,8,8,0.2,0.2
2026-05-08T1300,2514A,111.5264,24.4178,贺州市,环保小区,,26,20,18,8,9,81,81,74,74,8,12,6,6,0.5,0.4
2026-05-08T1300,2515A,111.561,24.4074,贺州市,政协大楼,,26,14,17,6,10,82,82,73,73,10,13,10,10,0.6,0.6
2026-05-08T1300,3534A,111.4744,24.455,贺州市,西湾,,20,NA,25,3,8,63,63,60,60,10,10,10,8,1.2,0.6
2026-05-08T1300,2385A,114.17,35.9019,鹤壁市,市监测站,,40,30,34,9,15,127,127,91,91,11,15,5,4,0.4,0.4
2026-05-08T1300,2386A,114.2953,35.7512,鹤壁市,市交警支队,颗粒物(PM10),53,53,41,14,9,121,121,75,75,13,22,7,5,0.4,0.4
2026-05-08T1300,2387A,114.2877,35.7302,鹤壁市,迎宾馆,颗粒物(PM10),63,68,43,8,10,125,125,76,76,9,14,6,4,0.4,0.4
2026-05-08T1300,3474A,114.2616,35.6824,鹤壁市,大新区,颗粒物(PM10),86,100,57,26,17,124,124,77,77,9,15,8,7,0.2,0.2
2026-05-08T1300,3596A,114.1573,35.9607,鹤壁市,南山宾馆,,40,38,38,16,21,126,126,98,98,3,8,6,7,0.5,0.4
2026-05-08T1300,2244A,130.2537,47.3416,鹤岗市,哈啤分公司,,31,8,17,3,6,98,98,90,90,6,7,11,10,0.7,0.6
2026-05-08T1300,2245A,130.2683,47.3087,鹤岗市,斯达机电,,31,6,15,3,5,98,98,88,88,2,4,10,10,0.6,0.5
2026-05-08T1300,2246A,130.3114,47.3388,鹤岗市,东山纸板厂,,32,21,40,3,7,100,100,89,89,5,12,9,10,0.5,0.5
2026-05-08T1300,2263A,127.4832,50.2524,黑河市,交通局,,28,21,22,8,8,87,87,75,75,8,11,5,6,0.3,0.3
2026-05-08T1300,2264A,127.5146,50.2339,黑河市,环保局,,28,11,17,7,8,87,87,78,78,5,8,6,8,0.2,0.2
2026-05-08T1300,1074A,115.6839,37.754,衡水市,电机北厂,颗粒物(PM10),68,74,46,9,13,141,141,100,100,8,14,6,4,0.4,0.3
2026-05-08T1300,1075A,115.6303,37.7318,衡水市,市监测站,颗粒物(PM10),95,113,55,9,11,135,135,91,91,8,18,8,6,0.3,0.2
2026-05-08T1300,3188A,115.6684,37.7216,衡水市,市城管局,颗粒物(PM10),81,93,52,7,13,138,138,100,100,10,20,7,5,0.3,0.3
2026-05-08T1300,3459A,115.599,37.5491,衡水市,地表水厂,颗粒物(PM10),79,90,59,6,12,134,134,91,91,2,19,5,4,0.3,0.3
2026-05-08T1300,2457A,112.6209,26.9268,衡阳市,衡阳化工总厂,,34,34,23,21,15,74,74,72,64,9,9,6,5,0.9,0.7
2026-05-08T1300,2458A,112.621,26.8957,衡阳市,珠晖区环保局,,39,39,22,24,16,75,75,77,67,12,9,6,6,0.6,0.5
2026-05-08T1300,2459A,112.628,26.8654,衡阳市,市委党校,,39,38,19,27,18,76,76,76,69,7,6,9,9,0.8,0.8
2026-05-08T1300,2460A,112.6007,26.8977,衡阳市,市监测站,,45,45,23,22,17,72,72,68,64,13,11,7,6,0.8,0.7
2026-05-08T1300,2461A,112.5658,26.9013,衡阳市,真空机电公司,,29,26,24,20,24,80,80,76,71,8,6,6,6,0.9,0.8
2026-05-08T1300,3399A,112.6703,26.8817,衡阳市,师范学院,,38,38,25,20,17,87,87,74,72,5,6,7,7,0.7,0.7
2026-05-08T1300,3038A,103.3757,23.3679,红河哈尼族彝族自治州,州图书馆,,38,30,31,26,27,89,89,78,78,5,7,4,6,0.4,0.4
2026-05-08T1300,4154A,103.401,23.3561,红河哈尼族彝族自治州,蒙自市朝阳路,,33,NA,23,23,22,89,89,79,79,3,4,5,8,0.4,0.4
2026-05-08T1300,1090A,111.6506,40.7517,呼和浩特市,呼市一监,NA,NA,90,48,20,18,113,113,71,71,19,19,NA,7,0.4,0.3
2026-05-08T1300,1094A,111.7516,40.8369,呼和浩特市,如意水处理厂,颗粒物(PM10),79,90,41,42,19,107,107,67,67,19,19,17,10,0.4,0.3
2026-05-08T1300,1095A,111.727798,40.806187,呼和浩特市,二十九中,细颗粒物(PM2.5),86,84,41,53,17,96,96,59,59,21,22,16,10,0.5,0.5
2026-05-08T1300,1097A,111.717,40.7617,呼和浩特市,化肥厂生活区,细颗粒物(PM2.5),92,102,50,56,18,110,110,63,63,21,23,14,9,0.4,0.4
2026-05-08T1300,3699A,111.6519,40.8389,呼和浩特市,海东办,颗粒物(PM10),75,85,43,40,22,92,92,57,57,17,32,12,7,0.3,0.3
2026-05-08T1300,4275A,111.591512,40.827312,呼和浩特市,成吉思汗西街8号,颗粒物(PM10),93,110,57,28,16,89,89,51,51,21,32,12,7,0.4,0.4
2026-05-08T1300,4276A,111.6597,40.8077,呼和浩特市,公园东路75号,颗粒物(PM10),83,95,51,24,18,93,93,66,66,22,21,15,7,0.5,0.4
2026-05-08T1300,4277A,111.5427,40.7846,呼和浩特市,金海路35号,颗粒物(PM10),82,94,54,21,20,90,90,54,54,21,29,11,7,0.4,0.4
2026-05-08T1300,3061A,119.7511,49.1576,呼伦贝尔市,国华电力东,,31,13,22,7,10,97,97,76,76,4,9,5,4,0.3,0.3
2026-05-08T1300,4279A,119.7569,49.2222,呼伦贝尔市,伊敏大街东7号,,30,13,22,8,9,94,94,74,74,5,9,6,6,0.4,0.6
2026-05-08T1300,1250A,120.075,30.867,湖州市,城西水厂,,37,15,35,8,20,116,116,110,108,9,12,6,6,0.2,0.3
2026-05-08T1300,2873A,120.083,30.8929,湖州市,仁皇山新区,,34,14,35,7,19,108,108,100,98,7,9,6,7,0.4,0.6
2026-05-08T1300,2907A,120.1846,30.8592,湖州市,吴兴区站,,33,20,41,10,20,104,104,96,96,12,11,6,6,0.3,0.4
2026-05-08T1300,3562A,120.4146,30.8538,湖州市,南浔区站,,31,22,42,12,21,99,99,89,89,11,10,6,7,0.4,0.6
2026-05-08T1300,1607A,120.904878,40.721091,葫芦岛市,龙港区,,33,26,41,3,9,103,103,70,70,10,28,11,11,0.4,0.4
2026-05-08T1300,1608A,120.8382,40.7521,葫芦岛市,化工街,,30,NA,37,3,13,94,94,65,65,7,32,10,22,0.3,0.4
2026-05-08T1300,1609A,120.8339,40.7078,葫芦岛市,新区,,31,21,27,13,7,98,98,75,75,12,32,12,11,0.4,0.4
2026-05-08T1300,1610A,120.8697,40.7679,葫芦岛市,东城区,,32,31,48,7,15,101,101,73,73,9,32,8,44,0.4,0.5
2026-05-08T1300,2483A,109.9297,27.5383,怀化市,河西地税局,,45,45,26,22,15,90,90,75,67,8,7,8,7,/,/
2026-05-08T1300,2484A,109.9783,27.5342,怀化市,市四医院,,50,50,33,23,16,74,74,71,62,8,7,6,7,0.4,0.3
2026-05-08T1300,2485A,109.9971,27.5579,怀化市,监测楼,,37,37,27,22,14,76,76,63,63,6,6,7,7,0.6,0.5
2026-05-08T1300,1210A,119.0566,33.5991,淮安市,钵池山,,35,22,29,7,15,110,110,86,86,12,18,9,10,0.1,0.3
2026-05-08T1300,1211A,119.0083,33.578,淮安市,北京南路,,34,19,29,6,14,108,108,84,84,8,14,6,8,0.2,0.4
2026-05-08T1300,1212A,118.9938,33.6083,淮安市,市监测站,,39,14,24,7,15,122,122,70,70,10,18,7,7,0.3,0.5
2026-05-08T1300,1213A,119.135,33.5038,淮安市,楚州区监测站,,32,15,31,7,13,101,101,76,76,7,12,5,6,0.2,0.3
2026-05-08T1300,3426A,118.8757,33.2897,淮安市,新华书店,,35,19,34,6,15,111,111,76,76,3,16,7,10,0.3,0.5
2026-05-08T1300,4092A,119.119691,33.550006,淮安市,枚皋中路89号,,33,30,26,3,14,104,104,80,80,8,11,8,7,0.3,0.4
2026-05-08T1300,4206A,119.028838,33.631911,淮安市,承德北路606号,,38,22,33,6,14,120,120,86,86,9,16,7,7,0.2,0.3
2026-05-08T1300,2282A,116.8005,33.9749,淮北市,监测站,,38,35,55,3,14,119,119,102,102,6,13,7,8,0.2,0.3
2026-05-08T1300,2283A,116.8094,33.9008,淮北市,烈山区政府,,39,17,54,6,12,124,124,97,97,7,12,6,7,0.4,0.3
2026-05-08T1300,4017A,116.7926,33.9534,淮北市,市博物馆,NA,NA,NA,79,8,13,125,125,101,101,8,14,7,6,0.4,0.4
2026-05-08T1300,4100A,116.8322,33.9884,淮北市,杜集区第一实验学校,,38,24,59,11,15,121,121,106,106,2,8,6,8,0.2,0.4
2026-05-08T1300,2277A,116.8304,32.7726,淮南市,潘集区政府,,41,20,38,9,17,129,129,96,96,10,17,7,8,0.2,0.3
2026-05-08T1300,2279A,116.8569,32.5949,淮南市,谢家集区政府,,43,33,36,14,16,136,136,97,97,5,10,8,12,0.2,0.3
2026-05-08T1300,2280A,116.8279,32.6333,淮南市,八公山区政府,,44,33,47,14,15,140,140,103,103,5,9,9,8,0.2,0.2
2026-05-08T1300,2894A,117.0561,32.6536,淮南市,经济技术开发区消防队,,38,22,36,6,15,121,121,96,96,9,12,7,8,0.2,0.3
2026-05-08T1300,3329A,117.011,32.5891,淮南市,山南新区,,39,26,34,8,17,124,124,98,98,6,10,8,8,0.1,0.2
2026-05-08T1300,4209A,117.003137,32.644456,淮南市,国庆中路369号,,40,22,39,7,15,125,125,99,99,2,7,4,12,0.2,0.1
2026-05-08T1300,2446A,114.9021,30.474,黄冈市,职工中心,NA,NA,NA,34,NA,26,121,121,89,89,NA,5,4,4,0.4,0.5
2026-05-08T1300,2929A,114.8858,30.4519,黄冈市,红卫路,,40,40,34,27,25,123,123,93,93,4,5,7,6,0.2,0.3
2026-05-08T1300,3398A,114.9134,30.4446,黄冈市,市林业局,,43,43,40,29,26,126,126,94,94,6,6,4,4,0.6,0.6
2026-05-08T1300,2672A,102.02,35.5101,黄南藏族自治州,同仁县隆务镇,,39,27,30,9,15,124,124,82,82,1,2,10,10,0.1,0.3
2026-05-08T1300,2295A,118.2905,29.6965,黄山市,延安路89号,,29,24,30,16,22,91,91,84,82,5,8,5,6,0.2,0.3
2026-05-08T1300,2297A,118.1369,30.2755,黄山市,黄山区政府5号楼,,34,29,39,9,29,106,106,64,64,4,6,3,3,0.3,0.3
2026-05-08T1300,4210A,118.335445,29.720283,黄山市,滨江东路7-2号,,40,40,40,14,24,90,90,81,78,5,8,/,/,/,/
2026-05-08T1300,2423A,115.0547,30.2332,黄石市,沈家营,颗粒物(PM10),55,56,49,3,20,143,143,104,104,4,7,5,4,0.3,0.2
2026-05-08T1300,2426A,114.899,30.211,黄石市,铁山,,44,36,38,12,23,138,138,103,103,4,4,10,7,0.6,0.3
2026-05-08T1300,2427A,115.0259,30.2108,黄石市,团城山,,47,42,41,10,23,150,150,108,108,4,6,4,4,0.4,0.5
2026-05-08T1300,3149A,115.0174,30.1591,黄石市,笔架山北路,,47,47,49,12,21,127,127,91,91,8,8,13,11,0.4,0.3
2026-05-08T1300,4185A,115.078022,30.21118,黄石市,磁湖东路29号,,45,41,47,12,24,141,141,106,106,6,13,4,4,0.2,0.4
2026-05-08T1300,1392A,114.4181,23.0528,惠州市,河南岸金山湖子站,,34,34,30,21,17,69,69,55,55,12,15,6,7,0.6,0.6
2026-05-08T1300,1393A,114.4055,23.0824,惠州市,下埔横江三路子站,,38,38,32,18,15,69,69,56,56,10,13,6,6,0.7,0.6
2026-05-08T1300,1395A,114.4645,22.7832,惠州市,惠阳区承修路船湖子站,,41,41,26,24,14,126,126,71,71,11,11,6,6,0.5,0.5
2026-05-08T1300,1396A,114.5316,22.7423,惠州市,大亚湾管委会子站,,36,31,26,17,12,113,113,60,60,8,10,6,5,0.5,0.5
2026-05-08T1300,3314A,114.4334,22.8134,惠州市,惠阳秋长,,48,48,26,26,14,133,133,70,70,11,12,/,/,/,/
2026-05-08T1300,3452A,114.6521,22.7755,惠州市,大亚湾霞涌,,45,45,18,18,9,106,106,65,65,10,7,/,/,/,/
2026-05-08T1300,4300A,114.4089,23.1147,惠州市,文华一路1号,,22,22,26,13,15,65,65,50,50,14,15,/,/,/,/
2026-05-08T1300,2240A,130.9618,45.2926,鸡西市,环保局,,31,16,20,9,10,99,99,82,82,6,13,6,7,0.2,0.2
2026-05-08T1300,2243A,130.9294,45.2959,鸡西市,第一中学,,31,14,19,3,10,97,97,81,81,2,8,7,7,0.2,0.3
2026-05-08T1300,3707A,131.0069,45.2988,鸡西市,欧美日汽修厂,,30,NA,16,9,12,95,95,76,76,1,8,5,5,0,0.1
2026-05-08T1300,2367A,114.9753,27.0803,吉安市,红声器材厂,颗粒物(PM10),51,51,41,32,23,113,113,96,96,9,11,8,8,0.4,0.5
2026-05-08T1300,2369A,114.9903,27.1313,吉安市,市环境监测站,,44,44,35,26,23,110,110,93,93,8,10,11,12,/,/
2026-05-08T1300,2370A,115.009527,27.096792,吉安市,青原区法院,,50,50,38,29,25,98,98,84,84,14,14,9,8,0.4,0.4
2026-05-08T1300,1772A,126.54,43.8622,吉林市,哈达湾,NA,NA,NA,24,NA,13,107,107,76,76,NA,10,NA,7,0.4,0.4
2026-05-08T1300,1773A,126.5843,43.8358,吉林市,东局子,,35,NA,20,20,21,111,111,73,73,6,13,5,5,0.6,0.7
2026-05-08T1300,1774A,126.5051,43.8243,吉林市,电力学院,,39,16,18,11,12,122,122,88,88,7,11,5,6,0.5,0.6
2026-05-08T1300,1775A,126.6133,43.8971,吉林市,江北,,34,26,22,18,18,107,107,70,70,10,14,12,11,0.6,0.6
2026-05-08T1300,1776A,126.5549,43.8304,吉林市,江南公园,,32,18,17,13,13,100,100,70,70,9,12,7,7,0.4,0.4
2026-05-08T1300,2868A,126.4737,43.953,吉林市,九站,,35,25,20,18,12,109,109,78,78,11,15,10,10,0.4,0.4
2026-05-08T1300,1299A,116.9866,36.6118,济南市,科干所,,41,36,34,15,6,130,130,110,110,10,18,6,5,0.3,0.2
2026-05-08T1300,1300A,116.9379,36.6652,济南市,农科所,,38,32,40,3,5,119,119,88,88,10,21,6,6,0.2,0.2
2026-05-08T1300,1301A,117.1265,36.6736,济南市,开发区,,43,34,29,6,3,136,136,115,115,5,9,6,5,0.3,0.3
2026-05-08T1300,1303A,117.0616,36.6865,济南市,省种子仓库,,41,34,45,7,6,130,130,104,104,10,23,6,5,0.3,0.3
2026-05-08T1300,1304A,116.9495185,36.644937,济南市,机床二厂,,41,27,33,14,7,131,131,100,100,13,20,6,5,0.3,0.3
2026-05-08T1300,1305A,117.0496,36.6629,济南市,市监测站,,46,46,36,9,5,123,123,101,101,10,18,5,4,0.2,0.3
2026-05-08T1300,1306A,116.7674,36.5458,济南市,长清党校,,42,39,34,10,4,132,132,96,96,8,22,8,5,0.5,0.5
2026-05-08T1300,1961A,117.5323,36.6865,济南市,东山小学,,38,34,35,3,2,119,119,84,84,4,18,3,3,0.2,0.2
2026-05-08T1300,3059A,117.7181,36.205,济南市,泰兴公司,NA,NA,44,44,NA,11,132,132,70,70,12,37,9,8,NA,0.4
2026-05-08T1300,3064A,117.6861,36.2172,济南市,莱芜战役纪念馆,,43,36,45,18,11,136,136,75,75,12,30,8,5,0.6,0.3
2026-05-08T1300,3494A,117.1673,36.9782,济南市,济阳区政府,颗粒物(PM10),53,54,54,9,12,116,116,80,80,12,30,7,8,0.4,0.4
2026-05-08T1300,3495A,117.1168,36.6299,济南市,锦屏中学,,40,20,29,12,4,128,128,NA,NA,10,12,7,6,0.2,0.2
2026-05-08T1300,4108A,117.7107,36.2385,济南市,山财大街5号,颗粒物(PM10),51,51,36,24,11,135,135,76,76,14,36,9,6,0.5,0.3
2026-05-08T1300,4109A,116.9744,36.6889,济南市,无影山路12号,,38,27,38,11,7,121,121,96,96,10,22,4,4,0.4,0.3
2026-05-08T1300,1653A,116.6229,35.4288,济宁市,火炬城,颗粒物(PM10),54,55,66,10,8,127,127,89,89,7,14,4,4,0.4,0.3
2026-05-08T1300,3500A,116.5808,35.3703,济宁市,北湖一中,,44,43,45,16,10,138,138,88,88,10,21,5,4,0.2,0.2
2026-05-08T1300,3501A,116.8251,35.5592,济宁市,服务中心,,47,47,60,17,12,130,130,75,75,9,26,3,3,0.3,0.3
2026-05-08T1300,3678A,116.5907,35.4054,济宁市,市第七中学,颗粒物(PM10),152,254,102,20,14,143,143,95,95,10,21,6,6,0.2,0.2
2026-05-08T1300,4111A,116.6075,35.4566,济宁市,任和路,颗粒物(PM10),79,90,68,25,16,142,142,83,83,7,20,4,6,0.2,0.2
2026-05-08T1300,4112A,116.5648,35.3921,济宁市,文体南路1号,颗粒物(PM10),55,57,52,10,9,141,141,84,84,5,18,5,4,0.4,0.3
2026-05-08T1300,4122A,112.6071,35.1015,济源市,市委党校,,40,39,68,3,10,126,126,81,81,10,18,10,13,0.4,0.6
2026-05-08T1300,4123A,112.596,35.0702,济源市,沁园中路1号,,40,31,53,3,20,126,126,86,86,8,19,5,8,0.6,0.8
2026-05-08T1300,2255A,130.2749,46.8028,佳木斯市,佳纺,,30,7,17,3,8,95,95,84,84,2,10,1,1,0.2,0.2
2026-05-08T1300,2257A,130.3258,46.7975,佳木斯市,环保局,,30,20,20,3,7,94,94,81,81,2,10,2,3,0.3,0.3
2026-05-08T1300,4285A,130.363,46.806,佳木斯市,顺和街,,30,12,14,3,8,96,96,88,88,4,6,1,1,0.2,0.2
2026-05-08T1300,4286A,130.3952,46.8268,佳木斯市,长安路196号,,31,12,14,3,5,98,98,86,86,1,5,1,2,0.2,0.2
2026-05-08T1300,1252A,120.7439,30.778,嘉兴市,清河小学,,29,26,37,7,16,92,92,95,90,16,14,8,8,0.5,0.4
2026-05-08T1300,1253A,120.7261,30.7477,嘉兴市,嘉兴学院,,29,20,38,11,18,91,91,95,90,17,14,7,7,0.5,0.5
2026-05-08T1300,2872A,120.7845,30.7524,嘉兴市,南湖区残联,,33,33,35,10,19,97,97,100,95,18,10,7,7,0.3,0.4
2026-05-08T1300,3407A,120.6915,30.7741,嘉兴市,秀洲住建,,32,25,37,10,17,100,100,105,98,18,15,8,8,0.4,0.4
2026-05-08T1300,1945A,98.291,39.7705,嘉峪关市,气象局,,38,29,47,6,16,121,121,107,107,1,7,7,11,0.2,0.3
2026-05-08T1300,2884A,98.2672,39.7978,嘉峪关市,酒钢宾馆,,39,36,57,7,20,122,122,101,101,2,7,4,11,0.3,0.4
2026-05-08T1300,3248A,98.2644,39.7723,嘉峪关市,雄关区,,38,33,50,8,18,120,120,101,101,4,11,4,5,0.2,0.2
2026-05-08T1300,1383A,113.1063,22.6058,江门市,北街,,31,31,26,13,10,88,88,46,46,14,12,/,/,/,/
2026-05-08T1300,1384A,113.073,22.5835,江门市,西区,,26,25,26,13,12,83,83,45,45,13,17,/,/,/,/
2026-05-08T1300,1385A,113.0218,22.531,江门市,圭峰西,,29,29,27,9,12,66,66,40,40,7,14,/,/,/,/
2026-05-08T1300,1386A,113.0826,22.5947,江门市,东湖,NA,NA,23,18,11,9,87,87,48,48,12,11,NA,6,0.4,0.4
2026-05-08T1300,3311A,113.1077,22.5647,江门市,江海富民,颗粒物(PM10),51,51,35,16,13,79,79,50,50,17,14,/,/,0.5,0.4
2026-05-08T1300,3449A,113.0496,22.4669,江门市,新会银湖,,35,35,28,16,12,82,82,42,42,16,20,7,7,0.4,0.4
2026-05-08T1300,3335A,113.3137,35.2643,焦作市,马村街道办,颗粒物(PM10),63,68,65,21,14,128,128,92,92,11,12,12,9,0.2,0.2
2026-05-08T1300,3336A,113.2464,35.2374,焦作市,焦作技师学院,颗粒物(PM10),80,91,56,22,14,128,128,94,94,10,12,10,8,0.4,0.3
2026-05-08T1300,3477A,113.1656,35.2536,焦作市,中站许衡医院,,40,39,80,18,15,128,128,102,102,12,13,15,10,0.5,0.4
2026-05-08T1300,3981A,113.2456,35.18,焦作市,原李万街道办,颗粒物(PM10),58,61,61,21,16,121,121,80,80,9,11,8,5,0.3,0.3
2026-05-08T1300,4264A,113.234,35.219,焦作市,新安路1731号,颗粒物(PM10),55,57,51,29,12,124,124,84,84,11,13,9,8,0.4,0.3
2026-05-08T1300,4295A,113.2722,35.2121,焦作市,人民路3066号,颗粒物(PM10),72,80,49,22,14,129,129,87,87,10,9,10,6,0.5,0.4
2026-05-08T1300,1708A,116.3701,23.5345,揭阳市,新兴,颗粒物(PM10),53,54,52,20,27,137,137,76,76,14,20,8,8,0.8,0.9
2026-05-08T1300,1709A,116.3261,23.5442,揭阳市,西马,颗粒物(PM10),58,60,59,25,34,148,148,81,81,14,21,6,6,0.8,0.9
2026-05-08T1300,1710A,116.361,23.5627,揭阳市,东兴,颗粒物(PM10),68,75,50,28,30,153,153,81,81,11,16,4,5,/,/
2026-05-08T1300,1711A,116.4151,23.5295,揭阳市,渔湖,,46,46,48,18,27,122,122,69,69,9,20,4,5,/,/
2026-05-08T1300,3320A,116.4028,23.5699,揭阳市,曲溪,,50,45,45,21,27,158,158,81,81,11,19,8,8,0.7,0.9
2026-05-08T1300,1944A,102.1691,38.5166,金昌市,天庆家园,,38,24,57,14,21,120,120,76,76,2,16,7,15,0.4,0.5
2026-05-08T1300,4022A,102.1648,38.5369,金昌市,金川区人防中心,,37,14,48,9,20,117,117,79,79,3,12,5,9,0.3,0.4
2026-05-08T1300,4239A,102.193042,38.531887,金昌市,长春路96号,颗粒物(PM10),66,72,57,16,26,112,112,75,75,1,10,6,12,0.3,0.4
2026-05-08T1300,1262A,119.6478,29.0773,金华市,十五中,,44,44,39,21,20,96,96,95,94,14,14,2,2,0.5,0.5
2026-05-08T1300,1263A,119.6859,29.1032,金华市,监测站,,42,42,34,21,18,97,97,98,96,11,10,4,4,0.5,0.4
2026-05-08T1300,3659A,119.656,29.1132,金华市,气象局,NA,NA,38,35,22,19,89,89,88,88,14,15,4,4,NA,0.4
2026-05-08T1300,1767A,121.1114,41.0879,锦州市,南山,,35,32,42,3,19,110,110,77,77,7,27,6,8,0.2,0.4
2026-05-08T1300,1768A,121.060361,40.842794,锦州市,开发区,,34,20,55,3,16,107,107,82,82,8,30,8,17,0.3,0.6
2026-05-08T1300,1769A,121.1836,41.1118,锦州市,百股街道,,35,6,46,3,21,109,109,74,74,6,17,4,8,0.3,0.4
2026-05-08T1300,1770A,121.1176,41.1224,锦州市,天安街道,,34,19,42,3,17,108,108,72,72,7,23,5,7,0.3,0.4
2026-05-08T1300,1771A,121.1303,41.1385,锦州市,北湖公园,,34,13,29,3,13,107,107,80,80,5,15,7,10,0.3,0.4
2026-05-08T1300,2160A,112.8496,35.5051,晋城市,自来水公司,,42,42,58,3,7,132,132,79,79,7,11,6,6,0.4,0.4
2026-05-08T1300,2162A,112.8509,35.4886,晋城市,市环保局,NA,NA,NA,56,14,16,124,124,74,74,7,13,5,4,0.3,0.3
2026-05-08T1300,3620A,112.8258,35.4804,晋城市,泽州一中,,49,49,50,24,15,135,135,78,78,9,14,6,5,0.4,0.4
2026-05-08T1300,4078A,112.8246,35.5152,晋城市,前书院路,,42,42,49,10,12,132,132,76,76,9,19,4,4,0.4,0.4
2026-05-08T1300,4079A,112.8864,35.4773,晋城市,祥云街666号,,38,38,46,13,13,120,120,69,69,9,16,10,9,0.4,0.4
2026-05-08T1300,2174A,112.6992,37.6984,晋中市,榆次区政府,颗粒物(PM10),60,63,48,20,13,123,123,73,73,12,21,15,8,0.5,0.3
2026-05-08T1300,2865A,112.7195,37.683,晋中市,榆次三中,颗粒物(PM10),63,68,53,6,8,125,125,71,71,12,20,16,8,0.5,0.3
2026-05-08T1300,4080A,112.7375,37.7215,晋中市,广安街188号,,45,45,60,13,15,120,120,61,61,10,30,15,8,0.4,0.3
2026-05-08T1300,4200A,112.7478,37.6954,晋中市,迎宾街26号,颗粒物(PM10),75,85,49,16,9,126,126,76,76,12,18,16,8,0.5,0.4
2026-05-08T1300,2439A,112.2012,31.048,荆门市,竹园小学,颗粒物(PM10),53,54,58,22,26,98,98,85,85,14,17,24,4,0.5,0.6
2026-05-08T1300,2440A,112.1968,30.9892,荆门市,掇刀,颗粒物(PM10),52,52,61,26,29,106,106,96,96,11,14,10,11,0.4,0.5
2026-05-08T1300,3012A,112.1849,31.0361,荆门市,西山林语,颗粒物(PM10),66,72,65,22,25,99,99,93,92,10,10,8,9,0.5,0.7
2026-05-08T1300,3547A,112.1631,31.0134,荆门市,龙泉中学南校,,34,33,42,10,19,107,107,104,104,9,10,6,7,0.5,0.6
2026-05-08T1300,4124A,112.2213,31.0654,荆门市,新台西路6号,颗粒物(PM10),56,58,59,25,33,100,100,79,79,11,15,11,10,0.5,0.5
2026-05-08T1300,1844A,112.2493,30.3198,荆州市,市图书馆,,32,32,48,11,27,102,102,88,88,12,16,7,8,0.4,0.5
2026-05-08T1300,1845A,112.2009,30.3543,荆州市,市委党校,,34,34,49,13,27,78,78,74,74,20,19,9,9,0.4,0.5
2026-05-08T1300,3194A,112.2749,30.3124,荆州市,管委会,,40,40,46,9,25,91,91,82,82,12,14,8,9,0.3,0.5
2026-05-08T1300,4268A,112.1722,30.3366,荆州市,学苑路85号,,31,31,42,14,29,98,98,88,88,9,10,4,4,0.2,0.4
2026-05-08T1300,2343A,117.2114,29.2931,景德镇市,老干部活动中心,,38,27,25,26,23,80,80,70,70,3,6,5,4,0.5,0.6
2026-05-08T1300,2344A,117.1893,29.2789,景德镇市,兽医站,,32,30,33,22,22,91,91,81,81,5,9,5,4,0.5,0.6
2026-05-08T1300,2346A,117.246,29.2958,景德镇市,陶研所,,27,19,27,10,21,84,84,76,76,8,9,3,3,0.5,0.7
2026-05-08T1300,4289A,117.154766,29.256967,景德镇市,青少年活动中心,,26,22,32,15,24,82,82,77,76,5,12,4,10,/,/
2026-05-08T1300,1803A,115.9873,29.6816,九江市,十里,,46,46,45,17,25,130,130,103,103,13,16,9,8,0.8,0.8
2026-05-08T1300,1804A,115.9583,29.7047,九江市,茅山头,,49,49,39,18,28,125,125,99,98,8,16,4,4,0.6,0.6
2026-05-08T1300,1805A,115.9877,29.7295,九江市,西园,,41,36,39,17,27,130,130,101,101,13,19,6,5,0.6,0.6
2026-05-08T1300,1808A,115.9112,29.6038,九江市,综合工业园,,42,42,42,18,26,118,118,100,97,20,23,10,9,0.6,0.6
2026-05-08T1300,3190A,116.0254,29.6995,九江市,外国语学校,,38,32,38,18,27,121,121,91,91,11,14,8,7,0.5,0.6
2026-05-08T1300,4253A,116.010205,29.659402,九江市,莲花大道8号,,45,45,41,17,24,111,111,86,86,13,14,7,6,0.5,0.5
2026-05-08T1300,4240A,98.495752,39.733935,酒泉市,玉门东路5号,颗粒物(PM10),74,83,57,12,43,103,103,79,79,2,9,8,4,0.3,0.2
2026-05-08T1300,4241A,98.5099,39.7506,酒泉市,北大街108号,颗粒物(PM10),75,85,57,26,23,100,100,79,79,2,10,9,8,0.2,0.3
2026-05-08T1300,2698A,76.0071,39.466,喀什地区,巡警大队,颗粒物(PM10),209,356,406,122,158,79,79,30,30,28,37,5,5,0.2,0.5
2026-05-08T1300,2699A,75.9756,39.4693,喀什地区,吾办,颗粒物(PM10),182,314,359,125,144,94,94,52,52,13,23,6,5,0.2,0.5
2026-05-08T1300,4027A,75.9485,39.4688,喀什地区,老干局,细颗粒物(PM2.5),204,299,354,154,149,92,92,55,55,8,21,4,4,0.4,0.6
2026-05-08T1300,1824A,114.3389,34.778,开封市,肿瘤医院,细颗粒物(PM2.5),104,110,89,64,30,122,122,80,80,10,21,7,10,0.5,0.5
2026-05-08T1300,1826A,114.2884,34.7966,开封市,世纪星幼儿园,,46,46,55,14,31,121,121,82,82,12,20,7,8,0.4,0.5
2026-05-08T1300,3147A,114.3434,34.8101,开封市,龙亭公园,颗粒物(PM10),88,103,91,10,13,128,128,88,88,16,26,7,8,0.4,0.4
2026-05-08T1300,3210A,114.3645,34.7955,开封市,汴京公园,细颗粒物(PM2.5),78,62,69,49,20,128,128,86,86,10,19,5,6,0.3,0.4
2026-05-08T1300,3473A,114.2485,34.8306,开封市,技师学院,颗粒物(PM10),75,84,58,12,15,128,128,84,84,10,29,5,6,0.4,0.5
2026-05-08T1300,3592A,114.4518,34.7503,开封市,祥符区生态环境局,颗粒物(PM10),63,67,94,22,27,131,131,72,72,15,30,9,12,0.5,0.5
2026-05-08T1300,1951A,84.886,45.6029,克拉玛依市,长征新村,,34,30,38,8,13,107,107,87,87,6,24,6,6,0.6,0.7
2026-05-08T1300,1952A,84.8894,45.5827,克拉玛依市,南林小区,,33,33,47,3,9,104,104,74,68,6,19,2,2,0.2,0.3
2026-05-08T1300,1954A,84.896,44.3328,克拉玛依市,独山子区,,37,37,38,3,4,118,118,101,101,4,11,5,6,0.4,0.4
2026-05-08T1300,1955A,85.6888,46.0909,克拉玛依市,乌尔禾区商贸楼,NA,NA,NA,33,NA,11,97,97,70,70,9,13,4,4,0.2,0.4
2026-05-08T1300,3612A,85.1045,45.6895,克拉玛依市,白碱滩区新站,,35,23,36,8,9,111,111,109,97,5,8,8,8,0.2,0.2
2026-05-08T1300,2697A,76.1457,39.7143,克孜勒苏柯尔克孜自治州,市人民政府,颗粒物(PM10),197,343,383,100,142,108,108,82,82,2,10,5,9,0.1,0.1
2026-05-08T1300,3665A,76.1654,39.7157,克孜勒苏柯尔克孜自治州,克州文化中心,颗粒物(PM10),191,331,385,117,137,104,104,84,84,5,9,2,4,0.3,0.3
2026-05-08T1300,1450A,102.8203,24.889,昆明市,呈贡新区,,25,25,30,16,21,65,65,85,77,9,12,2,3,0.4,0.4
2026-05-08T1300,1452A,102.7253,25.0904,昆明市,龙泉镇,,23,22,35,16,22,44,44,53,48,10,12,4,4,0.5,0.5
2026-05-08T1300,1453A,102.7267,25.0378,昆明市,东风东路,,23,23,32,15,22,56,56,64,59,16,17,2,3,0.4,0.4
2026-05-08T1300,1454A,102.6744,25.0671,昆明市,金鼎山,,29,28,37,20,22,55,55,65,57,16,14,4,4,0.5,0.5
2026-05-08T1300,1455A,102.6643,25.0401,昆明市,碧鸡广场,,30,30,36,18,22,48,48,62,53,19,16,4,5,0.7,0.6
2026-05-08T1300,3179A,102.7491,25.012,昆明市,官渡区博物馆,,21,21,37,13,19,51,51,53,50,20,24,3,4,0.6,0.6
2026-05-08T1300,3375A,102.8016,24.8336,昆明市,青年创业园,,21,20,33,14,21,66,66,81,73,6,13,4,4,0.5,0.5
2026-05-08T1300,3550A,102.8,24.9787,昆明市,昆明学院,,36,36,49,20,23,56,56,62,55,16,25,4,5,0.6,0.5
2026-05-08T1300,3551A,102.5969,24.6738,昆明市,晋宁区生态环境分局,,24,15,42,8,31,76,76,83,82,14,17,2,2,0.4,0.5
2026-05-08T1300,3552A,102.6673,24.9861,昆明市,云天化总部,,30,30,36,18,23,52,52,63,58,24,20,4,4,0.5,0.5
2026-05-08T1300,1456A,91.132,29.6515,拉萨市,八廓街,,44,7,13,3,7,139,139,118,118,2,4,4,5,0.2,0.2
2026-05-08T1300,1457A,91.1221,29.6748,拉萨市,市环保局,,43,9,11,3,5,135,135,110,110,6,8,4,4,0.4,0.3
2026-05-08T1300,1458A,91.0874,29.6476,拉萨市,区监测站,,43,6,9,6,6,136,136,115,115,7,10,5,5,0.4,0.4
2026-05-08T1300,1459A,91.1774,29.6541,拉萨市,西藏大学,,42,NA,11,8,8,134,134,109,107,8,9,5,5,0.4,0.4
2026-05-08T1300,1460A,90.9798,29.6586,拉萨市,区辐射站,,39,12,14,7,7,124,124,108,108,13,13,5,5,0.3,0.3
2026-05-08T1300,1461A,91.0831,29.6292,拉萨市,拉萨火车站,,45,21,10,3,7,142,142,123,123,4,6,4,4,0.4,0.4
2026-05-08T1300,2520A,109.2203,23.7252,来宾市,来宾技工学校,,30,18,18,13,19,96,96,77,77,1,4,6,6,0.6,0.7
2026-05-08T1300,3535A,109.1781,23.7293,来宾市,兴宾区政府,,30,14,24,3,10,94,94,80,80,2,5,7,7,0.7,0.8
2026-05-08T1300,4002A,109.2312,23.7428,来宾市,中南小学,,45,45,23,3,11,101,101,80,80,6,11,7,6,1.0,1
2026-05-08T1300,1479A,103.8309,36.0467,兰州市,铁路设计院,颗粒物(PM10),53,53,59,19,22,116,116,NA,NA,16,21,5,5,0.6,0.6
2026-05-08T1300,3241A,103.7439,36.0841,兰州市,百合公园,,36,35,54,13,24,115,115,52,52,6,42,3,5,0.5,0.5
2026-05-08T1300,3242A,103.9613,35.9985,兰州市,和平,,45,45,43,19,22,137,137,94,94,5,9,10,8,0.4,0.3
2026-05-08T1300,4236A,103.629272,36.093822,兰州市,庄浪东路808号,颗粒物(PM10),60,63,67,21,24,136,136,74,74,5,28,9,8,0.4,0.4
2026-05-08T1300,4237A,103.7251,36.104344,兰州市,安宁西路88号,,44,42,62,21,22,140,140,77,77,4,30,8,9,0.2,0.4
2026-05-08T1300,4238A,103.846982,36.067567,兰州市,北滨河东路1号,,39,35,54,16,20,124,124,59,59,11,38,9,11,0.5,0.7
2026-05-08T1300,1067A,116.6712,39.5109,廊坊市,药材公司,颗粒物(PM10),54,55,50,24,23,137,137,76,76,6,14,3,2,0.4,0.4
2026-05-08T1300,1068A,116.7215,39.5592,廊坊市,开发区,颗粒物(PM10),53,54,44,22,24,137,137,76,76,8,22,3,2,0.3,0.3
2026-05-08T1300,1070A,116.7246,39.5273,廊坊市,北华航天学院,,44,34,43,19,20,140,140,84,84,8,16,3,2,0.2,0.2
2026-05-08T1300,2919A,116.7022,39.5454,廊坊市,河北工业大学,,43,41,43,30,19,135,135,79,79,6,14,4,3,0.3,0.3
2026-05-08T1300,2536A,103.7629,29.5844,乐山市,牛耳桥,,48,48,63,18,25,88,88,72,72,19,21,8,6,0.5,0.6
2026-05-08T1300,2537A,103.7501,29.6002,乐山市,市第三水厂,,48,48,64,17,25,85,85,67,67,17,22,6,4,0.5,0.6
2026-05-08T1300,2538A,103.7571,29.5664,乐山市,市监测站,,46,46,61,18,25,88,88,73,72,12,14,5,3,0.6,0.6
2026-05-08T1300,3361A,103.7313,29.563,乐山市,理工大学,NA,NA,42,57,16,22,94,94,81,76,NA,15,8,6,0.3,0.3
2026-05-08T1300,2599A,100.2497,26.8802,丽江市,丽江古城,,29,25,31,17,22,90,90,64,64,8,11,6,6,0.4,0.5
2026-05-08T1300,2600A,100.2203,26.8906,丽江市,市中心,,29,14,23,11,19,92,92,61,61,7,13,4,4,0.5,0.6
2026-05-08T1300,1267A,119.9141,28.4513,丽水市,监测站大楼,,29,18,28,14,18,90,90,93,93,9,11,4,4,0.3,0.4
2026-05-08T1300,1268A,119.93,28.4589,丽水市,莲都小学,,30,24,32,15,18,93,93,97,94,9,11,/,/,/,/
2026-05-08T1300,1269A,119.8794,28.4232,丽水市,余庄前,,27,27,31,15,16,63,63,66,60,17,12,4,4,0.4,0.4
2026-05-08T1300,1173A,119.1759,34.5885,连云港市,市环境监测站,,36,17,29,9,9,114,114,69,69,11,21,10,10,0.6,0.7
2026-05-08T1300,3000A,119.3577,34.6971,连云港市,德源药业,,38,31,43,7,12,120,120,76,76,11,21,8,7,0.4,0.4
2026-05-08T1300,3007A,119.178,34.8442,连云港市,新城一中,,45,45,49,17,20,123,123,88,88,9,23,10,9,0.3,0.5
2026-05-08T1300,3008A,119.3607,34.7519,连云港市,胡沟管理处,,40,9,12,3,6,125,125,80,80,9,21,11,10,0.3,0.3
2026-05-08T1300,3009A,119.1478,34.5913,连云港市,矿山设计院,,36,24,37,3,11,114,114,70,70,9,22,9,7,0.6,0.6
2026-05-08T1300,3434A,119.2414,34.6539,连云港市,工贸学校,,37,23,25,12,13,118,118,86,86,9,15,6,7,0.4,0.7
2026-05-08T1300,3664A,119.4171,34.734,连云港市,连云街道,,38,32,41,8,10,120,120,100,100,10,15,12,12,0.5,0.6
2026-05-08T1300,2573A,102.2629,27.8981,凉山彝族自治州,西昌市政府,,29,27,32,20,22,62,62,56,56,13,8,4,4,0.5,0.4
2026-05-08T1300,2574A,102.2686,27.885,凉山彝族自治州,凉山州政府,,36,32,33,25,22,52,52,52,52,18,8,4,4,0.6,0.5
2026-05-08T1300,4229A,102.2342,27.8859,凉山彝族自治州,凯乐南路30号,,36,29,36,25,23,55,55,53,53,21,13,4,4,0.6,0.5
2026-05-08T1300,2212A,123.1978,41.2036,辽阳市,宏伟区,,34,34,41,6,8,104,104,70,70,7,16,6,6,0.3,0.4
2026-05-08T1300,2213A,123.1684,41.2497,辽阳市,新华园,,34,34,55,3,13,100,100,58,58,7,23,3,4,0.4,0.5
2026-05-08T1300,2214A,123.2355,41.2663,辽阳市,滨河路,,31,31,36,6,8,99,99,61,61,9,25,6,6,0.3,0.4
2026-05-08T1300,4083A,123.153,41.2874,辽阳市,铁西路150号,,31,25,47,3,14,99,99,67,67,6,25,5,7,0.3,0.5
2026-05-08T1300,2227A,125.1359,42.8845,辽源市,环保局,,35,20,21,3,8,110,110,90,90,4,13,8,8,0.5,0.6
2026-05-08T1300,4085A,125.0998,42.9134,辽源市,安宁大街333号,,35,25,31,3,8,110,110,89,89,4,8,4,5,0.3,0.3
2026-05-08T1300,1625A,115.9789,36.4372,聊城市,区政府,,40,34,51,3,8,127,127,94,94,5,21,6,5,0.1,0.2
2026-05-08T1300,3200A,115.9772,36.4986,聊城市,监控中心,颗粒物(PM10),55,57,60,3,11,131,131,99,99,5,28,8,7,0.2,0.2
2026-05-08T1300,3513A,116.0443,36.436,聊城市,九州社区,NA,NA,40,45,NA,8,132,132,103,103,9,24,3,3,0.2,0.3
2026-05-08T1300,4018A,116.0564,36.4609,聊城市,星美广场,,46,46,50,9,21,124,124,103,103,6,17,5,5,0.2,0.3
2026-05-08T1300,4113A,116.0091,36.4495,聊城市,利民路,,42,16,19,3,7,132,132,102,102,7,22,9,9,0.2,0.3
2026-05-08T1300,2632A,94.3683,29.6373,林芝市,林芝监测站,,37,6,9,3,5,118,118,95,95,4,4,4,5,0.4,0.4
2026-05-08T1300,2633A,94.3616,29.6634,林芝市,林芝人民医院,NA,NA,6,11,3,5,117,117,95,95,4,4,NA,3,0.3,0.3
2026-05-08T1300,2603A,100.0779,23.8981,临沧市,市环保局,,44,44,26,13,18,73,73,31,31,4,9,7,7,0.5,0.7
2026-05-08T1300,2604A,100.0894,23.882,临沧市,市气象局,,28,26,24,19,20,75,75,34,34,6,10,8,7,0.5,0.7
2026-05-08T1300,1733A,111.5552,36.0791,临汾市,临钢医院,颗粒物(PM10),53,54,56,16,12,121,121,70,70,14,16,10,8,0.8,1
2026-05-08T1300,1734A,111.4984,36.0734,临汾市,技工学校,颗粒物(PM10),54,55,49,25,16,129,129,67,67,12,19,12,9,1.0,0.7
2026-05-08T1300,1736A,111.5017,36.0857,临汾市,市委,颗粒物(PM10),52,52,52,18,11,128,128,67,67,13,20,12,9,0.8,0.6
2026-05-08T1300,3018A,111.5048,36.1015,临汾市,唐尧大酒店,颗粒物(PM10),66,72,63,22,12,128,128,65,65,10,18,11,9,0.7,0.5
2026-05-08T1300,4244A,111.4879,36.053,临汾市,启星学校,颗粒物(PM10),58,61,48,23,14,129,129,64,64,12,22,11,7,0.9,0.6
2026-05-08T1300,4271A,103.2464,35.6123,临夏回族自治州,滨河东路1号,细颗粒物(PM2.5),70,58,90,45,40,123,123,65,65,6,21,7,6,0.2,0.4
2026-05-08T1300,4310A,103.207136,35.599807,临夏回族自治州,新华街21号,,46,46,83,18,37,107,107,59,59,2,12,6,6,0.5,0.6
2026-05-08T1300,1618A,118.3429,35.0532,临沂市,沂河小区,,40,29,46,6,12,125,125,85,85,10,18,11,11,0.2,0.2
2026-05-08T1300,1619A,118.2962,35.0568,临沂市,鲁南制药厂,,44,44,47,7,15,131,131,83,83,9,20,12,11,0.1,0.2
2026-05-08T1300,1620A,118.2793,34.9976,临沂市,新光毛纺厂,,40,29,41,8,15,128,128,84,84,6,19,10,11,0.2,0.2
2026-05-08T1300,1621A,118.3955,35.0889,临沂市,河东保险公司,,44,44,35,10,15,137,137,93,93,9,20,11,11,0.2,0.2
2026-05-08T1300,3370A,118.3563,35.0215,临沂市,十里堡居委,,42,24,49,7,15,134,134,86,86,12,23,9,10,0.3,0.3
2026-05-08T1300,3496A,118.359,35.1067,临沂市,南坊新区,,42,41,41,8,12,134,134,93,93,9,20,14,10,0.2,0.2
2026-05-08T1300,3860A,118.3915,35.0297,临沂市,皇山花园小区,,42,27,47,10,14,132,132,87,87,9,21,9,10,0.2,0.3
2026-05-08T1300,1870A,109.4854,24.3898,柳州市,柳东小学,,26,15,14,8,7,81,81,77,77,5,7,4,4,0.5,0.5
2026-05-08T1300,1871A,109.4109,24.3304,柳州市,环保监测站,,25,22,16,6,9,79,79,73,73,8,12,7,6,0.7,0.7
2026-05-08T1300,1872A,109.3886,24.3408,柳州市,河西水厂,,26,22,20,7,10,81,81,72,72,10,15,13,13,1.3,1.2
2026-05-08T1300,1873A,109.4263,24.2951,柳州市,市四中,,26,24,17,8,9,83,83,78,78,6,9,8,7,0.7,0.7
2026-05-08T1300,1874A,109.396,24.3658,柳州市,市九中,,33,19,19,8,11,78,78,73,73,7,10,8,7,3.3,0.7
2026-05-08T1300,1875A,109.4912,24.3164,柳州市,古亭山,,25,25,15,7,7,79,79,73,73,4,6,4,5,0.7,0.7
2026-05-08T1300,3402A,109.5422,24.3994,柳州市,市二中,,25,11,11,6,6,78,78,73,73,10,9,6,7,0.6,0.6
2026-05-08T1300,2307A,116.5078,31.7369,六安市,监测大楼,,42,29,28,13,22,132,132,98,98,10,11,5,4,0.4,0.4
2026-05-08T1300,2308A,116.4738,31.7642,六安市,皖西学院,,44,43,35,13,21,139,139,104,104,8,10,6,9,0.3,0.4
2026-05-08T1300,2309A,116.4997,31.7904,六安市,朝阳厂,,41,22,25,14,23,130,130,97,97,9,12,7,6,0.3,0.3
2026-05-08T1300,2310A,116.5566,31.7885,六安市,开发区,,45,24,23,9,20,144,144,102,102,13,13,6,6,0.3,0.3
2026-05-08T1300,2577A,104.8293,26.592,六盘水市,黄土坡,颗粒物(PM10),57,59,51,18,18,103,103,110,107,9,8,6,6,0.2,0.2
2026-05-08T1300,2579A,104.8481,26.5898,六盘水市,民中,颗粒物(PM10),54,55,42,20,19,94,94,102,100,12,7,1,2,0.4,0.3
2026-05-08T1300,2580A,104.9541,26.5506,六盘水市,双水,颗粒物(PM10),56,58,53,16,18,99,99,92,92,8,7,4,4,0.2,0.2
2026-05-08T1300,4151A,104.8899,26.5685,六盘水市,钟山大道中段564号,颗粒物(PM10),63,68,58,19,18,101,101,96,95,6,9,3,4,0.4,0.5
2026-05-08T1300,2336A,117.022,25.1031,龙岩市,龙岩市监测站,,35,28,19,12,13,110,110,62,62,6,9,5,6,0.5,0.5
2026-05-08T1300,2337A,117.0257,25.0662,龙岩市,闽西职业技术学院,,30,25,18,8,11,95,95,61,61,4,7,4,5,0.6,0.6
2026-05-08T1300,2338A,117.0195,25.0306,龙岩市,龙岩学院,,29,18,18,8,11,92,92,65,65,5,6,4,4,/,/
2026-05-08T1300,2885A,104.9344,33.3827,陇南市,滨江中学,,50,50,52,3,13,110,110,73,73,4,8,5,5,0.6,0.6
2026-05-08T1300,3247A,104.9551,33.3709,陇南市,市总工会,,35,33,39,10,18,109,109,73,72,4,8,4,4,0.4,0.4
2026-05-08T1300,2488A,111.9984,27.7346,娄底市,市监测站,颗粒物(PM10),91,107,39,25,26,79,79,90,83,9,9,5,6,0.4,0.4
2026-05-08T1300,2491A,111.9888,27.7035,娄底市,市政府,,45,45,34,26,27,86,86,97,92,8,7,2,2,0.4,0.3
2026-05-08T1300,4127A,111.9812,27.7591,娄底市,涟钢职大,颗粒物(PM10),57,59,35,30,20,82,82,96,90,8,6,2,2,0.4,0.4
2026-05-08T1300,4128A,112.0303,27.7457,娄底市,娄底体校,颗粒物(PM10),54,55,42,20,26,83,83,98,89,9,8,4,4,0.3,0.4
2026-05-08T1300,1894A,105.4427,28.9063,泸州市,小市上码头,,27,20,16,16,12,85,85,67,67,8,11,4,6,0.4,0.4
2026-05-08T1300,1895A,105.4241,28.8573,泸州市,兰田宪桥,,28,28,23,15,10,89,89,70,70,11,12,6,7,0.5,0.4
2026-05-08T1300,1896A,105.4378,28.8833,泸州市,市环监站,,26,19,16,10,6,81,81,67,67,13,14,5,7,0.6,0.7
2026-05-08T1300,4272A,105.3689,28.7783,泸州市,纳溪中医医院,,30,21,38,10,10,94,94,56,56,9,12,5,7,0.5,0.5
2026-05-08T1300,2183A,111.1447,37.5212,吕梁市,环保局,,37,32,64,3,7,118,118,60,60,5,23,4,6,0.0,0.1
2026-05-08T1300,2185A,111.1285,37.5338,吕梁市,自来水公司,,37,31,57,7,14,116,116,58,58,6,27,3,7,0.3,0.4
2026-05-08T1300,2867A,111.1225,37.5093,吕梁市,马茂庄小学,,47,47,50,3,9,120,120,61,61,4,23,3,5,0.3,0.3
2026-05-08T1300,1812A,112.3934,34.6517,洛阳市,市委党校,,49,49,49,12,15,128,128,79,79,12,19,11,10,0.5,0.5
2026-05-08T1300,1815A,112.494,34.6883,洛阳市,河南林校,颗粒物(PM10),55,57,57,17,13,126,126,82,82,18,20,27,14,0.5,0.4
2026-05-08T1300,1816A,112.3843,34.623,洛阳市,开发区管委会,细颗粒物(PM2.5),90,NA,51,55,18,134,134,81,81,11,18,12,12,0.5,0.5
2026-05-08T1300,1817A,112.4263,34.6249,洛阳市,市委新办公区,,45,45,50,17,14,130,130,80,80,16,21,20,11,0.8,0.7
2026-05-08T1300,3340A,112.6005,34.6323,洛阳市,伊滨,,50,50,56,11,16,116,116,66,66,15,20,10,9,0.3,0.3
2026-05-08T1300,3341A,112.495,34.6338,洛阳市,中移产业园,颗粒物(PM10),53,54,52,20,18,126,126,78,78,16,22,24,15,0.4,0.5
2026-05-08T1300,3593A,112.5736,34.8993,洛阳市,吉利监测站,颗粒物(PM10),68,75,72,8,16,120,120,86,86,10,19,14,10,0.3,0.4
2026-05-08T1300,3635A,112.3678,34.6623,洛阳市,河科大西苑校区,,47,47,52,13,16,132,132,81,81,14,21,11,11,0.7,0.7
2026-05-08T1300,3636A,112.4387,34.678,洛阳市,英才小学,颗粒物(PM10),53,54,52,17,16,126,126,75,75,11,14,18,9,0.3,0.3
2026-05-08T1300,4214A,112.460027,34.694929,洛阳市,春都路1号院,颗粒物(PM10),73,81,67,24,17,128,128,79,79,14,15,25,12,0.6,0.5
2026-05-08T1300,2399A,114.051,33.5721,漯河市,三五一五工厂,颗粒物(PM10),54,55,54,27,20,139,139,100,100,16,19,8,8,0.4,0.4
2026-05-08T1300,2400A,114.0055,33.5698,漯河市,漯河大学,颗粒物(PM10),53,53,49,36,23,145,145,106,106,19,21,9,8,0.3,0.2
2026-05-08T1300,2401A,114.0134,33.5826,漯河市,市水利局,NA,NA,58,59,NA,26,144,144,103,103,15,18,8,8,0.4,0.4
2026-05-08T1300,2402A,114.0261,33.5697,漯河市,市广电局,颗粒物(PM10),51,51,56,18,19,136,136,101,101,19,19,8,7,0.2,0.2
2026-05-08T1300,3478A,113.9691,33.568,漯河市,市图书馆,颗粒物(PM10),52,52,55,16,18,136,136,99,99,16,17,8,9,0.2,0.3
2026-05-08T1300,4250A,114.089259,33.588274,漯河市,韶山路11号,NA,NA,NA,55,16,18,127,127,84,84,14,24,10,9,0.5,0.4
2026-05-08T1300,1798A,118.5084,31.6838,马鞍山市,湖东路四小,,39,24,40,3,24,123,123,99,99,13,13,6,6,0.3,0.4
2026-05-08T1300,1799A,118.5019,31.6449,马鞍山市,开发区,,40,26,41,9,24,125,125,100,100,17,16,7,7,0.5,0.5
2026-05-08T1300,3633A,118.4914,31.681,马鞍山市,雨山,,40,31,38,7,21,126,126,102,102,11,12,5,6,0.4,0.6
2026-05-08T1300,4191A,118.527362,31.722269,马鞍山市,慈湖高新区,,38,13,43,3,24,121,121,98,98,7,12,5,6,0.3,0.4
2026-05-08T1300,1686A,111.0285,21.469,茂名市,电白南海,,22,22,27,7,8,65,65,52,52,5,7,6,5,0.8,0.8
2026-05-08T1300,1687A,110.9294,21.6533,茂名市,茂石化七小,,36,36,29,20,13,66,66,45,45,10,11,8,9,0.6,0.6
2026-05-08T1300,1688A,110.9108,21.6688,茂名市,健康路,,29,29,21,17,12,70,70,48,48,9,10,7,8,0.7,0.6
2026-05-08T1300,1689A,110.8592,21.6826,茂名市,高岭,NA,NA,34,32,17,14,80,80,46,46,4,9,NA,6,/,/
2026-05-08T1300,3450A,111.0101,21.5165,茂名市,电白水东,,19,14,18,8,10,59,59,48,48,5,9,3,4,/,/
2026-05-08T1300,2540A,103.8414,30.0871,眉山市,气象局,颗粒物(PM10),53,54,67,9,10,75,75,62,53,24,22,9,8,0.6,0.6
2026-05-08T1300,3148A,103.829,30.0563,眉山市,区人社局,,47,47,64,10,11,73,73,65,51,29,29,9,4,0.8,0.7
2026-05-08T1300,4148A,103.8836,30.0695,眉山市,眉职院,,38,38,40,11,11,75,75,64,56,26,22,10,9,0.8,0.7
2026-05-08T1300,1690A,116.1248,24.3307,梅州市,梅江月梅,,24,9,24,6,19,76,76,46,46,7,11,/,/,/,/
2026-05-08T1300,1691A,116.0798,24.2719,梅州市,梅县新城,,25,NA,29,7,20,80,80,46,46,9,16,8,8,0.5,0.5
2026-05-08T1300,3315A,116.1234,24.2994,梅州市,梅龙,,26,14,24,9,19,83,83,60,60,8,12,6,6,0.6,0.6
2026-05-08T1300,1878A,104.7775,31.4741,绵阳市,富乐山,,34,31,49,11,14,107,107,90,90,4,8,8,8,0.6,0.6
2026-05-08T1300,1880A,104.6698,31.4668,绵阳市,高新区自来水公司,,33,26,46,10,16,105,105,83,83,6,12,7,8,0.6,0.6
2026-05-08T1300,3491A,104.6899,31.5324,绵阳市,西科大附属小学,,35,24,50,9,17,111,111,80,80,6,17,6,6,0.3,0.3
2026-05-08T1300,3492A,104.5647,31.5343,绵阳市,安州区旅游局,,32,19,49,9,16,102,102,86,86,5,7,7,6,0.4,0.4
2026-05-08T1300,4146A,104.7092,31.4972,绵阳市,科技城新区公安局,,36,36,55,9,18,100,100,76,76,6,13,5,5,0.4,0.5
2026-05-08T1300,4226A,104.765114,31.453094,绵阳市,绵阳市气象局,,30,25,47,11,14,95,95,79,79,7,14,10,8,0.4,0.4
2026-05-08T1300,1784A,129.61,44.561,牡丹江市,环保大楼,,27,25,23,8,11,86,86,64,64,8,14,2,3,0.2,0.2
2026-05-08T1300,1787A,129.6364,44.6075,牡丹江市,机车工厂,,29,23,34,16,21,90,90,64,64,5,12,7,7,0.2,0.5
2026-05-08T1300,1788A,129.6386,44.5462,牡丹江市,第一中学,,30,23,19,10,10,94,94,65,65,6,12,4,4,0.2,0.3
2026-05-08T1300,4287A,129.5992,44.5964,牡丹江市,东晓云街98号,,29,24,30,14,14,92,92,67,67,4,10,4,5,0.1,0.2
2026-05-08T1300,2531A,105.0703,29.61,内江市,市监测站,,30,19,39,14,15,96,96,79,79,8,11,7,9,0.2,0.2
2026-05-08T1300,2533A,105.0657,29.5807,内江市,内江二中,,30,24,32,12,14,96,96,82,82,9,10,6,7,0.3,0.3
2026-05-08T1300,2534A,105.0407,29.5828,内江市,内江日报社,,32,14,37,14,16,102,102,86,86,6,9,4,5,0.2,0.3
2026-05-08T1300,4147A,105.0433,29.6105,内江市,玉峰路西段888号,,31,27,38,12,17,98,98,80,80,6,10,4,5,0.4,0.4
2026-05-08T1300,2628A,92.0653,31.4846,那曲市,那曲监测站,,33,23,17,23,17,96,96,124,108,15,12,10,7,0.7,0.6
2026-05-08T1300,4243A,92.0515,31.4787,那曲市,那曲市委宣传部,,30,NA,9,12,9,94,94,126,109,8,9,10,10,0.5,0.5
2026-05-08T1300,1291A,115.8887,28.7006,南昌市,省林业公司,,34,34,30,12,26,104,104,85,80,8,12,5,4,0.5,0.6
2026-05-08T1300,1292A,115.813,28.7443,南昌市,林科所,,35,34,29,14,26,112,112,94,88,3,6,9,8,0.4,0.4
2026-05-08T1300,1294A,115.8518,28.687,南昌市,建工学校,,46,46,37,13,26,109,109,92,84,4,7,7,6,0.6,0.8
2026-05-08T1300,1295A,115.8926,28.6425,南昌市,象湖,,33,30,27,12,29,103,103,88,82,11,9,9,8,0.5,0.7
2026-05-08T1300,3046A,115.9084,28.6062,南昌市,机电学校,,41,41,38,16,28,114,114,96,90,9,11,6,5,0.5,0.6
2026-05-08T1300,3690A,115.9718,28.7032,南昌市,外国语学校,,34,34,36,13,32,102,102,87,81,11,13,9,9,0.5,0.6
2026-05-08T1300,4106A,115.7923,28.6873,南昌市,工业二路,,40,40,42,14,25,112,112,97,89,5,7,6,5,0.5,0.6
2026-05-08T1300,4192A,115.931587,28.686774,南昌市,南京东路235号,,43,43,41,13,30,114,114,98,91,11,12,7,7,0.6,0.8
2026-05-08T1300,1906A,106.0791,30.8022,南充市,南充市委,,27,21,38,12,18,84,84,79,79,8,12,6,6,0.3,0.4
2026-05-08T1300,1907A,106.1038,30.8215,南充市,南充炼油厂,,28,27,47,10,17,88,88,81,81,7,10,5,6,0.3,0.3
2026-05-08T1300,4227A,106.108336,30.788436,南充市,梨树横街98号,,29,21,40,11,18,90,90,79,79,8,12,6,7,0.2,0.2
2026-05-08T1300,4304A,106.1172,30.843,南充市,清泉寺北路188号,,34,34,45,11,17,87,87,85,85,7,9,6,7,0.2,0.2
2026-05-08T1300,4305A,106.067,30.7616,南充市,同庆路1号,,30,23,42,8,17,95,95,79,79,7,12,6,7,0.3,0.4
2026-05-08T1300,1151A,118.8033,32.1085,南京市,迈皋桥,,41,24,34,3,16,129,129,106,106,5,10,3,3,0.3,0.4
2026-05-08T1300,1152A,118.7487,32.057,南京市,草场门,,39,17,32,3,14,124,124,101,101,14,18,4,5,0.2,0.4
2026-05-08T1300,1154A,118.770105,32.004342,南京市,中华门,,39,19,36,3,14,122,122,95,95,5,11,6,7,0.3,0.3
2026-05-08T1300,1155A,118.8059,32.0329,南京市,瑞金路,,40,19,34,3,14,126,126,98,98,3,7,4,7,0.4,0.6
2026-05-08T1300,1156A,118.7946,32.0774,南京市,玄武湖,,36,22,32,3,12,114,114,85,85,4,12,4,4,0.2,0.4
2026-05-08T1300,1157A,118.6415,32.0964,南京市,浦口,NA,NA,28,35,NA,16,113,113,81,81,16,20,5,6,0.1,0.3
2026-05-08T1300,1158A,118.730129,32.000956,南京市,奥体中心,,35,18,36,3,12,110,110,84,84,9,16,8,9,0.2,0.3
2026-05-08T1300,1159A,118.9072,32.1047,南京市,仙林大学城,,39,29,37,3,14,123,123,96,96,8,16,8,9,0.4,0.5
2026-05-08T1300,3422A,118.8443,31.919,南京市,江宁彩虹桥,,40,29,36,3,13,127,127,107,107,6,12,5,4,0.3,0.4
2026-05-08T1300,3427A,118.8497,32.3599,南京市,六合雄州,,36,9,29,3,12,114,114,85,85,7,14,4,4,0,0.1
2026-05-08T1300,4086A,118.7641,32.0841,南京市,新模范马路66号,,41,22,37,3,13,131,131,105,105,3,14,4,4,0.4,0.4
2026-05-08T1300,4249A,118.8707617,31.34017673,南京市,汶溪路181号,,38,37,48,3,19,119,119,98,98,10,14,8,8,0.0,0.1
2026-05-08T1300,4312A,119.019,31.6512,南京市,中山西路1号,,35,24,35,3,19,112,112,86,86,12,15,3,4,0.5,0.5
2026-05-08T1300,1401A,108.3098,22.788,南宁市,二十一中,,26,26,23,9,17,64,64,36,36,9,14,3,1,0.5,0.6
2026-05-08T1300,1402A,108.3135,22.8529,南宁市,北湖,,24,16,30,12,25,75,75,46,46,7,15,11,8,0.5,0.6
2026-05-08T1300,1403A,108.3205,22.8222,南宁市,市监测站,,26,15,27,7,18,82,82,48,48,7,13,4,4,0.6,0.6
2026-05-08T1300,1404A,108.3828,22.8038,南宁市,大自然花园,,25,14,23,3,12,77,77,51,51,8,12,7,5,0.5,0.5
2026-05-08T1300,1406A,108.2397,22.8462,南宁市,区农职院,,23,15,29,12,16,72,72,47,47,3,8,5,4,0.6,0.9
2026-05-08T1300,1407A,108.3285,22.7356,南宁市,英华嘉园,,25,18,28,7,17,79,79,47,47,8,17,4,4,0.6,0.6
2026-05-08T1300,3401A,108.4829,22.762,南宁市,红星社区,NA,NA,NA,21,4,12,93,93,64,64,6,10,5,5,0.7,0.7
2026-05-08T1300,4132A,108.2927,23.1477,南宁市,起凤路9号,,27,10,29,6,22,86,86,57,57,3,7,5,5,0.6,0.6
2026-05-08T1300,4221A,108.2177,22.7774,南宁市,乐贤路16号,,23,20,32,11,21,72,72,40,40,10,20,6,9,0.5,0.6
2026-05-08T1300,2332A,118.1682,26.6371,南平市,南平市监测站,,23,7,19,3,13,71,71,59,59,6,8,4,4,0.5,0.5
2026-05-08T1300,2334A,118.1757,26.6276,南平市,南平七中,,21,6,19,3,11,66,66,55,55,4,7,4,3,0.5,0.5
2026-05-08T1300,1168A,120.9056,31.9669,南通市,狼山街道,,34,13,32,3,13,107,107,96,96,6,10,4,5,0.3,0.4
2026-05-08T1300,1170A,120.8635,32.0231,南通市,城中,,32,23,42,3,15,100,100,89,89,6,9,3,4,0.4,0.5
2026-05-08T1300,1171A,120.9376,31.9301,南通市,星湖花园,,35,14,31,3,12,110,110,96,96,4,10,4,4,0.2,0.3
2026-05-08T1300,1172A,120.8053,32.046,南通市,紫琅学院,,32,16,29,3,14,100,100,87,87,5,8,5,6,0.5,0.6
2026-05-08T1300,3291A,121.0631,32.0644,南通市,通州监测站,,34,12,33,3,9,106,106,100,100,13,5,3,4,0.2,0.4
2026-05-08T1300,3432A,120.9348,31.9874,南通市,环境教育馆,NA,NA,78,57,3,18,105,105,90,90,NA,12,3,5,0.4,0.5
2026-05-08T1300,4091A,120.8692,31.9885,南通市,洪江路,,32,16,34,3,13,100,100,90,89,9,12,4,5,0.5,0.7
2026-05-08T1300,2404A,112.5338,33.0086,南阳市,瓦房庄,,39,35,55,13,15,122,122,103,103,10,11,6,7,0.2,0.3
2026-05-08T1300,2405A,112.5002,32.9734,南阳市,汉画馆,,43,43,58,3,16,120,120,101,101,16,14,6,6,0.2,0.3
2026-05-08T1300,2406A,112.5778,33.0144,南阳市,气象站,,43,43,64,9,14,120,120,98,98,11,13,7,7,0.2,0.3
2026-05-08T1300,2407A,112.548,32.9687,南阳市,理工学院,,39,32,56,6,14,123,123,103,103,10,12,6,7,0.1,0.2
2026-05-08T1300,4008A,112.5233,32.9921,南阳市,卧龙区政府,颗粒物(PM10),53,54,59,16,17,128,128,106,106,10,11,8,8,0.2,0.3
2026-05-08T1300,1234A,121.8352,29.9111,宁波市,区环保大楼,,33,28,52,8,19,103,103,94,93,18,45,6,8,0.2,0.3
2026-05-08T1300,1235A,121.5595,29.8208,宁波市,万里学院,,37,35,40,9,20,116,116,106,105,11,13,6,5,0.3,0.4
2026-05-08T1300,1236A,121.713,29.9564,宁波市,龙赛医院,,35,31,55,9,20,109,109,104,102,11,20,6,8,0.2,0.4
2026-05-08T1300,1240A,121.5855,29.8635,宁波市,太古小学,,34,27,43,10,21,108,108,102,101,13,15,6,5,0.4,0.5
2026-05-08T1300,1241A,121.5239,29.8673,宁波市,市环境监测中心,,35,27,39,12,22,109,109,101,101,15,17,10,9,0.3,0.4
2026-05-08T1300,2871A,121.6156,29.9015,宁波市,万里国际学校,颗粒物(PM10),78,88,50,8,23,114,114,106,106,14,18,7,7,0.4,0.6
2026-05-08T1300,3710A,121.5593,29.8976,宁波市,白沙活动中心,,35,26,32,8,22,112,112,105,103,11,13,7,7,0.2,0.3
2026-05-08T1300,4095A,121.8962,29.7529,宁波市,中科路88号,,36,26,27,12,13,114,114,104,103,11,10,8,8,0.4,0.5
2026-05-08T1300,2341A,119.5387,26.6611,宁德市,宁德市监测站,,32,23,18,16,13,101,101,82,82,15,16,7,7,0.4,0.5
2026-05-08T1300,3209A,119.5231,26.6562,宁德市,宁德一中,,32,26,22,19,16,101,101,83,83,11,11,5,6,0.4,0.5
2026-05-08T1300,2618A,98.859,25.8541,怒江傈僳族自治州,州监测站,,30,23,43,21,31,69,69,31,31,5,10,6,6,0.3,0.4
2026-05-08T1300,2619A,98.8607,25.8168,怒江傈僳族自治州,泸水一中,,35,32,37,24,30,63,63,26,26,9,17,4,4,0.4,0.5
2026-05-08T1300,1888A,101.6891,26.571,攀枝花市,弄弄坪,,34,34,35,17,14,56,56,64,51,13,12,11,7,0.5,0.5
2026-05-08T1300,1889A,101.577,26.5914,攀枝花市,河门口,,38,36,36,26,19,62,62,60,54,20,13,22,14,2.4,1.1
2026-05-08T1300,1891A,101.7365,26.4986,攀枝花市,仁和,细颗粒物(PM2.5),102,70,34,62,22,64,64,54,49,16,10,41,11,0.6,0.4
2026-05-08T1300,2835A,101.7222,26.567,攀枝花市,四十中小,,27,27,30,12,12,58,58,67,55,9,9,11,8,0.7,0.6
2026-05-08T1300,1604A,122.0303,41.1489,盘锦市,开发区,,27,21,28,10,14,84,84,56,56,6,17,7,9,0.4,0.5
2026-05-08T1300,1605A,122.0486,41.0883,盘锦市,兴隆台,,34,14,30,3,12,107,107,78,78,6,26,8,9,0.4,0.5
2026-05-08T1300,1606A,121.8297,41.1026,盘锦市,新生街道,,28,13,27,3,9,89,89,54,54,16,34,4,10,0.2,0.5
2026-05-08T1300,1832A,113.3257,33.7423,平顶山市,新华旅馆,颗粒物(PM10),62,66,77,14,17,133,133,100,100,6,16,7,7,0.4,0.4
2026-05-08T1300,1833A,113.2917,33.737,平顶山市,规划设计院,,43,43,53,17,17,130,130,95,95,6,10,9,9,0.3,0.4
2026-05-08T1300,1834A,113.182,33.7738,平顶山市,平顶山工学院,,40,38,50,11,18,125,125,90,90,5,12,7,8,0.3,0.4
2026-05-08T1300,3594A,112.8736,33.9068,平顶山市,石龙区,NA,NA,NA,83,18,23,121,121,73,73,4,25,8,11,0.2,0.5
2026-05-08T1300,4116A,113.284,33.7139,平顶山市,姚电大道23号,颗粒物(PM10),73,82,104,14,20,131,131,78,78,7,16,9,9,0.3,0.4
2026-05-08T1300,2656A,106.6633,35.5338,平凉市,聚贤嘉苑,颗粒物(PM10),55,57,54,17,15,110,110,72,72,7,19,9,10,0.4,0.4
2026-05-08T1300,2657A,106.7021,35.5307,平凉市,博物馆,,36,31,49,6,10,115,115,73,73,5,16,8,9,0.4,0.6
2026-05-08T1300,2348A,113.8384,27.6436,萍乡市,中医院,,38,32,21,11,18,120,120,94,94,8,12,7,5,0.5,0.6
2026-05-08T1300,2350A,113.8677,27.6438,萍乡市,市环保局,,41,41,25,17,22,119,119,94,94,10,12,1,3,0.5,0.5
2026-05-08T1300,2351A,113.8663,27.6202,萍乡市,安源区政府,,50,50,29,19,22,128,128,95,95,11,14,11,8,0.9,1
2026-05-08T1300,4107A,113.8686,27.6668,萍乡市,联洪村委会,,35,33,33,20,19,112,112,88,88,8,10,7,5,0.3,0.5
2026-05-08T1300,2319A,119.0142,25.4324,莆田市,荔城区仓后路,,34,15,33,3,24,106,106,73,73,12,15,/,/,/,/
2026-05-08T1300,2320A,119.0016,25.4553,莆田市,莆田市监测站,,34,15,28,3,22,106,106,70,70,9,12,3,3,0.6,0.5
2026-05-08T1300,2321A,119.112,25.4561,莆田市,涵江区六中,,35,19,28,3,20,109,109,77,77,10,14,/,/,0.6,0.6
2026-05-08T1300,2322A,119.1014,25.3215,莆田市,秀屿区政府,,36,35,24,9,18,115,115,84,84,7,6,4,4,0.6,0.5
2026-05-08T1300,2392A,115.0312,35.7636,濮阳市,环保局,,37,37,43,3,10,113,113,82,82,12,25,7,7,0.4,0.4
2026-05-08T1300,3021A,115,35.7667,濮阳市,濮水河管理处,,36,33,41,3,14,113,113,68,68,10,23,4,4,0.4,0.4
2026-05-08T1300,4118A,115.0552,35.7816,濮阳市,中原东路68号,,39,32,51,3,9,123,123,96,96,6,16,3,4,0.4,0.6
2026-05-08T1300,4216A,115.0923632,35.76857718,濮阳市,任丘路479号,,40,40,44,8,12,118,118,84,84,6,17,3,3,0.5,0.5
2026-05-08T1300,2601A,100.9801,22.7634,普洱市,市环保局,,44,44,61,27,30,78,78,35,35,5,10,5,5,0.8,0.9
2026-05-08T1300,2602A,100.9763,22.8237,普洱市,普洱第二中学,,43,43,46,24,25,81,81,39,39,4,11,5,5,0.6,0.7
2026-05-08T1300,3345A,131.0413,45.7795,七台河市,中波台,,30,29,24,3,13,95,95,69,69,3,15,2,4,0.3,0.4
2026-05-08T1300,3637A,131.0136,45.7688,七台河市,人民广场,,32,14,26,3,9,100,100,69,69,5,15,7,8,0.3,0.4
2026-05-08T1300,3684A,130.8639,45.8144,七台河市,新建矿广场,,30,29,32,3,10,93,93,59,59,8,15,8,9,0.0,0.2
2026-05-08T1300,1779A,123.9307,47.3641,齐齐哈尔市,安居小区,,31,13,28,3,9,99,99,75,75,2,10,4,5,0.3,0.4
2026-05-08T1300,1780A,123.9497,47.3389,齐齐哈尔市,中心广场,NA,NA,11,29,3,11,93,93,72,72,1,8,6,7,NA,0.1
2026-05-08T1300,1781A,123.9483,47.3229,齐齐哈尔市,农牧车辆厂,NA,NA,17,31,12,10,99,99,77,77,NA,9,5,5,0.3,0.4
2026-05-08T1300,1783A,123.9442,47.2994,齐齐哈尔市,市环境监测站,,31,18,32,3,9,99,99,75,75,5,18,3,3,0.3,0.3
2026-05-08T1300,3662A,123.6341,47.2079,齐齐哈尔市,富区青少年活动中心,,31,19,35,3,8,97,97,76,76,2,11,3,4,0.3,0.3
2026-05-08T1300,2591A,107.9765,26.5724,黔东南苗族侗族自治州,市环境监测站,,31,31,16,16,16,90,90,93,86,4,4,2,3,0.5,0.4
2026-05-08T1300,2881A,107.8909,26.531,黔东南苗族侗族自治州,凯里学院,,30,27,20,15,15,95,95,100,91,6,7,2,2,0.4,0.4
2026-05-08T1300,2593A,107.5223,26.2371,黔南布依族苗族自治州,小围寨,,26,22,24,18,13,83,83,91,85,6,8,3,4,0.5,0.5
2026-05-08T1300,3538A,107.5175,26.2977,黔南布依族苗族自治州,沙坝,,28,24,22,16,14,87,87,94,88,5,5,4,4,0.8,0.8
2026-05-08T1300,2589A,104.9022,25.0943,黔西南布依族苗族自治州,场坝街,,45,45,33,26,21,105,105,98,98,8,8,14,12,0.4,0.3
2026-05-08T1300,2590A,104.8812,25.0994,黔西南布依族苗族自治州,坪东大道,,47,47,36,31,22,107,107,100,100,9,9,10,8,0.4,0.4
2026-05-08T1300,2502A,108.6238,21.9667,钦州市,市环保站,,24,19,22,3,10,74,74,54,52,7,12,1,2,0.4,0.9
2026-05-08T1300,2503A,108.655,21.9481,钦州市,沙埠小学,,25,14,23,9,12,78,78,63,57,5,12,2,2,0.6,0.6
2026-05-08T1300,2504A,108.5989,21.7435,钦州市,港区一小,,30,30,34,16,14,78,78,55,55,11,18,3,3,0.6,0.6
2026-05-08T1300,3404A,108.5959,21.9634,钦州市,北职校,,24,21,24,6,9,75,75,57,56,4,9,1,2,0.7,0.9
2026-05-08T1300,1046A,119.5247,39.9346,秦皇岛市,建设大厦,,32,17,33,3,6,100,100,66,66,1,22,6,5,0.3,0.2
2026-05-08T1300,3132A,119.5979,39.938,秦皇岛市,文明里,,32,32,34,3,6,94,94,66,66,7,27,9,8,0.3,0.3
2026-05-08T1300,4066A,119.7458,39.9952,秦皇岛市,南园路157号,,26,26,25,3,5,66,66,60,60,22,27,8,7,0.3,0.2
2026-05-08T1300,4067A,119.5131,39.8858,秦皇岛市,翠岛大街1号,,30,20,23,3,7,94,94,68,68,9,19,8,8,0.3,0.3
2026-05-08T1300,4198A,119.509013,39.825305,秦皇岛市,北戴河轮滑馆,,34,34,32,3,7,97,97,65,65,10,25,8,8,0.3,0.3
2026-05-08T1300,1310A,120.404,36.0625,青岛市,市南区东部子站,,41,41,40,18,12,116,116,90,90,34,36,7,6,0.5,0.4
2026-05-08T1300,1311A,120.362344,36.10282,青岛市,四方区子站,,49,39,33,13,10,155,155,105,105,11,28,7,8,0.6,0.6
2026-05-08T1300,1312A,120.294373,36.054183,青岛市,市南区西部子站,,44,44,39,17,10,125,125,88,88,30,34,6,5,0.2,0.1
2026-05-08T1300,1313A,120.4581,36.0858,青岛市,崂山区子站,,43,31,30,13,9,135,135,95,95,5,17,9,9,0.3,0.3
2026-05-08T1300,1315A,120.3945,36.3083,青岛市,城阳区子站,颗粒物(PM10),51,51,42,12,12,139,139,91,91,9,22,9,8,0.6,0.7
2026-05-08T1300,3642A,120.3454,36.0735,青岛市,市北区南部,,47,44,32,13,9,148,148,91,91,9,25,5,5,0.5,0.5
2026-05-08T1300,3643A,120.3897,36.18,青岛市,李沧区北部,,40,39,38,12,11,128,128,86,86,11,23,10,10,0.5,0.5
2026-05-08T1300,4110A,120.5222,36.4089,青岛市,盟旺路653号,颗粒物(PM10),54,55,35,17,13,153,153,93,93,8,18,7,6,0.5,0.7
2026-05-08T1300,4290A,120.196923,35.954556,青岛市,珠江路669号,颗粒物(PM10),53,53,39,11,7,115,115,102,102,24,24,5,5,0.6,0.6
2026-05-08T1300,4291A,120.0424,35.8656,青岛市,黄岛区人民政府广场,,41,34,47,6,9,130,130,91,91,11,23,9,9,0.4,0.5
2026-05-08T1300,1703A,113.0218,23.7086,清远市,凤城街办,,20,6,35,3,25,61,61,49,46,6,19,/,/,/,/
2026-05-08T1300,3025A,113.0479,23.6343,清远市,技师学院,,23,6,35,3,22,73,73,43,43,8,18,5,6,0.5,0.5
2026-05-08T1300,3318A,112.9898,23.7403,清远市,清新太和,,19,6,25,3,17,59,59,53,53,4,11,9,11,0.5,0.5
2026-05-08T1300,3455A,113.076,23.72,清远市,清城东城,,21,6,43,3,28,67,67,45,45,6,18,/,/,/,/
2026-05-08T1300,2661A,107.6325,35.7357,庆阳市,庆阳五中,,36,36,38,3,9,106,106,86,86,8,11,3,3,0.2,0.3
2026-05-08T1300,2662A,107.6361,35.7067,庆阳市,市环保局,,36,36,38,3,8,110,110,96,96,9,13,2,2,0.2,0.2
2026-05-08T1300,1916A,103.7897,25.5036,曲靖市,环境监测站,细颗粒物(PM2.5),54,42,45,37,21,95,95,81,67,12,11,4,5,0.5,0.5
2026-05-08T1300,1917A,103.8013,25.5357,曲靖市,烟厂办公区,颗粒物(PM10),54,55,44,29,19,74,74,74,60,10,8,4,5,0.5,0.4
2026-05-08T1300,3376A,103.7926,25.4651,曲靖市,南苑二区,细颗粒物(PM2.5),52,48,42,36,22,78,78,74,65,11,13,4,4,0.4,0.5
2026-05-08T1300,3377A,103.7442,25.5259,曲靖市,曲靖师范学院,颗粒物(PM10),53,53,42,27,21,59,59,60,51,30,21,5,3,0.5,0.4
2026-05-08T1300,1264A,118.8694,28.94,衢州市,环保大楼,,35,34,29,24,19,94,94,90,89,16,15,/,/,/,/
2026-05-08T1300,1266A,118.8622,28.9809,衢州市,衢州学院,,36,34,26,25,18,91,91,91,90,11,12,6,6,0.3,0.3
2026-05-08T1300,4097A,118.9646,28.9832,衢州市,衢州三中,,34,34,28,23,19,94,94,87,87,14,12,8,7,0.4,0.5
2026-05-08T1300,1611A,118.5818,24.9116,泉州市,涂山街,,29,15,39,9,30,91,91,62,62,11,20,3,4,0.5,0.5
2026-05-08T1300,1612A,118.597,24.8976,泉州市,津头埔,,36,25,43,9,26,115,115,NA,NA,9,21,2,3,0.4,0.4
2026-05-08T1300,1613A,118.6669,24.9422,泉州市,万安,,34,17,40,13,28,107,107,66,66,7,21,3,4,0.4,0.4
2026-05-08T1300,4105A,118.6355,24.9148,泉州市,霞新路6号,,33,20,38,11,31,104,104,62,62,11,26,/,/,0.6,0.5
2026-05-08T1300,2626A,88.8873,29.2723,日喀则市,日喀则监测站,,43,9,10,3,4,135,135,122,122,5,5,8,8,0.4,0.4
2026-05-08T1300,3726A,88.8775,29.2425,日喀则市,林业技术推广中心,,42,12,14,3,3,134,134,120,120,6,4,9,8,0.3,0.3
2026-05-08T1300,1659A,119.4711,35.421,日照市,监测站,,40,27,33,8,6,126,126,87,87,10,23,8,8,0.3,0.3
2026-05-08T1300,1660A,119.523,35.4216,日照市,市政府广场,,40,27,32,6,6,126,126,87,87,11,22,5,5,0.5,0.6
2026-05-08T1300,1661A,119.5511,35.4113,日照市,港务局,颗粒物(PM10),58,61,40,8,6,126,126,90,90,16,28,5,5,0.5,0.5
2026-05-08T1300,3507A,119.5326,35.4627,日照市,职业技术学院,,44,44,37,17,10,127,127,96,96,14,22,8,7,0.4,0.4
2026-05-08T1300,3604A,119.3267,35.1043,日照市,岚山环保分局,,41,41,46,10,11,127,127,100,100,15,23,10,21,0.5,1.3
2026-05-08T1300,1835A,111.1922,34.7752,三门峡市,市政府,颗粒物(PM10),51,51,44,16,11,118,118,75,75,9,18,13,12,0.5,0.5
2026-05-08T1300,1836A,111.1588,34.794,三门峡市,开发区,颗粒物(PM10),59,62,42,9,12,122,122,86,86,15,16,12,12,0.4,0.4
2026-05-08T1300,3039A,111.1911,34.7829,三门峡市,三门峡市第一小学,颗粒物(PM10),60,63,46,14,14,120,120,85,85,8,15,14,14,0.4,0.3
2026-05-08T1300,3598A,111.1031,34.719,三门峡市,富达温泉假日酒店,颗粒物(PM10),54,55,61,16,17,120,120,68,68,10,14,11,9,0.5,0.4
2026-05-08T1300,2324A,117.621,26.2626,三明市,三钢,,21,8,20,6,12,67,67,58,58,5,12,4,5,0.3,0.6
2026-05-08T1300,2325A,117.6352,26.2714,三明市,三明二中,,22,22,21,8,13,60,60,53,53,4,10,2,4,0.5,0.6
2026-05-08T1300,2326A,117.6028,26.2377,三明市,三元区政府,,22,9,19,9,14,68,68,60,60,4,10,3,2,0.7,0.9
2026-05-08T1300,1877A,109.4962,18.2682,三亚市,河西子站,,18,18,17,9,11,56,56,44,44,4,5,4,4,0.3,0.3
2026-05-08T1300,3540A,109.7348,18.3443,三亚市,君悦子站,,17,17,17,8,9,49,49,35,35,3,6,3,3,0.5,0.5
2026-05-08T1300,4135A,109.1714,18.3739,三亚市,城东小学站,,21,21,20,8,12,49,49,35,35,4,9,/,/,/,/
2026-05-08T1300,2624A,91.7592,29.234,山南市,山南监测站,,42,7,10,3,2,133,133,118,116,3,3,6,6,0.2,0.2
2026-05-08T1300,2625A,91.7701,29.2436,山南市,山南人民医院,,41,9,15,3,3,130,130,117,117,3,2,9,9,0.3,0.3
2026-05-08T1300,1674A,116.6795,23.3666,汕头市,金平子站,臭氧1小时(O3_1h),94,59,31,28,21,195,195,101,101,17,15,8,6,0.9,0.7
2026-05-08T1300,1675A,116.7248,23.3632,汕头市,龙湖子站,颗粒物(PM10),68,74,33,30,24,160,160,100,100,8,12,9,8,/,/
2026-05-08T1300,1676A,116.7257,23.2774,汕头市,濠江子站,颗粒物(PM10),66,72,34,30,23,154,154,95,95,16,15,11,8,/,/
2026-05-08T1300,1677A,116.7518,23.4712,汕头市,澄海子站,颗粒物(PM10),64,69,42,31,27,154,154,104,104,11,16,9,10,0.8,0.8
2026-05-08T1300,1678A,116.6088,23.2539,汕头市,潮阳子站,臭氧1小时(O3_1h),67,58,29,35,25,173,173,95,95,9,9,8,7,0.7,0.6
2026-05-08T1300,3444A,116.4539,23.2684,汕头市,潮南峡山,,41,19,38,13,28,130,130,75,75,3,8,8,7,0.7,0.7
2026-05-08T1300,3624A,116.4069,23.2533,汕头市,潮南子站,,46,46,46,23,28,116,116,69,69,9,13,6,6,/,/
2026-05-08T1300,1693A,115.3653,22.7751,汕尾市,市环保局,,27,17,17,8,10,85,85,75,75,3,4,6,5,0.5,0.5
2026-05-08T1300,1695A,115.362,22.7926,汕尾市,新城中学,,29,20,18,8,10,90,90,76,76,2,4,6,6,0.5,0.5
2026-05-08T1300,2645A,109.9155,33.8714,商洛市,监测站,,41,31,30,13,10,130,130,78,78,7,14,11,8,0.4,0.4
2026-05-08T1300,3045A,109.9647,33.8486,商洛市,商州区中学,,44,31,31,14,10,140,140,86,86,8,16,16,7,0.4,0.4
2026-05-08T1300,2408A,115.6701,34.4283,商丘市,环境监测站,,50,50,64,24,19,127,127,97,97,4,10,3,3,0.3,0.3
2026-05-08T1300,2409A,115.6458,34.4047,商丘市,粮食局,颗粒物(PM10),66,72,62,16,15,121,121,94,94,8,13,4,6,0.3,0.2
2026-05-08T1300,3171A,115.6069,34.4465,商丘市,梁园区档案局,,50,50,68,16,14,122,122,91,91,6,15,3,2,0.3,0.3
2026-05-08T1300,4119A,115.6701,34.3767,商丘市,北海东路185号,,47,47,47,18,16,125,125,92,92,6,11,6,7,0.5,0.4
2026-05-08T1300,4120A,115.6172,34.3704,商丘市,中山大街3号,,44,44,48,11,13,123,123,87,87,5,12,7,7,0.3,0.3
2026-05-08T1300,1141A,121.401,31.2382,上海市,普陀,,33,16,39,7,23,103,103,102,99,12,13,5,6,0.3,0.4
2026-05-08T1300,1142A,121.4774,31.2043,上海市,十五厂,,32,20,35,14,19,100,100,100,95,14,12,6,6,0.5,0.6
2026-05-08T1300,1143A,121.4673,31.3011,上海市,虹口,,32,12,34,7,21,102,102,96,94,9,13,4,5,0.4,0.6
2026-05-08T1300,1147A,121.4253,31.226,上海市,静安监测站,,33,16,33,7,21,103,103,105,101,18,17,9,9,0.4,0.6
2026-05-08T1300,1148A,121.7029,31.1905,上海市,浦东川沙,,35,12,36,7,21,112,112,105,104,10,19,8,9,0.4,0.5
2026-05-08T1300,1149A,121.5339,31.229,上海市,浦东新区监测站,,30,13,32,8,20,93,93,93,90,16,16,6,7,0.4,0.5
2026-05-08T1300,1150A,121.5776,31.2038,上海市,浦东张江,,33,13,36,8,21,105,105,103,98,12,16,6,7,0.1,0.2
2026-05-08T1300,3265A,121.4242,31.3303,上海市,宝山庙行,,32,13,38,3,18,101,101,98,95,10,13,7,8,0.2,0.2
2026-05-08T1300,3266A,121.8789,31.4662,上海市,崇明上实东滩,,34,8,30,3,17,108,108,105,102,6,10,7,7,0.2,0.3
2026-05-08T1300,3268A,121.316,31.2839,上海市,嘉定南翔,,32,10,32,8,19,100,100,96,91,9,10,5,6,0.4,0.6
2026-05-08T1300,3269A,121.3357,30.7455,上海市,金山新城,,31,14,34,9,23,99,99,95,92,10,15,5,5,0.4,0.5
2026-05-08T1300,3270A,121.4996,31.0741,上海市,闵行浦江,,31,16,35,8,21,99,99,99,94,11,13,6,7,0,0.1
2026-05-08T1300,3271A,121.2886,31.1663,上海市,青浦徐泾,,34,12,35,7,21,108,108,103,101,10,11,5,7,0.4,0.6
2026-05-08T1300,3272A,121.2193,31.0382,上海市,松江图书馆,,32,26,43,13,24,100,100,100,94,14,15,8,9,0.3,0.4
2026-05-08T1300,3273A,121.3904,31.206,上海市,长宁仙霞,,31,16,36,10,22,98,98,102,96,13,11,5,7,0.2,0.3
2026-05-08T1300,3274A,121.7964,31.0507,上海市,浦东惠南,,35,13,31,6,20,112,112,109,106,12,14,7,7,0.4,0.5
2026-05-08T1300,3544A,121.4891,30.925,上海市,奉贤南桥新城,,32,18,37,8,22,101,101,99,94,13,18,4,4,0.1,0.3
2026-05-08T1300,4183A,121.417401,31.16637,上海市,冠生园路458号,,29,15,33,9,21,92,92,103,93,16,14,6,6,0.3,0.4
2026-05-08T1300,4205A,121.541914,31.268301,上海市,宁武路151号,,33,14,37,8,22,104,104,100,96,16,18,7,8,0.2,0.4
2026-05-08T1300,2382A,117.9758,28.4439,上饶市,市监测站,,34,29,30,10,15,106,106,93,93,3,6,4,6,/,/
2026-05-08T1300,2383A,117.9521,28.4637,上饶市,凤凰光学,,34,28,26,13,15,107,107,89,89,12,13,5,6,0.4,0.5
2026-05-08T1300,3685A,117.897,28.4316,上饶市,双创科技城,,35,25,26,13,15,111,111,96,96,10,8,8,7,0.4,0.5
2026-05-08T1300,4211A,118.190438,28.444845,上饶市,裕丰大道,,33,15,28,14,17,104,104,99,96,11,8,5,6,0.8,0.8
2026-05-08T1300,1669A,113.5821,24.7733,韶关市,市八中,,19,8,23,3,15,60,60,59,55,8,15,8,11,0.5,0.5
2026-05-08T1300,1671A,113.5916,24.7973,韶关市,园林处,,18,7,21,3,16,57,57,59,53,8,14,5,9,/,/
2026-05-08T1300,1673A,113.5971,24.6864,韶关市,曲江监测站,,23,6,28,3,14,71,71,66,62,6,17,7,10,0.7,0.8
2026-05-08T1300,2809A,113.6668,24.7756,韶关市,大学路288号,,18,6,26,3,17,57,57,59,50,8,15,7,10,/,/
2026-05-08T1300,3622A,113.5556,24.8082,韶关市,碧湖山庄,,19,6,19,3,12,59,59,58,54,8,11,7,6,0.6,0.6
2026-05-08T1300,2464A,111.5277,27.2442,邵阳市,市化工厂,,49,49,29,34,27,76,76,88,77,8,6,4,3,0.7,0.7
2026-05-08T1300,2466A,111.4327,27.2276,邵阳市,市环保局,细颗粒物(PM2.5),64,52,27,42,26,76,76,83,64,9,8,5,5,0.8,0.6
2026-05-08T1300,4218A,111.446,27.2472,邵阳市,北塔二期4-26地块,细颗粒物(PM2.5),56,52,32,38,25,69,69,66,58,9,10,4,4,0.5,0.4
2026-05-08T1300,4219A,111.4739,27.2282,邵阳市,邵水西路287号,细颗粒物(PM2.5),58,52,31,39,27,70,70,83,74,10,7,6,5,0.7,0.5
2026-05-08T1300,1247A,120.6053,29.9927,绍兴市,城东开发委,,32,18,42,7,23,101,101,88,88,11,15,9,10,0.3,0.4
2026-05-08T1300,2921A,120.5482,30.0003,绍兴市,树下王站,,32,10,34,6,22,102,102,92,92,7,12,8,8,0.3,0.4
2026-05-08T1300,3408A,120.5685,29.936,绍兴市,绍兴中专,,34,24,41,11,21,106,106,89,89,8,12,8,7,0.2,0.4
2026-05-08T1300,3409A,120.4905,30.086,绍兴市,柯桥区政府,,36,36,43,16,22,92,92,88,88,19,14,8,7,0.3,0.5
2026-05-08T1300,3410A,120.8751,30.0249,绍兴市,重华小学,,31,22,43,11,25,98,98,83,83,11,15,6,7,0.2,0.3
2026-05-08T1300,3411A,120.837,30.0137,绍兴市,上虞中学,,32,20,44,11,25,102,102,90,90,12,13,7,7,0.3,0.4
2026-05-08T1300,3560A,120.4715,30.0414,绍兴市,柯桥妇保,,32,31,41,14,23,102,102,97,97,17,14,7,7,0.3,0.4
2026-05-08T1300,3658A,120.6156,30.0762,绍兴市,袍江中学,,32,17,43,10,25,101,101,93,93,13,15,8,8,0.3,0.4
2026-05-08T1300,1356A,114.0948,22.5506,深圳市,通心岭子站,,43,37,17,30,11,95,95,55,50,24,14,5,5,0.5,0.4
2026-05-08T1300,1357A,114.1153,22.5713,深圳市,洪湖,,45,44,22,25,11,141,141,56,56,18,14,5,5,0.4,0.4
2026-05-08T1300,1358A,113.9823,22.5398,深圳市,华侨城,,39,39,22,22,11,66,66,48,48,38,19,/,/,/,/
2026-05-08T1300,1359A,113.9181,22.517,深圳市,南海子站,,29,29,25,12,13,59,59,46,44,37,27,5,5,0.6,0.6
2026-05-08T1300,1360A,114.2345,22.565,深圳市,盐田,,49,NA,20,34,11,58,58,26,26,47,27,6,6,0.5,0.5
2026-05-08T1300,1363A,114.4911,22.5381,深圳市,南澳,,30,13,15,3,8,94,94,64,64,7,5,/,/,/,/
2026-05-08T1300,1364A,114.41,22.6346,深圳市,葵涌,,33,28,18,18,9,104,104,67,67,13,9,6,6,0.6,0.7
2026-05-08T1300,1365A,114.2967,22.5978,深圳市,梅沙,,36,25,19,3,5,115,115,65,65,12,12,/,/,/,/
2026-05-08T1300,1366A,114.0563,22.7353,深圳市,观澜,,35,32,40,16,18,112,112,62,62,16,30,5,5,0.6,0.7
2026-05-08T1300,3305A,114.0614,22.556,深圳市,莲花,,32,32,19,20,11,43,43,36,33,19,14,/,/,/,/
2026-05-08T1300,3306A,114.0144,22.6163,深圳市,民治,,38,38,24,22,12,69,69,35,35,24,28,/,/,/,/
2026-05-08T1300,3307A,114.1756,22.6421,深圳市,横岗,,50,36,25,18,13,159,159,71,71,14,22,/,/,/,/
2026-05-08T1300,3447A,114.344,22.7115,深圳市,坪山,,39,39,15,24,8,123,123,76,76,9,6,7,5,0.6,0.6
