timepoint,stationcode,longitude,latitude,area,positionname,primarypollutant,aqi,pm10,pm10_24h,pm2_5,pm2_5_24h,o3,o3_24h,o3_8h,o3_8h_24h,no2,no2_24h,so2,so2_24h,co,co_24h
2026-06-30T1600,2568A,102.2503,31.8896,阿坝藏族羌族自治州,马师校,,27,27,25,7,8,78,78,66,66,8,7,3,3,0.3,0.3
2026-06-30T1600,3994A,102.2174,31.9016,阿坝藏族羌族自治州,马尔康中学西区,,26,21,15,6,8,81,81,65,65,6,6,2,2,0.2,0.2
2026-06-30T1600,2695A,80.2899,41.1684,阿克苏地区,电视台,颗粒物(PM10),64,69,62,20,21,141,141,108,108,4,18,4,3,0.6,0.8
2026-06-30T1600,2696A,80.2592,41.1541,阿克苏地区,艺术中心,NA,NA,65,54,21,31,152,152,108,108,NA,13,4,4,0.5,0.8
2026-06-30T1600,2205A,105.699,38.8409,阿拉善盟,蒙二幼,,42,34,26,17,10,132,132,129,129,2,4,10,10,0.2,0.3
2026-06-30T1600,2206A,105.7198,38.8508,阿拉善盟,环保局新楼,,40,40,28,6,10,128,128,126,126,2,6,8,9,0.4,0.4
2026-06-30T1600,2708A,88.1266,47.8515,阿勒泰地区,市站,,37,15,27,3,5,118,118,102,102,8,12,7,7,0.3,0.3
2026-06-30T1600,4166A,88.1198,47.7931,阿勒泰地区,阿勒泰路33号,,36,14,24,3,4,113,113,97,97,3,7,7,7,0.3,0.4
2026-06-30T1600,2630A,80.1171,32.4999,阿里地区,阿里监测站,,47,12,12,3,3,150,150,143,143,4,4,4,4,0.2,0.2
2026-06-30T1600,3192A,80.0906,32.5029,阿里地区,阿里藏医院,,49,9,10,3,3,154,154,146,146,2,2,6,6,0.5,0.5
2026-06-30T1600,2644A,109.0088,32.6974,安康市,汉滨区检察院,,28,28,24,14,13,84,84,71,71,4,6,3,2,0.5,0.4
2026-06-30T1600,4054A,109.0324,32.6913,安康市,市邮政管理局,,30,24,22,21,15,85,85,75,75,4,6,2,3,0.6,0.6
2026-06-30T1600,2291A,117.0806,30.5181,安庆市,环科院,NA,NA,NA,12,NA,5,NA,NA,124,88,NA,5,NA,8,NA,0.4
2026-06-30T1600,2292A,117.0331,30.5118,安庆市,马山宾馆,细颗粒物(PM2.5),74,NA,15,47,8,101,101,96,78,16,10,3,2,0.5,0.4
2026-06-30T1600,2294A,116.9897,30.6146,安庆市,安庆大学,细颗粒物(PM2.5),56,NA,15,38,8,75,75,80,79,11,6,6,3,0.6,0.3
2026-06-30T1600,3173A,117.0598,30.5351,安庆市,市人大,,32,23,13,22,6,94,94,98,94,16,5,5,5,0.5,0.4
2026-06-30T1600,3123A,105.9408,26.2431,安顺市,凤凰山,,22,10,13,7,10,70,70,65,65,6,7,7,10,0.4,0.5
2026-06-30T1600,3124A,105.9443,26.2567,安顺市,金钟山,,21,NA,10,7,10,66,66,61,61,4,6,7,10,0.4,0.4
2026-06-30T1600,3125A,105.8983,26.248,安顺市,娄家坡,,25,NA,11,17,10,70,70,66,66,5,6,7,10,0.7,0.7
2026-06-30T1600,1819A,114.3552,36.1017,安阳市,红庙街,臭氧1小时(O3_1h),74,53,58,20,31,179,179,155,155,4,13,6,11,0.5,1.2
2026-06-30T1600,1820A,114.361,36.0681,安阳市,银杏小区,臭氧1小时(O3_1h),79,53,55,35,34,183,183,161,161,1,11,3,6,0.5,1
2026-06-30T1600,3141A,114.3921,36.0879,安阳市,信访局,臭氧1小时(O3_1h),90,54,56,38,36,192,192,165,165,4,13,2,8,0.7,1.2
2026-06-30T1600,3669A,114.4706,36.0634,安阳市,左辅环卫站,臭氧1小时(O3_1h),55,53,67,35,36,164,164,140,140,7,20,4,7,0.9,1.4
2026-06-30T1600,4117A,114.2918,36.0769,安阳市,钢三路198号,臭氧1小时(O3_1h),65,59,63,28,31,172,172,139,139,2,13,5,6,0.5,1
2026-06-30T1600,1748A,123.0441,41.1201,鞍山市,深沟寺,,28,22,18,13,12,89,89,86,86,4,6,6,6,0.5,0.5
2026-06-30T1600,1749A,123.011,41.0931,鞍山市,太阳城,,30,23,20,14,13,94,94,90,90,7,7,7,7,0.7,0.7
2026-06-30T1600,1750A,123.0483,41.1445,鞍山市,太平,,29,28,23,14,12,91,91,86,86,10,11,7,7,0.7,0.6
2026-06-30T1600,1751A,122.964,41.0968,鞍山市,铁西三道街,,32,28,24,14,14,101,101,97,97,9,11,5,5,0.6,0.7
2026-06-30T1600,1753A,123.0219,41.0822,鞍山市,明达新区,,31,21,19,13,12,97,97,92,92,6,7,5,6,0.5,0.6
2026-06-30T1600,4201A,122.944647,41.082639,鞍山市,兴盛南路290号,,38,38,35,17,15,101,101,97,97,11,13,6,7,0.6,0.6
2026-06-30T1600,2195A,107.4206,40.7609,巴彦淖尔市,附二中,,45,16,36,8,15,141,141,126,126,6,9,11,14,0.5,0.6
2026-06-30T1600,2196A,107.37,40.7372,巴彦淖尔市,市环保大楼,,44,31,40,3,12,138,138,127,127,4,7,9,10,0.5,0.5
2026-06-30T1600,1956A,86.1476,41.7529,巴音郭楞蒙古自治州,孔雀公园,颗粒物(PM10),76,86,48,25,11,123,123,106,106,2,13,5,5,0.1,0.2
2026-06-30T1600,1957A,86.1971,41.7166,巴音郭楞蒙古自治州,棉纺厂,NA,NA,NA,NA,NA,NA,NA,NA,NA,NA,NA,NA,NA,NA,NA,NA
2026-06-30T1600,1958A,86.236,41.7172,巴音郭楞蒙古自治州,经济开发区,,49,49,32,28,13,122,122,114,114,6,7,3,3,0.0,0.1
2026-06-30T1600,3181A,106.776805,31.852614,巴中市,市五中,,28,22,20,18,14,89,89,75,75,5,7,10,8,0.7,0.7
2026-06-30T1600,3183A,106.7419,31.8654,巴中市,圣泉水务公司,,33,33,22,17,15,94,94,77,77,4,10,12,10,0.5,0.6
2026-06-30T1600,3616A,106.7617,31.8343,巴中市,市中心医院,,32,26,26,18,16,100,100,83,83,3,8,10,8,0.7,0.7
2026-06-30T1600,2235A,122.7909,45.608,白城市,洮北区环保局,,47,29,28,22,19,148,148,129,129,4,6,3,4,0.3,0.3
2026-06-30T1600,2236A,122.8741,45.5725,白城市,市环保局,,46,27,20,26,18,146,146,134,134,6,8,5,4,0.2,0.2
2026-06-30T1600,2231A,126.4219,41.9172,白山市,喜丰,,46,46,49,6,10,111,111,112,112,9,20,13,13,0.6,0.6
2026-06-30T1600,2232A,126.4082,41.9416,白山市,环保局,,35,21,22,6,8,112,112,112,112,2,8,9,11,0.3,0.3
2026-06-30T1600,2647A,104.1727,36.5448,白银市,第三小学,,42,36,38,9,14,133,133,116,116,4,17,5,15,0.3,0.5
2026-06-30T1600,2648A,104.1467,36.5482,白银市,动力公司,,42,11,33,7,13,132,132,118,118,3,14,4,8,0.2,0.4
2026-06-30T1600,2512A,106.6102,23.901,百色市,市监测站,,13,6,19,3,11,40,40,40,40,3,9,6,10,0.3,0.4
2026-06-30T1600,2513A,106.6524,23.8842,百色市,市中心血站,,14,6,21,3,14,43,43,45,44,3,7,6,11,0.4,0.6
2026-06-30T1600,4133A,106.6273,23.8798,百色市,龙景西路,,13,6,25,3,14,41,41,41,41,5,11,10,12,0.7,0.8
2026-06-30T1600,2270A,117.396,32.9389,蚌埠市,工人疗养院,,40,14,43,3,29,125,125,116,116,6,12,4,5,0.3,0.4
2026-06-30T1600,2271A,117.3606,32.9428,蚌埠市,百货大楼,,40,14,38,3,27,126,126,116,116,5,10,7,7,0.5,0.6
2026-06-30T1600,2273A,117.4183,32.8909,蚌埠市,蚌埠学院,,39,6,34,3,31,123,123,113,113,2,6,5,5,0.3,0.5
2026-06-30T1600,2274A,117.3534,32.9672,蚌埠市,淮上区政府,,39,9,40,3,27,124,124,120,120,8,11,5,6,0.3,0.4
2026-06-30T1600,2275A,117.3143,32.8977,蚌埠市,高新区,,39,19,39,3,31,123,123,114,114,4,10,8,8,0.3,0.5
2026-06-30T1600,3715A,117.3091,32.9314,蚌埠市,蚌埠田家炳中学,,40,23,44,3,34,126,126,120,120,4,8,6,7,0.4,0.6
2026-06-30T1600,1585A,109.8761,40.6533,包头市,市环境监测站,,48,32,28,12,15,151,151,155,155,15,22,7,11,0.4,0.5
2026-06-30T1600,1587A,109.9992,40.5843,包头市,包头八中,,42,42,34,26,19,114,114,133,133,23,20,10,18,0.6,0.6
2026-06-30T1600,1589A,109.8641,40.6288,包头市,惠龙物流,,48,46,30,12,16,152,152,150,150,15,19,8,13,0.4,0.4
2026-06-30T1600,1590A,110.0376,40.5546,包头市,东河鸿龙湾,,39,28,24,27,17,115,115,138,138,21,17,9,15,0.6,0.5
2026-06-30T1600,3283A,109.9154,40.5684,包头市,滨河大厦,,39,29,22,22,16,123,123,141,141,19,16,9,13,0.6,0.5
2026-06-30T1600,3419A,109.9449,40.6259,包头市,包头市委党校,,38,25,20,23,18,119,119,139,139,24,24,8,15,0.7,0.6
2026-06-30T1600,3683A,109.8332,40.6577,包头市,昆区政府,,45,44,29,19,18,143,143,140,140,20,26,8,11,0.7,0.7
2026-06-30T1600,1931A,107.0802,34.3129,宝鸡市,竹园沟,,48,45,37,22,21,151,151,137,137,7,7,7,7,0.6,0.3
2026-06-30T1600,1933A,107.1429,34.3549,宝鸡市,监测站,臭氧1小时(O3_1h),58,49,45,26,21,166,166,141,141,7,8,7,8,0.5,0.5
2026-06-30T1600,1934A,107.1172,34.3759,宝鸡市,技工学校,臭氧1小时(O3_1h),72,47,44,25,24,177,177,150,150,7,7,6,6,0.5,0.6
2026-06-30T1600,1936A,107.2025,34.3518,宝鸡市,文理学院,臭氧1小时(O3_1h),62,43,46,23,24,169,169,144,144,8,12,8,8,0.6,0.6
2026-06-30T1600,1937A,107.2396,34.3626,宝鸡市,三迪小学,臭氧1小时(O3_1h),57,44,48,24,25,165,165,147,147,11,14,8,8,0.6,0.6
2026-06-30T1600,4155A,107.1721,34.3558,宝鸡市,滨河北路,,49,40,44,21,23,156,156,134,134,6,9,6,6,0.6,0.6
2026-06-30T1600,4308A,107.3898,34.3601,宝鸡市,陈仓区北开路21号,,45,39,46,20,22,141,141,127,127,7,9,6,5,0.5,0.5
2026-06-30T1600,1051A,115.4803,38.8568,保定市,游泳馆,,47,NA,41,15,30,148,148,133,133,9,10,3,2,0.2,0.2
2026-06-30T1600,1052A,115.509,38.8895,保定市,华电二区,,49,NA,41,23,29,156,156,139,139,8,8,1,2,0.7,0.7
2026-06-30T1600,1053A,115.4588,38.9037,保定市,接待中心,,45,27,44,19,31,144,144,132,132,5,7,1,2,0.4,0.5
2026-06-30T1600,1054A,115.4484,38.8344,保定市,地表水厂,NA,NA,48,55,16,31,155,155,109,NA,5,7,NA,2,0.5,0.6
2026-06-30T1600,3581A,115.3136,38.9511,保定市,满城区生态环境分局,,42,29,37,23,28,134,134,125,125,7,8,2,2,0.0,0.1
2026-06-30T1600,3582A,115.4709,38.7628,保定市,清苑区第二中学,臭氧1小时(O3_1h),53,42,53,29,27,162,162,140,140,16,8,5,4,0.3,0.4
2026-06-30T1600,3583A,115.6231,39.0223,保定市,徐水物探局,,45,40,40,20,27,143,143,127,127,10,12,4,3,0.4,0.5
2026-06-30T1600,4004A,115.4199,38.8665,保定市,双鹰农机,,48,26,37,22,33,151,151,139,139,9,7,2,3,0.2,0.3
2026-06-30T1600,4034A,115.515,38.8589,保定市,植保所站,臭氧1小时(O3_1h),60,23,39,23,30,168,168,150,150,9,8,6,7,0.3,0.4
2026-06-30T1600,2594A,99.1589,25.1137,保山市,市环境监测站,,22,22,12,9,9,66,66,51,51,8,8,6,6,0.3,0.3
2026-06-30T1600,2595A,99.1616,25.1381,保山市,市环保局,,30,22,15,21,19,68,68,54,54,4,5,5,5,0.2,0.3
2026-06-30T1600,1867A,109.1435,21.4085,北海市,海滩公园,,18,6,16,3,9,55,55,60,60,6,6,3,2,0.5,0.5
2026-06-30T1600,1868A,109.0983,21.466,北海市,新市环保局,,23,8,16,7,9,72,72,69,69,5,8,4,4,0.4,0.4
2026-06-30T1600,1869A,109.1775,21.5232,北海市,北海工业园,,17,8,21,7,16,54,54,55,55,7,12,2,4,0.3,0.3
2026-06-30T1600,3400A,109.1844,21.4396,北海市,龙潭自来水厂,,16,13,14,3,5,50,50,55,55,3,4,3,3,0.7,0.7
2026-06-30T1600,1001A,116.3611,39.8786,北京市,万寿西宫,,49,19,28,14,20,155,155,157,157,6,7,3,3,0.5,0.5
2026-06-30T1600,1003A,116.4174,39.9289,北京市,东四,臭氧1小时(O3_1h),82,10,27,6,21,185,185,167,167,8,12,3,3,0.2,0.3
2026-06-30T1600,1004A,116.4073,39.8858,北京市,天坛,,45,12,28,10,20,141,141,142,142,8,12,1,1,0.6,0.6
2026-06-30T1600,1005A,116.4622,39.9364,北京市,农展馆,,50,10,31,7,22,160,160,145,145,9,12,3,3,0.4,0.5
2026-06-30T1600,1006A,116.3399,39.9293,北京市,官园,臭氧1小时(O3_1h),73,13,30,9,21,178,178,154,154,7,8,4,4,0.4,0.5
2026-06-30T1600,1007A,116.2879,39.9613,北京市,海淀万柳,,50,11,31,7,23,160,160,134,134,11,13,4,4,0.3,0.4
2026-06-30T1600,1008A,116.6635,40.1349,北京市,顺义新城,,46,7,33,6,30,147,147,130,130,2,8,1,1,0.5,0.7
2026-06-30T1600,1009A,116.6275,40.327,北京市,怀柔镇,,42,8,33,3,26,134,134,125,125,6,8,1,1,0.4,0.6
2026-06-30T1600,1010A,116.2295,40.217,北京市,昌平镇,,47,8,26,6,19,148,148,121,121,7,12,3,3,0.9,1
2026-06-30T1600,1011A,116.3968,39.982,北京市,奥体中心,,46,9,32,6,24,145,145,127,127,5,8,3,4,0.5,0.6
2026-06-30T1600,3418A,116.8336,40.4095,北京市,密云新城,,35,6,34,3,26,111,111,116,116,2,7,2,2,0.4,0.7
2026-06-30T1600,3671A,116.0879,39.9725,北京市,门头沟三家店,,44,13,24,9,16,139,139,127,127,6,11,2,2,0.6,0.7
2026-06-30T1600,3672A,116.1507,39.8246,北京市,丰台云岗,,38,13,35,10,22,120,120,130,130,2,2,3,3,0.5,0.6
2026-06-30T1600,3674A,115.9578,39.7602,北京市,房山燕山,,31,20,36,14,26,98,98,118,118,6,8,1,1,0.6,0.7
2026-06-30T1600,3675A,116.4669,39.7734,北京市,大兴旧宫,,49,15,39,11,28,155,155,136,136,6,11,1,1,0.6,0.7
2026-06-30T1600,3694A,115.9859,40.4562,北京市,延庆石河营,,35,7,20,3,16,112,112,108,108,7,8,2,2,0.3,0.4
2026-06-30T1600,3695A,116.6151,40.3052,北京市,怀柔新城,NA,NA,6,32,3,25,122,122,118,118,3,5,NA,1,0.5,0.8
2026-06-30T1600,3696A,116.2542,39.8764,北京市,丰台小屯,,44,11,31,9,21,140,140,138,138,4,6,3,4,0.4,0.5
2026-06-30T1600,3697A,116.8399,40.3843,北京市,密云镇,,36,6,35,3,26,115,115,111,111,6,6,2,5,0.4,0.6
2026-06-30T1600,4057A,115.9423,40.4431,北京市,延庆百泉,,39,7,18,3,13,123,123,119,119,4,6,1,1,0.3,0.3
2026-06-30T1600,4058A,116.6598,39.9164,北京市,通州新华,,48,13,41,9,28,152,152,132,132,7,11,3,3,0.6,0.8
2026-06-30T1600,4182A,116.1942,39.9158,北京市,石景山八角,臭氧1小时(O3_1h),53,14,29,10,23,162,162,144,144,5,7,4,3,0.5,0.6
2026-06-30T1600,4194A,117.078628,40.151726,北京市,平谷新城,,41,10,41,7,35,131,131,116,116,2,3,1,1,0.6,0.8
2026-06-30T1600,1761A,123.8274146,41.31234549,本溪市,大峪,,33,18,21,8,11,105,105,100,100,4,12,6,6,0.3,0.3
2026-06-30T1600,1763A,123.7169,41.3094,本溪市,彩屯,,30,19,30,7,15,96,96,90,90,8,14,8,8,1.1,1.1
2026-06-30T1600,1764A,123.7672166,41.28649327,本溪市,东明,,35,34,29,9,11,109,109,105,105,10,12,7,6,0.4,0.4
2026-06-30T1600,1765A,123.799345,41.266614,本溪市,新立屯,,32,22,19,9,10,102,102,100,100,5,20,7,7,0.6,0.5
2026-06-30T1600,1766A,123.829144,41.336777,本溪市,威宁,颗粒物(PM10),59,62,29,9,14,101,101,99,99,2,11,8,8,0.3,0.4
2026-06-30T1600,2587A,105.287,27.3133,毕节市,八中,,22,11,18,3,9,68,68,77,77,10,8,7,8,0.5,0.5
2026-06-30T1600,2588A,105.3079,27.2987,毕节市,师专,,20,6,16,3,8,63,63,65,65,6,8,2,3,0.6,0.6
2026-06-30T1600,4263A,105.3688,27.3598,毕节市,工业大道,,23,6,16,3,7,71,71,70,70,2,9,6,6,/,/
2026-06-30T1600,1629A,117.9961,37.3604,滨州市,第二水厂,,42,NA,50,29,47,128,128,127,127,10,16,5,8,1.0,1
2026-06-30T1600,1630A,117.9789,37.3931,滨州市,北中新校,,46,31,48,23,43,146,146,136,136,12,20,11,13,0.8,0.9
2026-06-30T1600,3514A,117.9379,37.3959,滨州市,中海酒店,臭氧1小时(O3_1h),58,24,40,16,41,166,166,140,140,17,22,9,11,0.4,0.5
2026-06-30T1600,3515A,117.9381509,37.35547456,滨州市,开发区一中,,44,31,48,19,43,138,138,148,148,18,22,9,11,0.6,0.6
2026-06-30T1600,3516A,118.0914,37.6938,滨州市,金海六路,,45,34,52,23,46,142,142,119,119,10,15,7,7,0.2,0.4
2026-06-30T1600,4028A,117.9955,37.3752,滨州市,滨州市西街道办事处,,42,24,40,23,44,132,132,130,130,7,14,4,5,0.6,0.6
2026-06-30T1600,2311A,115.8071,33.8399,亳州市,污水处理厂,臭氧1小时(O3_1h),55,27,46,13,39,164,164,151,151,6,14,4,5,0.4,0.4
2026-06-30T1600,2312A,115.7789,33.8519,亳州市,三国揽胜宫,臭氧1小时(O3_1h),55,45,55,18,41,164,164,146,146,6,11,4,4,0.4,0.4
2026-06-30T1600,3332A,115.7631,33.803,亳州市,亳州学院,臭氧1小时(O3_1h),68,36,46,22,45,174,174,156,156,6,10,4,4,0.6,0.6
2026-06-30T1600,2693A,82.0482,44.8553,博尔塔拉蒙古自治州,市党校,,35,10,29,3,7,111,111,89,89,1,5,3,3,0.2,0.2
2026-06-30T1600,2694A,82.0805,44.8966,博尔塔拉蒙古自治州,市环保局,,34,24,29,8,7,108,108,88,88,6,12,6,6,0.5,0.5
2026-06-30T1600,1071A,116.8733,38.2922,沧州市,沧县城建局,NA,NA,NA,42,47,37,153,153,135,135,5,10,5,5,0.3,0.7
2026-06-30T1600,1072A,116.8462,38.3189,沧州市,电视转播站,细颗粒物(PM2.5),58,45,54,39,34,136,136,123,123,8,12,1,3,0.3,0.4
2026-06-30T1600,1073A,116.8588,38.3161,沧州市,市环保局,颗粒物(PM10),57,59,67,37,38,151,151,129,129,7,12,2,6,0.3,0.3
2026-06-30T1600,3324A,116.8011,38.294,沧州市,河北水利电力学院,细颗粒物(PM2.5),82,NA,42,51,36,147,147,128,128,7,11,8,8,0.5,0.5
2026-06-30T1600,2622A,97.1813,31.1289,昌都市,昌都监测站,,35,6,4,3,2,111,111,88,88,5,10,8,8,0.6,0.7
2026-06-30T1600,3719A,97.1707,31.1428,昌都市,昌都会议中心,,37,6,5,3,3,118,118,97,97,5,5,5,5,0.4,0.4
2026-06-30T1600,2692A,87.2722,44.0298,昌吉回族自治州,新区政务中心,,43,13,22,10,15,135,135,102,102,5,13,10,10,0.3,0.4
2026-06-30T1600,3613A,87.3069,44.0093,昌吉回族自治州,亚心广场,,44,22,28,3,12,138,138,110,110,4,17,9,9,0.2,0.3
2026-06-30T1600,4164A,87.2057,43.9289,昌吉回族自治州,财政所,,45,21,22,3,6,141,141,112,112,7,9,7,7,0.2,0.2
2026-06-30T1600,1120A,125.2874,43.9024,长春市,客车厂,,44,14,31,3,22,139,139,126,126,9,17,5,6,0.4,0.5
2026-06-30T1600,1121A,125.2943,43.8508,长春市,邮电学院,,48,15,32,6,22,151,151,134,134,4,13,6,6,0.3,0.5
2026-06-30T1600,1122A,125.3648,43.8745,长春市,劳动公园,,49,27,31,8,23,154,154,136,136,6,17,7,7,0.2,0.5
2026-06-30T1600,1123A,125.3233,43.8781,长春市,园林处,,48,18,31,6,21,152,152,137,137,5,15,4,4,0.3,0.5
2026-06-30T1600,1124A,125.4604,43.7904,长春市,净月潭,,46,16,24,8,18,145,145,127,127,5,9,6,6,0.3,0.3
2026-06-30T1600,1126A,125.38,43.8422,长春市,经开区环卫处,,47,16,30,6,20,148,148,132,132,4,20,6,5,0.2,0.4
2026-06-30T1600,1127A,125.234,43.7761,长春市,高新区管委会,,45,13,32,6,20,144,144,128,128,3,19,6,6,0.4,0.6
2026-06-30T1600,1128A,125.1695,43.83,长春市,岱山公园,,50,17,35,7,25,158,158,138,138,5,21,2,3,0.4,0.5
2026-06-30T1600,4281A,125.334645,43.916281,长春市,北亚泰大街1068号,,46,23,35,9,24,146,146,131,131,8,22,5,5,0.3,0.5
2026-06-30T1600,1335A,113.082,28.2421,长沙市,经开区环保局,,22,9,36,3,28,68,68,64,58,9,8,4,4,0.5,0.6
2026-06-30T1600,1336A,112.8873,28.2202,长沙市,高开区环保局,,25,7,36,3,26,77,77,72,61,5,7,3,4,0.4,0.4
2026-06-30T1600,1337A,113.0785,28.2012,长沙市,马坡岭,,25,11,38,3,29,77,77,67,62,9,11,6,6,0.5,0.6
2026-06-30T1600,1338A,112.9448,28.1894,长沙市,湖南师范大学,,26,13,35,3,27,81,81,68,67,3,6,7,8,0.1,0.2
2026-06-30T1600,1339A,113.0177,28.1322,长沙市,雨花区环保局,,22,12,36,7,31,69,69,61,54,3,5,4,5,0.9,1
2026-06-30T1600,1340A,112.9795,28.2593,长沙市,伍家岭,,24,9,38,3,25,76,76,67,67,6,8,3,4,0.3,0.4
2026-06-30T1600,1341A,113.002,28.1944,长沙市,火车新站,,23,11,37,3,25,72,72,60,59,4,6,8,8,0.4,0.5
2026-06-30T1600,1342A,112.9846,28.1177,长沙市,天心区环保局,,25,13,36,6,32,79,79,73,65,10,13,4,4,0.3,0.8
2026-06-30T1600,1343A,112.8906,28.1307,长沙市,湖南中医药大学,,23,15,35,9,28,73,73,69,65,6,8,6,6,0.5,0.6
2026-06-30T1600,1727A,113.1146,36.1547,长治市,清华站,臭氧1小时(O3_1h),54,22,24,14,13,163,163,125,125,4,10,9,8,0.6,0.7
2026-06-30T1600,1730A,113.0887,36.2126,长治市,审计局,臭氧1小时(O3_1h),52,20,25,16,15,161,161,114,114,1,10,9,10,0.8,0.6
2026-06-30T1600,1731A,113.0845,36.1856,长治市,长治八中,臭氧1小时(O3_1h),54,30,33,14,15,163,163,112,112,5,13,12,11,1.0,0.7
2026-06-30T1600,2845A,113.1561,36.1912,长治市,德盛苑,臭氧1小时(O3_1h),52,16,22,9,14,161,161,122,122,7,12,11,11,0.5,0.5
2026-06-30T1600,3568A,113.0603,36.0464,长治市,向阳小学,臭氧1小时(O3_1h),62,48,31,23,14,169,169,116,116,2,4,7,3,1.1,0.7
2026-06-30T1600,3569A,112.8788,36.315,长治市,屯留一中,,44,17,21,6,14,139,139,114,114,2,12,9,10,0.8,0.8
2026-06-30T1600,4189A,113.113092,36.199482,长治市,英华南巷50号,臭氧1小时(O3_1h),57,25,30,22,16,165,165,123,123,6,11,10,11,0.8,0.7
2026-06-30T1600,4190A,113.23666,36.33435,长治市,学府街1号,,49,24,36,14,19,156,156,135,135,7,14,6,14,0.4,0.8
2026-06-30T1600,1854A,111.696,28.9725,常德市,市二中,,20,6,23,3,13,64,64,76,60,3,5,7,8,1.0,0.9
2026-06-30T1600,3138A,111.7152,29.0288,常德市,武陵区永安,,18,6,24,3,15,57,57,82,63,1,3,6,7,0.8,0.8
2026-06-30T1600,3139A,111.6891,28.9881,常德市,鼎城区玉霞,,18,6,21,3,12,57,57,78,58,6,6,8,10,0.6,0.9
2026-06-30T1600,3140A,111.6651,29.0526,常德市,武陵区长庚,,16,6,24,3,14,50,50,71,57,4,6,8,10,0.6,0.6
2026-06-30T1600,1196A,119.9524,31.7586,常州市,市监测站,,22,6,27,3,14,70,70,77,76,19,20,10,10,0.4,0.4
2026-06-30T1600,1200A,119.9351,31.703,常州市,武进监测站,,19,6,22,3,14,59,59,70,65,25,18,8,7,0.7,0.6
2026-06-30T1600,3002A,119.9701,31.813,常州市,行政中心,,22,6,21,3,17,68,68,75,73,14,16,5,6,0.3,0.4
2026-06-30T1600,3003A,120.0434,31.7726,常州市,经开区,,19,6,30,3,15,59,59,76,70,26,18,2,2,0.8,0.8
2026-06-30T1600,3010A,119.8919,31.7892,常州市,钟楼,NA,NA,15,30,NA,17,68,68,80,79,18,17,7,7,0.6,0.6
2026-06-30T1600,3429A,119.8595,31.706,常州市,武进经发区,,16,6,27,3,15,49,49,68,63,23,14,6,7,0.8,0.8
2026-06-30T1600,3430A,119.5812,31.7256,常州市,金坛城区,,25,6,20,3,15,80,80,82,80,11,8,6,7,0.8,0.8
2026-06-30T1600,4089A,119.9551,31.863,常州市,崇义南街5-H号,,21,6,22,3,19,67,67,68,68,18,22,6,6,0.8,0.8
2026-06-30T1600,2220A,120.4318,41.588,朝阳市,西梁,,22,15,24,15,16,62,62,82,75,10,8,5,6,0.7,0.8
2026-06-30T1600,2221A,120.452,41.565,朝阳市,河畔小区,,39,NA,21,27,18,68,68,85,67,14,8,8,8,0.7,0.4
2026-06-30T1600,2222A,120.4176,41.5648,朝阳市,八里堡,,23,14,21,13,17,71,71,77,72,17,12,2,2,0.8,0.8
2026-06-30T1600,3026A,116.6179,23.6608,潮州市,市政府,,20,10,15,3,8,64,64,63,63,2,9,4,6,0.2,0.2
2026-06-30T1600,4036A,116.646,23.676,潮州市,金山,,21,19,13,3,5,65,65,66,66,1,4,1,2,0.2,0.3
2026-06-30T1600,2473A,113.0116,25.8228,郴州市,市职中,,19,14,20,9,9,58,58,60,60,5,11,7,7,0.6,0.8
2026-06-30T1600,2475A,113.0381,25.8074,郴州市,市审计局,,22,16,17,11,9,69,69,64,64,6,10,3,3,/,/
2026-06-30T1600,2476A,113.0348,25.7757,郴州市,市环保局,,23,NA,21,10,8,71,71,63,63,5,7,6,6,0.7,0.7
2026-06-30T1600,4252A,113.0138,25.8011,郴州市,好美居路49号,,20,8,17,7,5,64,64,61,61,5,11,7,5,/,/
2026-06-30T1600,1431A,103.9727,30.7242,成都市,金泉两河,,46,34,26,19,15,147,147,120,120,12,14,4,3,0.3,0.3
2026-06-30T1600,1432A,104.1423,30.6765,成都市,十里店,臭氧1小时(O3_1h),55,33,22,25,16,164,164,111,111,12,11,5,4,0.5,0.5
2026-06-30T1600,1433A,104.0594,30.5765,成都市,三瓦窑,,42,34,23,17,15,134,134,99,99,12,15,5,4,0.6,0.6
2026-06-30T1600,1434A,104.1122,30.6306,成都市,沙河铺,,45,40,27,20,15,144,144,103,103,11,13,4,4,0.5,0.4
2026-06-30T1600,2880A,104.0219,30.6561,成都市,大石西路,,45,41,27,20,16,141,141,106,106,12,12,4,4,0.5,0.5
2026-06-30T1600,3136A,104.2724,30.559,成都市,龙泉驿区区政府,,36,17,10,16,14,114,114,84,84,5,8,7,7,0.4,0.4
2026-06-30T1600,3357A,104.0028,30.6891,成都市,金博路,,48,NA,15,20,15,151,151,112,112,12,15,8,7,0.5,0.5
2026-06-30T1600,3359A,104.056,30.5228,成都市,华阳,,40,22,18,13,11,125,125,104,104,6,8,2,2,0.4,0.4
2026-06-30T1600,3488A,104.387954,30.746684,成都市,青白江技师分院,,35,18,19,16,14,112,112,87,87,6,8,6,5,0.6,0.6
2026-06-30T1600,3489A,104.0788,30.4054,成都市,科学城,,32,23,13,21,10,100,100,76,76,4,6,5,5,0.2,0.3
2026-06-30T1600,4011A,103.8505,30.6946,成都市,光华大道三段,,49,44,27,24,14,156,156,117,117,8,9,6,6,0.5,0.4
2026-06-30T1600,4144A,104.3257,30.6406,成都市,八角井街185号,,36,20,22,19,12,113,113,83,83,6,11,4,4,0.5,0.4
2026-06-30T1600,4224A,104.2433276,30.53529463,成都市,鲸龙路1057号,,35,26,18,17,11,112,112,91,91,6,10,8,8,0.7,0.7
2026-06-30T1600,1062A,117.9531,40.908,承德市,铁路,,35,11,39,3,23,110,110,100,95,7,15,3,4,0.3,0.4
2026-06-30T1600,1063A,117.9397,40.9763,承德市,中国银行,,29,6,34,3,21,92,92,86,86,5,9,2,1,0.3,0.4
2026-06-30T1600,4073A,117.9462,40.95,承德市,杏林街1号,,32,12,31,3,26,100,100,107,96,7,6,3,3,0.3,0.3
2026-06-30T1600,4274A,117.7994,40.9605,承德市,滨河大街98号,,39,6,26,3,23,122,122,104,104,4,6,5,5,0.3,0.3
2026-06-30T1600,2314A,117.4698,30.6617,池州市,池州学院,,30,20,13,15,11,93,93,92,84,9,10,4,4,1.0,0.8
2026-06-30T1600,3237A,117.4918,30.6617,池州市,展览馆,,25,19,16,10,8,80,80,88,74,9,6,4,5,0.6,0.5
2026-06-30T1600,3333A,117.5626,30.695,池州市,第八中学,,25,17,20,13,16,79,79,89,75,14,11,6,4,0.4,0.4
2026-06-30T1600,3334A,117.5037,30.6242,池州市,第十二中学,,31,25,14,17,8,97,97,88,79,6,7,6,5,1.0,0.6
2026-06-30T1600,1744A,118.9229,42.2816,赤峰市,松山一中,,42,29,30,29,24,126,126,126,126,13,13,12,16,0.6,0.7
2026-06-30T1600,1745A,118.9588,42.2733,赤峰市,哈达街,,38,23,30,15,23,121,121,110,110,9,15,16,20,0.5,0.6
2026-06-30T1600,1746A,118.8792,42.2551,赤峰市,天义路,,38,25,21,19,20,121,121,115,115,12,16,7,11,0.5,0.6
2026-06-30T1600,3058A,119.2656,42.0356,赤峰市,银河街,,35,35,45,17,30,103,103,121,120,18,13,12,12,0.9,0.9
2026-06-30T1600,3286A,118.9359,42.3146,赤峰市,桥北物流园区,,40,28,30,22,25,127,127,121,121,14,15,3,11,0.5,0.7
2026-06-30T1600,2521A,107.3473,22.4137,崇左市,市环保局江州分局,,22,9,15,3,7,68,68,50,50,2,7,6,6,0.5,0.5
2026-06-30T1600,4256A,107.375,22.3736,崇左市,石景林东路7号,,20,20,12,3,6,61,61,52,52,4,9,5,6,0.5,0.5
2026-06-30T1600,3207A,118.31131,32.3033,滁州市,市政府原办公楼,,41,NA,25,13,27,131,131,122,122,4,7,6,6,0.4,0.5
2026-06-30T1600,3331A,118.3268,32.2633,滁州市,图书馆,,39,20,35,7,17,124,124,113,113,3,6,10,9,0.3,0.4
2026-06-30T1600,4101A,118.3196,32.3335,滁州市,银山路666号,,40,14,39,8,24,128,128,119,119,7,10,2,3,0.2,0.3
2026-06-30T1600,4102A,118.3426,32.2979,滁州市,黄山路555号,,40,16,37,9,23,127,127,113,113,4,8,9,9,0.3,0.4
2026-06-30T1600,2606A,101.5379,25.0492,楚雄彝族自治州,市经济开发区,,21,10,15,9,9,67,67,55,55,5,7,2,2,0.4,0.5
2026-06-30T1600,4153A,101.5536,25.0343,楚雄彝族自治州,团结路562号,,25,8,14,3,12,77,77,58,58,4,6,8,6,0.5,0.6
2026-06-30T1600,2549A,107.5087,31.2186,达州市,市环境监测站,,34,34,31,16,7,71,71,46,46,23,22,8,7,0.5,0.4
2026-06-30T1600,2550A,107.4988,31.2132,达州市,凤凰小区,,41,41,33,17,10,73,73,52,52,14,17,7,7,0.5,0.4
2026-06-30T1600,2551A,107.5081,31.1987,达州市,达县机关宾馆,,44,44,35,22,14,82,82,49,49,20,28,7,8,0.4,0.4
2026-06-30T1600,2552A,107.4644,31.2124,达州市,市政中心,,30,30,33,6,6,83,83,63,63,10,14,5,4,0.3,0.2
2026-06-30T1600,2614A,100.2168,25.5818,大理白族自治州,大理市环境监测站,NA,NA,NA,11,57,7,85,85,81,81,6,10,5,5,0.5,0.5
2026-06-30T1600,2615A,100.1542,25.7055,大理白族自治州,大理古城,,24,NA,10,6,5,75,75,70,70,7,8,3,4,0.6,0.6
2026-06-30T1600,1109A,121.6119,38.974,大连市,甘井子,,24,20,25,14,18,75,75,86,86,19,8,9,8,0.6,0.6
2026-06-30T1600,1110A,121.565,38.9509,大连市,周水子,,31,26,27,20,21,98,98,93,93,15,13,15,13,0.7,0.7
2026-06-30T1600,1111A,121.5637,38.8849,大连市,星海三站,,29,29,33,10,18,82,82,89,88,23,14,6,6,0.8,0.7
2026-06-30T1600,1112A,121.6301,38.9117,大连市,青泥洼桥,,25,18,27,13,19,79,79,92,92,14,7,6,7,0.6,0.6
2026-06-30T1600,1113A,121.6248,38.8643,大连市,傅家庄,,25,17,24,10,22,77,77,86,85,16,9,12,11,0.4,0.5
2026-06-30T1600,1114A,121.5117,38.8636,大连市,七贤岭,,24,24,26,14,19,76,76,85,84,21,12,4,4,0.7,0.8
2026-06-30T1600,1116A,121.7507,39.1339,大连市,金州,,29,21,25,18,19,92,92,94,94,11,7,9,9,0.6,0.6
2026-06-30T1600,1117A,121.7811,39.0495,大连市,开发区,,31,31,33,13,20,75,75,85,84,24,18,9,8,0.4,0.4
2026-06-30T1600,1118A,121.9762,39.0631,大连市,双D港,,26,18,21,9,16,81,81,77,77,8,7,6,6,0.5,0.5
2026-06-30T1600,4082A,121.2548,38.8188,大连市,旅顺,,28,28,30,19,22,88,88,82,82,12,10,6,6,0.4,0.4
2026-06-30T1600,1789A,124.8085,46.0381,大庆市,大同区,,48,34,36,22,20,152,152,150,150,9,15,5,5,0.7,0.7
2026-06-30T1600,1790A,125.1166,46.5255,大庆市,龙凤区,,48,38,37,18,21,151,151,143,143,8,11,9,17,0.1,0.1
2026-06-30T1600,1791A,124.8894,46.4007,大庆市,红岗区,,46,25,32,20,17,147,147,147,147,6,8,9,9,0.5,0.6
2026-06-30T1600,1792A,125.1391,46.578,大庆市,萨尔图区,,49,49,36,24,22,152,152,152,152,8,12,5,6,0.4,0.5
2026-06-30T1600,1793A,124.9026,46.6217,大庆市,让胡路区,,48,28,36,25,25,151,151,152,152,6,10,4,5,0.6,0.6
2026-06-30T1600,3481A,125.127,46.6277,大庆市,萨区政府监测点,臭氧1小时(O3_1h),52,37,38,28,25,161,161,161,161,4,6,5,9,0.3,0.3
2026-06-30T1600,1723A,113.2926,40.0759,大同市,云冈宾馆,臭氧1小时(O3_1h),53,13,21,3,8,162,162,142,142,5,11,8,8,0.3,0.3
2026-06-30T1600,1724A,113.3437,40.0921,大同市,大同大学,臭氧1小时(O3_1h),59,30,23,3,14,167,167,135,135,7,13,7,6,0.5,0.5
2026-06-30T1600,1725A,113.2637,40.129,大同市,安家小村,,48,16,23,9,11,153,153,139,139,5,11,8,7,0.4,0.4
2026-06-30T1600,3282A,113.3399,40.0586,大同市,大同市卫生学校,臭氧1小时(O3_1h),77,31,30,11,15,181,181,140,140,7,13,10,9,0.6,0.6
2026-06-30T1600,3565A,113.1371,40.1122,大同市,云冈站,,44,16,18,6,9,138,138,129,129,4,7,6,6,0.6,0.6
2026-06-30T1600,3566A,113.1186,40.2556,大同市,图书馆,,48,16,17,9,8,152,152,143,143,6,9,6,6,0.7,0.6
2026-06-30T1600,3567A,113.5931,40.0459,大同市,区一中,臭氧1小时(O3_1h),67,26,20,10,11,173,173,149,149,8,12,9,8,0.4,0.4
2026-06-30T1600,4199A,113.2798248,40.09972476,大同市,魏都大道141号,,50,20,20,14,11,158,158,142,142,8,14,8,8,0.3,0.4
2026-06-30T1600,2269A,124.1068,50.4091,大兴安岭地区,科技局,,39,26,30,19,16,123,123,114,114,4,6,5,5,0.3,0.3
2026-06-30T1600,3663A,124.117,50.4279,大兴安岭地区,红旗社区,,45,19,20,10,9,141,141,131,131,5,11,7,6,0.1,0.2
2026-06-30T1600,1600A,124.33,40.0625,丹东市,江湾东路,,27,14,24,8,16,85,85,86,86,6,13,6,7,0.3,0.5
2026-06-30T1600,1601A,124.4242,40.1513,丹东市,临江后街,,29,25,36,10,14,91,91,94,94,4,10,4,5,0.4,0.4
2026-06-30T1600,1602A,124.3935,40.1461,丹东市,元宝山,NA,NA,NA,26,NA,12,92,92,92,92,6,12,4,5,0.5,0.6
2026-06-30T1600,1603A,124.3634,40.1093,丹东市,民主桥,,29,29,35,9,16,83,83,84,84,4,13,6,8,0.6,0.7
2026-06-30T1600,3541A,109.5726195,19.51688767,儋州市,第一中学子站,,17,10,14,3,5,53,53,49,49,1,4,1,3,0.6,0.6
2026-06-30T1600,3542A,109.5567,19.5187,儋州市,东坡学校子站,,22,22,15,6,6,58,58,54,54,1,4,5,4,0.6,0.6
2026-06-30T1600,2616A,98.5611,24.4273,德宏傣族景颇族自治州,德宏州监测站,,21,NA,12,3,11,65,65,63,63,5,7,7,8,0.4,0.5
2026-06-30T1600,3677A,98.5887,24.4366,德宏傣族景颇族自治州,芒市人民政府综合楼,,21,21,31,3,10,58,58,47,47,5,8,3,3,0.4,0.6
2026-06-30T1600,1901A,104.424,31.1209,德阳市,东山公园,,49,32,15,29,16,154,154,105,105,11,8,4,3,0.7,0.6
2026-06-30T1600,1902A,104.3827,31.1318,德阳市,西小区,,49,45,29,34,16,150,150,98,98,15,12,7,7,1.0,0.9
2026-06-30T1600,1904A,104.3553,31.1091,德阳市,耐火材料厂,臭氧1小时(O3_1h),89,45,27,32,17,191,191,122,122,12,10,4,4,0.5,0.5
2026-06-30T1600,4145A,104.4144,31.1495,德阳市,市林业局,臭氧1小时(O3_1h),80,42,27,31,16,184,184,122,122,12,14,10,10,0.9,0.8
2026-06-30T1600,1622A,116.3034,37.4675,德州市,儿童乐园,臭氧1小时(O3_1h),107,78,59,47,51,214,214,175,175,11,11,11,11,1.0,0.9
2026-06-30T1600,1624A,116.2992,37.4449,德州市,监理站,臭氧1小时(O3_1h),103,85,64,50,48,206,206,168,168,13,13,16,15,0.6,0.5
2026-06-30T1600,3066A,116.2722,37.438,德州市,九衢泉纯净水厂,臭氧1小时(O3_1h),103,NA,64,47,52,206,206,165,165,14,19,9,13,1.0,0.9
2026-06-30T1600,3371A,116.3693,37.44,德州市,开发区人民医院,细颗粒物(PM2.5),92,80,60,56,54,189,189,157,157,13,15,11,11,0.8,0.8
2026-06-30T1600,3511A,116.5687,37.3331,德州市,陵城艺术中心,臭氧1小时(O3_1h),87,78,58,45,53,189,189,157,157,12,14,12,9,0.6,0.7
2026-06-30T1600,4292A,116.352738,37.420875,德州市,新河东路,臭氧1小时(O3_1h),93,66,54,45,48,194,194,158,158,17,20,13,11,1.1,1
2026-06-30T1600,2621A,99.7054,27.8319,迪庆藏族自治州,迪庆州站,,26,18,15,9,6,81,81,97,92,7,7,7,7,0.2,0.2
2026-06-30T1600,3180A,99.7122,27.8129,迪庆藏族自治州,质量技术监督局,,27,10,14,3,7,84,84,101,95,7,7,10,10,0.3,0.3
2026-06-30T1600,4257A,104.6092,35.5962,定西市,将台街,,50,22,44,3,15,158,158,134,134,2,11,6,5,0.2,0.2
2026-06-30T1600,4309A,104.6159,35.5701,定西市,正龙路62号,,49,29,45,6,11,156,156,125,125,7,10,6,6,0.5,0.4
2026-06-30T1600,4071A,114.9883,38.5232,定州市,交通局,臭氧1小时(O3_1h),68,59,65,24,37,174,174,142,142,13,16,4,4,0.4,0.5
2026-06-30T1600,4072A,115.0045,38.5136,定州市,第五中学,臭氧1小时(O3_1h),68,66,69,36,37,174,174,136,136,13,15,3,4,0.4,0.4
2026-06-30T1600,1390A,113.7943,23.0132,东莞市,东城石井,,40,10,23,3,15,126,126,104,104,10,20,1,2,0.5,0.6
2026-06-30T1600,1391A,113.7384,22.9659,东莞市,南城西平,,31,8,21,3,11,99,99,84,84,11,30,4,3,0.4,0.6
2026-06-30T1600,3319A,113.7283,23.041,东莞市,万江金泰,,32,7,21,3,15,102,102,93,93,9,27,8,8,0.5,0.6
2026-06-30T1600,4129A,113.8666,23.1062,东莞市,裕兴路,,42,19,26,7,13,134,134,122,122,13,19,6,8,0.7,0.7
2026-06-30T1600,4130A,114.0076,22.9739,东莞市,教育路1号,,37,10,26,3,14,118,118,89,89,13,33,5,6,0.7,0.7
2026-06-30T1600,4131A,113.7981,22.8124,东莞市,长怡路1号,,25,14,28,3,12,78,78,74,74,16,26,4,4,0.6,0.6
2026-06-30T1600,1666A,118.6612,37.4313,东营市,市环保局,,42,17,38,10,33,134,134,105,105,9,12,3,6,0.5,0.6
2026-06-30T1600,3036A,118.6903,37.4337,东营市,开发区管委会,,43,15,37,8,31,136,136,108,108,11,14,8,9,0.5,0.6
2026-06-30T1600,3365A,118.5721,37.5654,东营市,垦利区民丰路,,42,22,42,7,29,132,132,101,101,8,13,12,13,0.4,0.5
2026-06-30T1600,3498A,118.5063,37.8606,东营市,河口城区,,46,6,33,3,53,145,145,125,125,7,13,3,6,0.8,0.9
2026-06-30T1600,3646A,118.4979,37.4623,东营市,胜利站,,44,14,37,10,33,140,140,107,107,10,13,6,7,0.8,0.8
2026-06-30T1600,3734A,118.5753,37.4405,东营市,理想之城,,44,NA,36,18,51,139,139,103,103,11,15,7,7,0.4,0.5
2026-06-30T1600,1591A,110.0024,39.8127,鄂尔多斯市,综合楼,,50,36,33,12,12,159,159,145,145,10,20,17,11,0.5,0.6
2026-06-30T1600,1592A,109.9485,39.8259,鄂尔多斯市,巴音孟克林场办事处,臭氧1小时(O3_1h),55,31,28,11,11,164,164,151,151,8,14,11,5,0.3,0.3
2026-06-30T1600,1593A,109.7734,39.5987,鄂尔多斯市,康泽苑,臭氧1小时(O3_1h),58,29,24,12,9,166,166,148,148,7,10,10,10,0.3,0.3
2026-06-30T1600,1594A,109.8121,39.5987,鄂尔多斯市,华泰汽车城,,49,24,23,3,9,156,156,135,135,6,12,8,8,0.4,0.4
2026-06-30T1600,1595A,109.9734,39.7884,鄂尔多斯市,奥林花园,臭氧1小时(O3_1h),57,31,34,15,12,165,165,144,144,7,19,9,4,0.4,0.4
2026-06-30T1600,2436A,114.894,30.3989,鄂州市,市政府,,26,26,25,3,9,73,73,61,61,17,12,4,5,0.8,0.8
2026-06-30T1600,2437A,114.8986,30.3714,鄂州市,赵家坝,,23,15,21,3,10,72,72,65,65,20,13,8,9,0.9,0.9
2026-06-30T1600,3654A,114.8093,30.4091,鄂州市,精准医疗中心,,24,19,24,7,12,76,76,58,58,28,17,4,7,0.8,1
2026-06-30T1600,2454A,109.4978,30.2979,恩施土家族苗族自治州,湖北民院,,16,13,21,7,10,51,51,39,39,3,4,4,4,0.5,0.4
2026-06-30T1600,3549A,109.5061,30.3771,恩施土家族苗族自治州,龙凤新区,,19,19,17,3,11,50,50,38,38,11,8,6,6,0.5,0.5
2026-06-30T1600,2499A,108.3411,21.6159,防城港市,沙万,,20,8,21,3,9,61,61,51,51,5,16,3,3,0.6,0.7
2026-06-30T1600,2500A,108.3515,21.7733,防城港市,防城档案局,,19,6,19,3,11,60,60,54,54,2,8,5,7,0.5,0.7
2026-06-30T1600,2501A,108.3506,21.6414,防城港市,大海花园,,23,NA,17,3,8,72,72,64,64,4,8,6,8,0.6,0.7
2026-06-30T1600,1371A,113.1293,23.0065,佛山市,湾梁,,30,12,14,9,10,95,95,72,72,12,18,/,/,/,/
2026-06-30T1600,1372A,113.1082,23.0477,佛山市,华材职中,,32,17,15,9,10,102,102,73,73,6,12,7,7,0.3,0.3
2026-06-30T1600,1373A,113.1439,23.045,佛山市,南海气象局,,25,25,18,8,11,63,63,63,63,12,22,/,/,/,/
2026-06-30T1600,1374A,113.2879,22.8094,佛山市,顺德苏岗,,27,14,15,6,8,86,86,72,72,13,18,/,/,0.7,0.7
2026-06-30T1600,1376A,112.8384,22.8678,佛山市,高明孔堂,,26,13,21,3,8,83,83,70,70,6,9,/,/,/,/
2026-06-30T1600,1377A,112.8835,23.1584,佛山市,三水监测站,,21,NA,19,10,15,67,67,66,66,15,27,5,5,0.6,0.6
2026-06-30T1600,1378A,112.8668,23.185,佛山市,三水云东海,,19,17,28,11,15,58,58,70,70,12,19,/,/,/,/
2026-06-30T1600,3625A,113.2568,22.7629,佛山市,容桂街道办,,26,NA,8,7,9,81,81,72,72,12,14,/,/,/,/
2026-06-30T1600,1282A,119.2681,26.0506,福州市,师大,,31,31,18,9,4,92,92,72,72,7,8,4,4,0.3,0.2
2026-06-30T1600,1283A,119.2983,26.1028,福州市,五四北路,,32,32,16,9,4,100,100,77,77,10,10,4,4,0.5,0.4
2026-06-30T1600,1284A,119.2648,26.0769,福州市,杨桥西路,,30,30,17,3,1,91,91,73,73,7,8,4,4,/,/
2026-06-30T1600,3048A,119.5799,26.0937,福州市,九龙,,22,15,21,3,4,68,68,71,71,3,6,6,6,0.2,0.2
2026-06-30T1600,3526A,119.5188,25.9666,福州市,吴航,,24,NA,2,3,5,74,74,72,72,5,7,6,6,0.5,0.5
2026-06-30T1600,4104A,119.3106,26.0648,福州市,路通桥巷6号,,31,20,12,7,6,97,97,80,80,6,7,/,/,/,/
2026-06-30T1600,1755A,123.7974,41.8494,抚顺市,望花区,,38,25,37,10,17,120,120,114,114,11,19,10,11,0.6,0.8
2026-06-30T1600,1756A,123.9161,41.8827,抚顺市,顺城区,,44,29,27,7,13,138,138,125,125,11,21,12,12,0.6,0.7
2026-06-30T1600,1757A,124.0437,41.8615,抚顺市,东洲区,,44,24,19,9,10,139,139,119,119,12,13,13,11,0.6,0.3
2026-06-30T1600,1758A,123.9246,41.8638,抚顺市,新抚区,,47,30,28,8,16,148,148,132,132,8,18,8,8,0.6,0.7
2026-06-30T1600,1759A,124.0972,41.8961,抚顺市,大伙房水库,,45,24,19,6,11,143,143,121,121,11,13,12,11,0.7,0.5
2026-06-30T1600,1760A,123.708,41.8386,抚顺市,沈抚新城,,41,28,32,7,14,131,131,120,120,12,25,11,10,0.5,0.7
2026-06-30T1600,2377A,116.3544,27.9833,抚州市,市站,,18,18,25,10,6,47,47,44,44,10,4,5,2,0.8,0.7
2026-06-30T1600,2378A,116.3562,27.9631,抚州市,血防站,,16,16,20,7,5,50,50,42,42,4,6,6,5,0.6,0.7
2026-06-30T1600,2379A,116.3561,28.0007,抚州市,采茶剧团,,21,21,20,8,3,58,58,51,51,6,7,5,5,0.5,0.5
2026-06-30T1600,2380A,116.3854,27.9648,抚州市,医学分院,NA,NA,NA,22,NA,3,55,55,52,52,1,4,4,4,0.8,0.8
2026-06-30T1600,2207A,121.6095,41.9978,阜新市,工业园区,,32,32,32,13,20,95,95,88,88,8,19,5,10,0.3,0.3
2026-06-30T1600,2208A,121.6567,42.0188,阜新市,长青街,,31,27,29,14,18,99,99,94,94,9,16,8,11,0.4,0.4
2026-06-30T1600,2209A,121.6672,42.07,阜新市,农业园区,,37,37,33,20,20,89,89,85,85,9,12,5,6,0.8,0.8
2026-06-30T1600,2211A,121.6343,42.0455,阜新市,玉龙新城,,31,31,32,13,21,80,80,77,77,9,17,5,6,0.6,0.6
2026-06-30T1600,2301A,115.8276,32.8929,阜阳市,市监测站,,39,29,55,8,39,124,124,113,113,8,16,6,6,0.4,0.6
2026-06-30T1600,2303A,115.8551,32.8606,阜阳市,开发区,,38,30,65,8,40,121,121,109,109,7,15,4,4,0.4,0.5
2026-06-30T1600,2875A,115.783962,32.889217,阜阳市,阜阳职业技术学院,,42,38,60,9,40,132,132,120,120,3,8,4,4,0.4,0.6
2026-06-30T1600,3468A,115.79,32.8614,阜阳市,市规划展馆,,40,26,68,9,40,127,127,118,118,6,13,3,3,0.6,0.7
2026-06-30T1600,3469A,115.835101,32.918568,阜阳市,枣园社区,,39,38,59,9,48,123,123,114,114,9,13,2,2,0.3,0.5
2026-06-30T1600,2669A,102.9097,34.9841,甘南藏族自治州,州政府,,40,32,34,3,14,125,125,101,101,2,15,4,3,0.2,0.3
2026-06-30T1600,3380A,102.8915,34.9618,甘南藏族自治州,甘肃民族师范学院,,43,29,36,15,16,136,136,109,109,7,22,3,3,0.3,0.3
2026-06-30T1600,2570A,101.96,30.048,甘孜藏族自治州,水桥子,,25,NA,19,16,12,79,79,62,62,8,14,2,2,0.0,0.1
2026-06-30T1600,3065A,101.9534,29.9976,甘孜藏族自治州,州环保局,,28,24,26,15,13,88,88,58,58,10,20,3,2,0.5,0.5
2026-06-30T1600,2363A,114.9368,25.8663,赣州市,地委,,23,20,23,7,9,73,73,68,68,2,7,3,4,0.5,0.6
2026-06-30T1600,2364A,114.946,25.8483,赣州市,气象台,,22,11,19,6,10,68,68,76,76,9,10,4,4,0.3,0.4
2026-06-30T1600,2365A,114.932,25.8332,赣州市,市图书馆,,22,16,18,3,8,70,70,66,66,4,7,4,5,0.4,0.6
2026-06-30T1600,2366A,114.8905,25.8472,赣州市,华坚鞋城,,22,22,22,7,8,60,60,63,63,6,9,1,1,0.2,0.2
2026-06-30T1600,3109A,115.0094,25.8614,赣州市,赣县区卫计委,,19,14,17,10,7,60,60,57,57,2,7,1,2,0.3,0.3
2026-06-30T1600,2684A,106.2753,36.0057,固原市,监测站,,45,9,34,3,12,144,144,129,129,5,16,5,5,0.3,0.3
2026-06-30T1600,2685A,106.2384,36.0189,固原市,新区,,45,27,34,3,13,144,144,122,122,2,15,7,6,0.2,0.4
2026-06-30T1600,2544A,106.6307,30.4577,广安市,市委,,30,22,24,13,15,93,93,76,76,8,11,6,7,0.6,0.6
2026-06-30T1600,2545A,106.6266,30.4662,广安市,友谊中学,,30,18,20,12,13,96,96,79,79,8,9,8,9,0.5,0.5
2026-06-30T1600,2547A,106.6386,30.4551,广安市,广电花园,,28,18,17,14,15,87,87,72,72,10,11,8,9,0.6,0.6
2026-06-30T1600,2902A,106.6347,30.4868,广安市,北辰小学,,30,27,21,18,16,95,95,77,77,11,10,5,6,0.5,0.4
2026-06-30T1600,2524A,105.8211,32.4444,广元市,老城,,38,9,25,7,13,121,121,109,109,3,6,6,11,0.5,0.7
2026-06-30T1600,2526A,105.8629,32.429,广元市,监测站,,37,27,41,10,16,117,117,109,109,8,9,1,8,0.4,0.7
2026-06-30T1600,3617A,105.8047,32.4167,广元市,经开区,,36,23,26,15,17,113,113,100,100,6,8,5,8,0.5,0.6
2026-06-30T1600,1345A,113.2346,23.1423,广州市,广雅中学,,28,12,17,6,9,88,88,69,69,10,23,4,4,0.6,0.6
2026-06-30T1600,1346A,113.2611,23.105,广州市,市五中,,32,12,17,6,10,100,100,82,82,10,21,3,4,/,/
2026-06-30T1600,1348A,113.3477,23.0916,广州市,广东商学院,,25,10,19,3,10,79,79,78,78,9,26,4,5,0.5,0.5
2026-06-30T1600,1349A,113.4332,23.105,广州市,市八十六中,,27,13,21,6,13,85,85,84,84,19,37,6,8,/,/
2026-06-30T1600,1350A,113.3506,22.9488,广州市,番禺中学,,26,9,13,3,7,82,82,72,72,7,19,5,5,0.5,0.6
2026-06-30T1600,1351A,113.2147,23.3918,广州市,花都师范,,21,15,28,8,16,67,67,84,84,14,27,2,3,0.6,0.7
2026-06-30T1600,1352A,113.2599,23.1329,广州市,市监测站,,29,12,17,6,10,92,92,76,76,10,19,3,3,/,/
2026-06-30T1600,1353A,113.5618,23.3119,广州市,九龙镇镇龙,,35,21,21,12,14,110,110,88,88,28,21,7,7,0.6,0.6
2026-06-30T1600,1354A,113.2764,23.1544,广州市,麓湖,,20,12,18,7,10,63,63,67,67,11,24,6,7,0.5,0.6
2026-06-30T1600,2846A,113.3209,23.1323,广州市,体育西,,25,14,20,7,11,80,80,69,69,17,30,5,6,0.4,0.5
2026-06-30T1600,3298A,113.5718,23.5493,广州市,从化街口,,34,22,17,16,12,107,107,72,72,12,10,7,8,0.5,0.5
2026-06-30T1600,3299A,113.3463,23.369,广州市,白云竹料,,23,14,24,8,14,71,71,82,82,23,20,2,3,0.6,0.6
2026-06-30T1600,3300A,113.2981,23.2365,广州市,白云嘉禾,,23,15,25,8,14,72,72,81,81,19,33,14,13,/,/
2026-06-30T1600,3301A,113.4256,23.1716,广州市,黄埔科学城,,29,8,23,8,18,90,90,83,83,13,25,8,8,0.6,0.7
2026-06-30T1600,3302A,113.3942,23.0485,广州市,番禺大学城,,30,6,21,3,8,93,93,81,81,11,25,4,5,0.4,0.3
2026-06-30T1600,3303A,113.4923,22.8169,广州市,南沙黄阁,,24,15,15,7,7,74,74,72,72,6,16,6,6,/,/
2026-06-30T1600,3304A,113.534,22.7893,广州市,南沙街,,21,10,14,3,6,66,66,69,69,5,16,7,8,0.4,0.4
2026-06-30T1600,3443A,113.2905,23.5541,广州市,花都梯面,,28,8,20,3,10,88,88,80,80,11,14,8,8,/,/
2026-06-30T1600,3445A,113.786,23.7479,广州市,从化良口,,15,6,5,3,9,47,47,52,52,5,10,4,4,/,/
2026-06-30T1600,3446A,113.805,23.2614,广州市,增城荔城,,40,21,20,14,14,125,125,87,87,10,15,7,8,0.5,0.5
2026-06-30T1600,2506A,109.604387,23.066791,贵港市,江南子站,,19,6,21,3,12,58,58,58,58,3,8,4,6,0.5,0.6
2026-06-30T1600,2508A,109.5669,23.1065,贵港市,荷城子站,,16,NA,17,8,11,50,50,56,56,11,10,5,6,0.6,0.7
2026-06-30T1600,3405A,109.5886,23.1172,贵港市,新世纪学校,,17,NA,18,3,13,52,52,54,54,7,10,/,/,0.5,0.5
2026-06-30T1600,4260A,109.5933,23.095,贵港市,中山路155-3号,,20,6,26,3,12,61,61,61,61,6,10,/,/,0.4,0.6
2026-06-30T1600,1439A,106.6863,26.6035,贵阳市,马鞍山,,14,7,9,3,5,44,44,38,38,13,10,10,9,/,/
2026-06-30T1600,1441A,106.6241,26.6266,贵阳市,鉴湖路,,17,17,21,3,5,49,49,47,47,8,8,7,7,0.7,0.8
2026-06-30T1600,1442A,106.7468,26.6344,贵阳市,燕子冲,,17,17,16,3,5,43,43,35,35,10,12,8,8,0.8,0.8
2026-06-30T1600,1443A,106.6556,26.4362,贵阳市,碧云窝,,17,17,23,7,7,52,52,42,42,13,11,4,5,/,/
2026-06-30T1600,1445A,106.6963,26.6063,贵阳市,红边门,,14,9,9,9,5,44,44,40,40,11,11,4,5,/,/
2026-06-30T1600,1446A,106.7162383,26.56964667,贵阳市,新华路,NA,NA,17,15,3,3,52,52,46,46,NA,9,NA,3,0.6,0.6
2026-06-30T1600,1447A,106.6742,26.542,贵阳市,太慈桥,,14,14,14,3,5,37,37,35,35,15,12,2,2,/,/
2026-06-30T1600,4230A,106.688212,26.56952,贵阳市,花果园大街66号,,18,18,13,7,7,42,42,40,40,16,12,2,2,/,/
2026-06-30T1600,4231A,106.687268,26.516892,贵阳市,漓江路57号,,13,NA,12,9,6,41,41,32,32,12,25,1,1,0.9,0.9
2026-06-30T1600,1864A,110.3091,25.2705,桂林市,龙隐路小学,,14,NA,24,6,12,44,44,48,48,7,5,4,4,0.5,0.6
2026-06-30T1600,1865A,110.2849361,25.22909545,桂林市,八中,,15,7,23,3,9,47,47,52,52,8,9,3,8,0.7,0.8
2026-06-30T1600,3531A,110.296,25.1254,桂林市,旅游学院,,25,25,27,6,12,48,48,50,50,2,4,7,9,0.3,0.4
2026-06-30T1600,4222A,110.1835,25.2444,桂林市,环湖路276号,,18,9,14,3,12,57,57,55,55,4,3,4,4,0.4,0.5
2026-06-30T1600,4301A,110.2803,25.2773,桂林市,信义路13号,NA,NA,4,24,NA,13,47,47,51,51,8,7,4,10,0.5,0.6
2026-06-30T1600,2674A,100.2262,34.4854,果洛藏族自治州,玛沁县大武镇,,41,26,39,3,12,130,130,109,109,1,2,12,12,0.2,0.3
2026-06-30T1600,1130A,126.5557,45.8109,哈尔滨市,松北商大,NA,NA,33,44,NA,31,146,146,127,127,12,19,6,6,0.5,0.5
2026-06-30T1600,1132A,126.6162,45.719,哈尔滨市,南岗学府路,,38,36,53,23,35,121,121,121,121,24,29,7,8,0.4,0.4
2026-06-30T1600,1133A,126.6894,45.7733,哈尔滨市,太平宏伟公园,,39,16,48,12,19,123,123,109,109,23,26,5,6,0.4,0.4
2026-06-30T1600,1134A,126.6361,45.7672,哈尔滨市,道外承德广场,NA,NA,37,66,18,22,133,133,127,127,28,27,NA,6,0.6,0.6
2026-06-30T1600,1136A,126.644,45.7261,哈尔滨市,动力和平路,,37,10,62,6,19,118,118,120,120,26,30,6,8,0.6,0.5
2026-06-30T1600,1137A,126.5933,45.7479,哈尔滨市,道里建国路,,43,34,57,23,25,137,137,57,NA,15,22,3,9,2.5,1.5
2026-06-30T1600,1138A,126.6127,45.6119,哈尔滨市,平房东轻厂,,35,NA,25,22,18,110,110,100,100,10,17,6,6,0.8,0.8
2026-06-30T1600,1139A,126.5875,45.9827,哈尔滨市,呼兰师专,颗粒物(PM10),65,71,52,28,20,135,135,118,118,17,25,4,3,0.5,0.6
2026-06-30T1600,1140A,126.6299,45.6799,哈尔滨市,省农科院,,37,37,66,25,27,65,65,102,102,53,37,5,5,0.6,0.5
2026-06-30T1600,4282A,126.6769,45.7379,哈尔滨市,华山路1号,,42,27,38,13,19,132,132,124,124,16,22,7,8,0.2,0.3
2026-06-30T1600,4283A,126.9717,45.5356,哈尔滨市,解放大街52号,,34,23,43,3,11,108,108,111,111,20,20,2,4,0.5,0.5
2026-06-30T1600,2688A,93.5124,42.8176,哈密市,地区监测站,,45,12,14,6,9,143,143,118,118,3,8,10,6,0.4,0.4
2026-06-30T1600,2689A,93.5014,42.8312,哈密市,哈密师范学校,,44,17,23,6,12,138,138,109,109,7,12,8,7,0.1,0.1
2026-06-30T1600,2671A,100.9016,36.9464,海北藏族自治州,海晏县西海镇,,45,17,18,12,9,144,144,133,133,2,2,6,7,0.4,0.3
2026-06-30T1600,3867A,102.074,36.5056,海东市,平安区公安局北苑,,46,12,26,10,15,146,146,119,119,3,7,9,9,0.4,0.5
2026-06-30T1600,4163A,102.0984,36.5119,海东市,滨河路,,45,7,26,6,14,142,142,117,117,7,28,5,7,0.4,0.5
2026-06-30T1600,1410A,110.3189,20.0596,海口市,海南大学,,22,16,14,9,7,69,69,66,66,4,6,4,5,0.3,0.3
2026-06-30T1600,1411A,110.2827,20.0051,海口市,秀英海南医院,,20,15,13,7,7,61,61,64,64,5,16,5,5,0.3,0.3
2026-06-30T1600,1412A,110.3391,19.9979,海口市,海南师范大学,,20,17,14,6,7,64,64,60,60,2,5,3,3,0.4,0.4
2026-06-30T1600,1413A,110.3303,20.0359,海口市,龙华路环保局宿舍,,22,18,15,9,8,68,68,66,66,4,6,/,/,0.3,0.3
2026-06-30T1600,3539A,110.5111,19.9737,海口市,桂林洋子站,,20,13,17,8,8,63,63,57,57,3,6,/,/,/,/
2026-06-30T1600,4134A,110.1952,20.0451,海口市,长滨二路9号,,20,14,15,7,8,62,62,59,59,3,6,/,/,/,/
2026-06-30T1600,2673A,100.6158,36.2985,海南藏族自治州,共和县恰卜恰镇,,43,22,24,6,12,135,135,119,119,2,6,8,9,0.3,0.4
2026-06-30T1600,2676A,97.373,37.376,海西蒙古族藏族自治州,德令哈市,颗粒物(PM10),138,218,84,83,30,131,131,125,125,2,2,19,19,0.3,0.3
2026-06-30T1600,1049A,114.492,36.5712,邯郸市,矿院,臭氧1小时(O3_1h),112,48,54,41,43,223,223,186,186,2,12,5,7,0.7,1
2026-06-30T1600,1050A,114.4839,36.6136,邯郸市,丛台公园,臭氧1小时(O3_1h),108,39,57,26,40,216,216,175,175,4,14,11,12,0.7,1
2026-06-30T1600,3458A,114.7893,36.5592,邯郸市,香泉濮院小区,臭氧1小时(O3_1h),101,49,69,34,56,201,201,156,156,9,24,3,3,0.7,0.7
2026-06-30T1600,3580A,114.1998,36.4439,邯郸市,峰峰矿区临水派出所,臭氧1小时(O3_1h),100,45,46,28,30,200,200,163,163,7,18,12,15,0.7,1.1
2026-06-30T1600,4068A,114.5209,36.7697,邯郸市,建安街268号,臭氧1小时(O3_1h),119,57,65,44,40,238,238,180,180,12,23,4,4,0.6,0.8
2026-06-30T1600,4069A,114.5488,36.6177,邯郸市,丛台东路558号,臭氧1小时(O3_1h),101,46,63,35,43,201,201,156,156,3,32,4,4,0.6,0.8
2026-06-30T1600,2635A,107.0155,33.0707,汉中市,市监测站,,48,43,39,19,26,152,152,112,112,8,11,5,4,0.5,0.5
2026-06-30T1600,2636A,107.0083,33.114,汉中市,鑫源开发区,,50,35,49,10,12,158,158,124,124,7,15,7,7,0.5,0.5
2026-06-30T1600,2637A,107.0072,33.0323,汉中市,南郑大河坎水厂,,45,30,32,15,21,141,141,104,104,6,12,4,3,0.7,0.6
2026-06-30T1600,1223A,120.2073,30.2111,杭州市,滨江,,17,17,21,11,14,47,47,37,37,15,18,4,4,0.6,0.6
2026-06-30T1600,1224A,120.0625,30.2737,杭州市,西溪,,10,8,16,3,9,32,32,27,27,4,11,4,4,0.8,0.9
2026-06-30T1600,1226A,120.3417,30.315,杭州市,下沙,,18,13,18,11,17,56,56,40,40,15,26,3,4,0.6,0.6
2026-06-30T1600,1227A,120.1252,30.2465,杭州市,卧龙桥,,14,14,25,8,16,34,34,26,26,13,16,5,5,0.5,0.6
2026-06-30T1600,1228A,120.1902,30.2691,杭州市,浙江农大,,18,NA,16,12,15,39,39,36,36,20,21,6,6,0.5,0.5
2026-06-30T1600,1230A,120.1195,30.3121,杭州市,和睦小学,,16,8,18,6,16,49,49,37,37,2,11,8,8,0.5,0.6
2026-06-30T1600,1231A,120.3076,30.4146,杭州市,临平镇,,18,11,29,7,14,57,57,43,43,11,22,6,6,0.6,0.6
2026-06-30T1600,1232A,120.2753,30.1839,杭州市,城厢镇,,16,15,19,8,10,51,51,35,35,14,19,5,5,0.8,0.9
2026-06-30T1600,1233A,120.0883,30.1808,杭州市,云栖,,12,12,23,3,13,20,20,27,27,11,19,5,5,0.7,0.7
2026-06-30T1600,3557A,119.9463,30.0496,杭州市,镇二中,,14,9,17,3,12,42,42,29,29,11,19,5,5,0.7,0.8
2026-06-30T1600,3558A,119.7184,30.2367,杭州市,市府大楼,,14,6,14,3,13,44,44,39,39,5,9,7,7,0.6,0.6
2026-06-30T1600,3656A,120.1554,30.2863,杭州市,消防大队,,15,9,18,7,16,47,47,33,33,9,15,8,8,0.8,0.8
2026-06-30T1600,1270A,117.1957,31.7845,合肥市,明珠广场,,34,17,29,3,19,108,108,110,110,7,6,7,7,0.5,0.6
2026-06-30T1600,1271A,117.307,31.8765,合肥市,三里街,,35,17,33,3,20,109,109,104,104,10,11,8,9,0.5,0.6
2026-06-30T1600,1272A,117.2587,31.8703,合肥市,琥珀山庄,,38,19,31,3,20,120,120,114,114,7,7,6,7,0.5,0.6
2026-06-30T1600,1275A,117.2593,31.9376,合肥市,庐阳区,,40,9,36,3,18,125,125,122,122,8,16,6,12,0.4,0.4
2026-06-30T1600,1276A,117.345251,31.861615,合肥市,瑶海区,,33,19,34,3,18,105,105,108,108,12,11,8,8,0.5,0.7
2026-06-30T1600,1277A,117.3033,31.7967,合肥市,包河区,,33,7,29,3,18,103,103,104,104,5,9,7,9,0.6,0.7
2026-06-30T1600,1278A,117.278,31.7392,合肥市,滨湖新区,,31,9,27,3,16,99,99,103,103,4,7,10,11,0.6,0.7
2026-06-30T1600,1279A,117.1324,31.8395,合肥市,高新区,,39,14,31,3,18,124,124,115,115,3,5,6,7,0.5,0.6
2026-06-30T1600,3464A,117.3802,31.9148,合肥市,高教基地,,34,7,33,3,19,107,107,107,107,3,8,4,6,0.4,0.5
2026-06-30T1600,4098A,117.2518,31.8404,合肥市,中国科学技术大学,,39,14,26,3,17,122,122,118,118,8,8,9,9,0.5,0.6
2026-06-30T1600,3614A,79.9241,37.0878,和田地区,地区环保局,颗粒物(PM10),105,132,96,30,26,151,151,127,127,2,6,7,7,0.1,0.2
2026-06-30T1600,3615A,79.9132,37.1137,和田地区,市环保局,颗粒物(PM10),88,102,94,22,23,153,153,126,126,2,17,2,2,0.2,0.5
2026-06-30T1600,2517A,108.0496,24.6957,河池市,市环保站,,15,7,22,3,10,48,48,43,43,4,7,3,3,0.9,0.9
2026-06-30T1600,4302A,108.0901,24.6945,河池市,上任中路54号,,19,6,22,3,8,58,58,51,51,4,9,3,3,0.8,0.8
2026-06-30T1600,1697A,114.6962,23.7538,河源市,东埔,,37,37,16,8,7,66,66,55,55,4,7,4,5,0.6,0.6
2026-06-30T1600,1698A,114.6895,23.7232,河源市,老城,NA,NA,7,18,6,9,69,69,57,57,5,8,7,10,NA,0.1
2026-06-30T1600,3374A,115.5562,35.089,菏泽市,定陶老年大学,臭氧1小时(O3_1h),108,66,59,34,43,215,215,178,178,8,10,3,3,0.5,0.5
2026-06-30T1600,4114A,115.4239,35.2593,菏泽市,黄河路600号,臭氧1小时(O3_1h),82,66,64,31,43,185,185,148,148,7,7,4,4,0.5,0.5
2026-06-30T1600,4115A,115.5025,35.2727,菏泽市,菏泽市人社局,NA,NA,NA,58,NA,41,164,164,138,138,NA,14,NA,6,0.5,0.5
2026-06-30T1600,4184A,115.479691,35.244011,菏泽市,永昌路1号,臭氧1小时(O3_1h),92,62,65,28,40,193,193,158,158,6,12,6,6,0.3,0.3
2026-06-30T1600,4193A,115.471542,35.280012,菏泽市,长城路999号,臭氧1小时(O3_1h),87,58,55,34,41,189,189,150,150,7,10,4,11,0.5,0.6
2026-06-30T1600,2514A,111.5264,24.4178,贺州市,环保小区,,20,17,20,6,12,62,62,58,58,9,8,4,4,0.3,0.4
2026-06-30T1600,2515A,111.561,24.4074,贺州市,政协大楼,NA,NA,NA,NA,NA,NA,NA,NA,NA,NA,NA,NA,NA,NA,NA,NA
2026-06-30T1600,3534A,111.4744,24.455,贺州市,西湾,,20,20,31,14,9,64,64,56,56,6,9,8,8,0.3,0.4
2026-06-30T1600,2385A,114.17,35.9019,鹤壁市,市监测站,臭氧1小时(O3_1h),68,70,53,38,36,174,174,140,140,7,8,6,6,0.6,0.7
2026-06-30T1600,2386A,114.2953,35.7512,鹤壁市,市交警支队,臭氧1小时(O3_1h),70,56,55,30,34,176,176,141,141,11,17,8,6,0.5,0.7
2026-06-30T1600,2387A,114.2877,35.7302,鹤壁市,迎宾馆,臭氧1小时(O3_1h),78,68,46,35,29,182,182,130,130,7,12,10,9,0.6,0.8
2026-06-30T1600,3474A,114.2616,35.6824,鹤壁市,大新区,NA,NA,NA,50,38,36,184,184,128,128,9,15,8,7,0.6,0.8
2026-06-30T1600,3596A,114.1573,35.9607,鹤壁市,南山宾馆,细颗粒物(PM2.5),68,53,43,44,38,171,171,136,136,8,8,11,10,0.6,0.7
2026-06-30T1600,2244A,130.2537,47.3416,鹤岗市,哈啤分公司,,39,22,24,7,10,122,122,103,103,8,10,4,3,0.1,0.1
2026-06-30T1600,2245A,130.2683,47.3087,鹤岗市,斯达机电,,38,18,23,10,11,121,121,106,106,5,9,6,5,0.3,0.2
2026-06-30T1600,2246A,130.3114,47.3388,鹤岗市,东山纸板厂,,32,21,73,9,17,101,101,92,92,8,19,6,7,0.2,0.3
2026-06-30T1600,2263A,127.4832,50.2524,黑河市,交通局,,39,22,24,11,11,122,122,115,115,9,12,5,5,0.5,0.5
2026-06-30T1600,2264A,127.5146,50.2339,黑河市,环保局,,40,25,24,12,13,126,126,116,116,8,12,6,7,0.2,0.3
2026-06-30T1600,1074A,115.6839,37.754,衡水市,电机北厂,颗粒物(PM10),64,69,80,32,49,166,166,158,158,9,16,1,2,0.5,0.6
2026-06-30T1600,1075A,115.6303,37.7318,衡水市,市监测站,臭氧1小时(O3_1h),75,66,75,36,41,180,180,150,150,9,18,4,7,0.9,1
2026-06-30T1600,3188A,115.6684,37.7216,衡水市,市城管局,臭氧1小时(O3_1h),78,72,72,41,43,182,182,161,161,7,16,4,5,0.5,0.5
2026-06-30T1600,3459A,115.599,37.5491,衡水市,地表水厂,臭氧1小时(O3_1h),102,78,73,51,42,204,204,168,168,9,20,8,7,0.4,0.4
2026-06-30T1600,2457A,112.6209,26.9268,衡阳市,衡阳化工总厂,,35,35,27,8,16,70,70,66,66,6,8,4,6,0.7,0.9
2026-06-30T1600,2458A,112.621,26.8957,衡阳市,珠晖区环保局,,27,27,27,3,14,70,70,65,65,4,6,6,6,1.1,1
2026-06-30T1600,2459A,112.628,26.8654,衡阳市,市委党校,,34,34,25,6,17,73,73,67,67,2,4,4,9,0.7,0.6
2026-06-30T1600,2460A,112.6007,26.8977,衡阳市,市监测站,,25,NA,23,17,15,72,72,68,68,5,8,6,9,0.8,1
2026-06-30T1600,2461A,112.5658,26.9013,衡阳市,真空机电公司,,22,13,23,7,17,68,68,66,66,5,10,5,5,0.7,1.3
2026-06-30T1600,3399A,112.6703,26.8817,衡阳市,师范学院,,30,24,25,21,13,80,80,67,67,3,6,10,8,0.9,0.8
2026-06-30T1600,3038A,103.3757,23.3679,红河哈尼族彝族自治州,州图书馆,,16,13,22,9,15,50,50,51,51,9,7,4,5,0.5,0.5
2026-06-30T1600,4154A,103.401,23.3561,红河哈尼族彝族自治州,蒙自市朝阳路,,18,18,15,11,16,52,52,54,54,7,7,7,8,0.4,0.4
2026-06-30T1600,1090A,111.6506,40.7517,呼和浩特市,呼市一监,臭氧1小时(O3_1h),54,24,22,14,12,163,163,139,139,8,7,10,7,0.5,0.4
2026-06-30T1600,1094A,111.7516,40.8369,呼和浩特市,如意水处理厂,,50,32,26,14,13,157,157,150,150,11,9,8,8,0.5,0.4
2026-06-30T1600,1095A,111.727798,40.806187,呼和浩特市,二十九中,,50,30,26,27,19,160,160,147,147,5,10,11,10,0.6,0.6
2026-06-30T1600,1097A,111.717,40.7617,呼和浩特市,化肥厂生活区,,50,21,26,16,17,157,157,145,145,8,11,12,11,0.6,0.5
2026-06-30T1600,3699A,111.6519,40.8389,呼和浩特市,海东办,臭氧1小时(O3_1h),57,29,24,8,7,165,165,138,138,12,13,10,8,0.6,0.5
2026-06-30T1600,4275A,111.591512,40.827312,呼和浩特市,成吉思汗西街8号,臭氧1小时(O3_1h),53,24,24,13,9,162,162,132,132,15,21,7,7,0.3,0.3
2026-06-30T1600,4276A,111.6597,40.8077,呼和浩特市,公园东路75号,臭氧1小时(O3_1h),70,31,22,17,10,176,176,150,150,11,11,15,12,0.7,0.6
2026-06-30T1600,4277A,111.5427,40.7846,呼和浩特市,金海路35号,,47,34,30,13,14,149,149,124,124,12,16,7,8,0.5,0.5
2026-06-30T1600,3061A,119.7511,49.1576,呼伦贝尔市,国华电力东,,33,18,22,15,15,105,105,105,105,5,8,5,5,0.4,0.4
2026-06-30T1600,4279A,119.7569,49.2222,呼伦贝尔市,伊敏大街东7号,,42,30,23,29,12,96,96,100,100,10,12,6,6,0.4,0.5
2026-06-30T1600,1250A,120.075,30.867,湖州市,城西水厂,NA,NA,7,33,3,22,NA,NA,68,NA,25,16,4,5,0.7,0.6
2026-06-30T1600,2873A,120.083,30.8929,湖州市,仁皇山新区,,15,6,30,3,22,45,45,51,50,18,17,5,5,0.6,0.6
2026-06-30T1600,2907A,120.1846,30.8592,湖州市,吴兴区站,,15,10,20,9,18,45,45,57,55,14,16,5,6,0.5,0.5
2026-06-30T1600,3562A,120.4146,30.8538,湖州市,南浔区站,,28,NA,17,19,16,59,59,55,53,14,15,7,7,0.7,0.7
2026-06-30T1600,1607A,120.904878,40.721091,葫芦岛市,龙港区,,49,49,28,31,19,112,112,100,100,8,7,8,8,0.5,0.5
2026-06-30T1600,1608A,120.8382,40.7521,葫芦岛市,化工街,,38,34,27,26,18,118,118,96,96,12,14,12,12,0.3,0.3
2026-06-30T1600,1609A,120.8339,40.7078,葫芦岛市,新区,,42,42,28,26,20,103,103,88,88,6,8,4,4,0.3,0.4
2026-06-30T1600,1610A,120.8697,40.7679,葫芦岛市,东城区,,46,46,28,32,22,122,122,98,98,9,12,2,2,0.5,0.5
2026-06-30T1600,2483A,109.9297,27.5383,怀化市,河西地税局,,25,18,16,17,12,73,73,76,72,7,6,9,10,/,/
2026-06-30T1600,2484A,109.9783,27.5342,怀化市,市四医院,,28,20,20,19,16,70,70,77,68,6,6,7,7,0.1,0.4
2026-06-30T1600,2485A,109.9971,27.5579,怀化市,监测楼,,26,26,18,17,12,74,74,72,69,6,7,9,8,0.2,0.2
2026-06-30T1600,1210A,119.0566,33.5991,淮安市,钵池山,,41,41,49,23,33,128,128,100,100,8,11,7,8,0.4,0.4
2026-06-30T1600,1211A,119.0083,33.578,淮安市,北京南路,颗粒物(PM10),53,53,50,25,36,144,144,117,117,4,7,6,7,0.9,0.9
2026-06-30T1600,1212A,118.9938,33.6083,淮安市,市监测站,,45,36,41,26,39,141,141,112,112,9,12,6,7,0.2,0.6
2026-06-30T1600,1213A,119.135,33.5038,淮安市,楚州区监测站,颗粒物(PM10),51,51,44,22,37,140,140,105,105,4,8,6,6,0.7,0.8
2026-06-30T1600,3426A,118.8757,33.2897,淮安市,新华书店,,43,39,52,25,29,137,137,116,116,9,14,8,9,0.9,0.9
2026-06-30T1600,4092A,119.119691,33.550006,淮安市,枚皋中路89号,,45,33,43,23,32,141,141,104,104,7,10,7,8,0.8,0.8
2026-06-30T1600,4206A,119.028838,33.631911,淮安市,承德北路606号,,46,46,49,27,38,128,128,100,100,4,6,6,6,0.9,0.8
2026-06-30T1600,2282A,116.8005,33.9749,淮北市,监测站,臭氧1小时(O3_1h),102,52,58,38,41,203,203,168,168,9,11,6,6,0.5,0.7
2026-06-30T1600,2283A,116.8094,33.9008,淮北市,烈山区政府,臭氧1小时(O3_1h),101,43,76,17,47,202,202,171,171,NA,10,4,4,0.6,0.8
2026-06-30T1600,4017A,116.7926,33.9534,淮北市,市博物馆,臭氧1小时(O3_1h),104,49,58,30,41,208,208,174,174,6,9,4,3,0.6,0.7
2026-06-30T1600,4100A,116.8322,33.9884,淮北市,杜集区第一实验学校,臭氧1小时(O3_1h),104,62,81,27,49,208,208,161,161,14,10,8,6,0.6,0.8
2026-06-30T1600,2277A,116.8304,32.7726,淮南市,潘集区政府,,40,16,47,3,27,127,127,124,124,4,14,7,8,0.2,0.4
2026-06-30T1600,2279A,116.8569,32.5949,淮南市,谢家集区政府,,40,6,36,3,28,126,126,118,118,8,12,6,8,0.1,0.3
2026-06-30T1600,2280A,116.8279,32.6333,淮南市,八公山区政府,,40,21,44,3,28,127,127,121,121,6,8,6,8,0.1,0.3
2026-06-30T1600,2894A,117.0561,32.6536,淮南市,经济技术开发区消防队,,39,6,32,3,28,122,122,115,115,5,10,7,8,0.4,0.6
2026-06-30T1600,3329A,117.011,32.5891,淮南市,山南新区,,38,7,35,3,29,120,120,115,115,3,7,9,10,0.3,0.5
2026-06-30T1600,4209A,117.003137,32.644456,淮南市,国庆中路369号,,35,14,47,3,28,110,110,102,102,8,12,7,7,0.2,0.4
2026-06-30T1600,2446A,114.9021,30.474,黄冈市,职工中心,,26,15,17,9,10,83,83,67,67,12,11,8,9,0.9,0.7
2026-06-30T1600,2929A,114.8858,30.4519,黄冈市,红卫路,,26,NA,16,16,15,82,82,66,66,4,5,6,7,0.7,0.6
2026-06-30T1600,3398A,114.9134,30.4446,黄冈市,市林业局,,25,14,18,6,15,80,80,72,72,9,10,4,4,0.6,0.5
2026-06-30T1600,2672A,102.02,35.5101,黄南藏族自治州,同仁县隆务镇,臭氧1小时(O3_1h),53,19,21,10,10,162,162,141,141,1,2,10,10,0.2,0.2
2026-06-30T1600,2295A,118.2905,29.6965,黄山市,延安路89号,,13,6,6,3,1,40,40,33,33,6,6,5,6,0.5,0.4
2026-06-30T1600,2297A,118.1369,30.2755,黄山市,黄山区政府5号楼,,12,6,13,3,3,36,36,64,54,1,3,3,3,0.5,0.5
2026-06-30T1600,4210A,118.335445,29.720283,黄山市,滨江东路7-2号,,12,12,17,3,1,37,37,32,30,3,6,/,/,/,/
2026-06-30T1600,2423A,115.0547,30.2332,黄石市,沈家营,,28,28,29,6,8,65,65,59,59,6,8,4,6,0.6,0.6
2026-06-30T1600,2426A,114.899,30.211,黄石市,铁山,,23,21,19,12,10,72,72,68,63,1,2,4,4,0.2,0.3
2026-06-30T1600,2427A,115.0259,30.2108,黄石市,团城山,,23,15,22,10,9,73,73,75,70,3,3,4,4,0.7,0.6
2026-06-30T1600,3149A,115.0174,30.1591,黄石市,笔架山北路,,23,21,31,8,9,71,71,64,64,3,5,4,4,0.4,0.3
2026-06-30T1600,4185A,115.078022,30.21118,黄石市,磁湖东路29号,,25,25,22,8,8,77,77,76,69,16,9,5,5,0.9,0.8
2026-06-30T1600,1392A,114.4181,23.0528,惠州市,河南岸金山湖子站,,25,9,11,3,7,77,77,68,68,4,9,7,7,0.4,0.5
2026-06-30T1600,1393A,114.4055,23.0824,惠州市,下埔横江三路子站,,27,7,13,3,8,85,85,75,75,3,8,6,5,0.5,0.5
2026-06-30T1600,1395A,114.4645,22.7832,惠州市,惠阳区承修路船湖子站,,23,6,11,3,6,71,71,69,69,2,7,3,4,0.6,0.6
2026-06-30T1600,1396A,114.5316,22.7423,惠州市,大亚湾管委会子站,,19,9,12,3,6,59,59,57,57,4,9,5,5,0.4,0.5
2026-06-30T1600,3314A,114.4334,22.8134,惠州市,惠阳秋长,,24,NA,9,3,5,76,76,73,73,3,9,/,/,/,/
2026-06-30T1600,3452A,114.6521,22.7755,惠州市,大亚湾霞涌,,19,10,11,3,5,59,59,59,59,3,5,/,/,/,/
2026-06-30T1600,4300A,114.4089,23.1147,惠州市,文华一路1号,,30,6,12,3,8,95,95,74,74,4,10,/,/,/,/
2026-06-30T1600,2240A,130.9618,45.2926,鸡西市,环保局,,43,25,27,19,16,137,137,127,127,10,12,10,10,0.4,0.3
2026-06-30T1600,2243A,130.9294,45.2959,鸡西市,第一中学,,37,NA,28,20,19,117,117,102,102,5,15,8,9,0.3,0.3
2026-06-30T1600,3707A,131.0069,45.2988,鸡西市,欧美日汽修厂,NA,NA,28,29,12,12,135,135,119,119,4,14,NA,6,0.6,0.6
2026-06-30T1600,2367A,114.9753,27.0803,吉安市,红声器材厂,,26,16,24,8,6,83,83,73,73,7,9,6,6,0.3,0.3
2026-06-30T1600,2369A,114.9903,27.1313,吉安市,市环境监测站,,23,20,25,3,6,72,72,70,70,9,7,7,8,/,/
2026-06-30T1600,2370A,115.009527,27.096792,吉安市,青原区法院,,25,16,26,3,7,80,80,73,73,7,8,6,7,0.3,0.2
2026-06-30T1600,1772A,126.54,43.8622,吉林市,哈达湾,,50,31,40,17,24,160,160,136,136,14,21,7,6,0.5,0.5
2026-06-30T1600,1773A,126.5843,43.8358,吉林市,东局子,,45,32,28,22,25,141,141,128,128,11,14,4,4,1.1,1.1
2026-06-30T1600,1774A,126.5051,43.8243,吉林市,电力学院,臭氧1小时(O3_1h),79,33,39,23,26,183,183,147,147,15,22,13,6,1.3,1
2026-06-30T1600,1775A,126.6133,43.8971,吉林市,江北,,44,31,32,21,31,140,140,128,128,10,13,8,7,0.6,0.6
2026-06-30T1600,1776A,126.5549,43.8304,吉林市,江南公园,,46,25,32,18,21,146,146,132,132,20,12,7,5,0.2,0.2
2026-06-30T1600,2868A,126.4737,43.953,吉林市,九站,臭氧1小时(O3_1h),68,39,45,23,31,174,174,146,146,9,24,12,6,0.6,0.3
2026-06-30T1600,1299A,116.9866,36.6118,济南市,科干所,臭氧1小时(O3_1h),55,36,43,14,31,164,164,164,155,11,13,4,4,0.7,0.8
2026-06-30T1600,1300A,116.9379,36.6652,济南市,农科所,臭氧1小时(O3_1h),57,44,48,22,39,165,165,142,142,8,14,4,3,0.3,0.4
2026-06-30T1600,1301A,117.1265,36.6736,济南市,开发区,,42,37,48,15,35,134,134,118,114,4,11,5,6,0.6,0.7
2026-06-30T1600,1303A,117.0616,36.6865,济南市,省种子仓库,臭氧1小时(O3_1h),59,48,61,15,38,167,167,143,143,5,16,5,5,0.5,0.6
2026-06-30T1600,1304A,116.9495185,36.644937,济南市,机床二厂,颗粒物(PM10),51,51,48,22,34,158,158,140,140,10,12,6,5,0.4,0.5
2026-06-30T1600,1305A,117.0496,36.6629,济南市,市监测站,臭氧1小时(O3_1h),52,44,53,17,33,161,161,144,143,8,14,3,3,0.5,0.6
2026-06-30T1600,1306A,116.7674,36.5458,济南市,长清党校,颗粒物(PM10),62,66,51,24,35,160,160,144,128,9,10,3,4,0.6,0.5
2026-06-30T1600,1961A,117.5323,36.6865,济南市,东山小学,,45,29,46,10,32,143,143,136,134,10,12,3,4,0.2,0.5
2026-06-30T1600,3059A,117.7181,36.205,济南市,泰兴公司,,45,27,48,3,32,144,144,130,130,12,17,12,9,0.6,0.5
2026-06-30T1600,3064A,117.6861,36.2172,济南市,莱芜战役纪念馆,,46,19,45,3,30,147,147,124,124,11,15,12,6,0,0.6
2026-06-30T1600,3494A,117.1673,36.9782,济南市,济阳区政府,臭氧1小时(O3_1h),62,49,60,17,41,169,169,136,136,9,18,3,3,0.4,0.6
2026-06-30T1600,3495A,117.1168,36.6299,济南市,锦屏中学,,42,42,49,15,33,130,130,117,113,6,9,8,8,0.3,0.3
2026-06-30T1600,4108A,117.7107,36.2385,济南市,山财大街5号,,49,12,44,7,37,154,154,134,134,13,20,9,8,0.7,0.7
2026-06-30T1600,4109A,116.9744,36.6889,济南市,无影山路12号,,49,41,52,18,41,155,155,140,140,8,17,2,2,0.6,0.7
2026-06-30T1600,1653A,116.6229,35.4288,济宁市,火炬城,臭氧1小时(O3_1h),92,68,58,30,37,193,193,166,166,5,12,3,4,0.8,0.8
2026-06-30T1600,3500A,116.5808,35.3703,济宁市,北湖一中,臭氧1小时(O3_1h),102,58,70,33,49,204,204,170,170,3,7,5,6,0.6,0.6
2026-06-30T1600,3501A,116.8251,35.5592,济宁市,服务中心,臭氧1小时(O3_1h),102,59,58,23,44,203,203,180,180,6,11,1,1,0.7,0.7
2026-06-30T1600,3678A,116.5907,35.4054,济宁市,市第七中学,臭氧1小时(O3_1h),104,62,69,32,43,208,208,179,179,6,10,3,4,0.6,0.6
2026-06-30T1600,4111A,116.6075,35.4566,济宁市,任和路,臭氧1小时(O3_1h),108,61,74,39,45,216,216,185,185,10,11,3,4,0.8,0.7
2026-06-30T1600,4112A,116.5648,35.3921,济宁市,文体南路1号,臭氧1小时(O3_1h),100,62,65,18,38,200,200,157,157,3,7,4,4,1.0,0.9
2026-06-30T1600,4122A,112.6071,35.1015,济源市,市委党校,臭氧1小时(O3_1h),68,47,46,19,19,174,174,132,132,8,14,9,10,0.6,0.7
2026-06-30T1600,4123A,112.596,35.0702,济源市,沁园中路1号,臭氧1小时(O3_1h),57,38,34,28,19,165,165,139,139,7,12,1,3,0.6,0.6
2026-06-30T1600,2255A,130.2749,46.8028,佳木斯市,佳纺,颗粒物(PM10),67,73,48,12,13,109,109,102,102,3,19,3,2,0.1,0.2
2026-06-30T1600,2257A,130.3258,46.7975,佳木斯市,环保局,,33,11,27,6,14,103,103,102,102,8,19,3,4,0.1,0.2
2026-06-30T1600,4285A,130.363,46.806,佳木斯市,顺和街,,32,16,25,9,13,102,102,99,99,5,15,1,2,0.2,0.2
2026-06-30T1600,4286A,130.3952,46.8268,佳木斯市,长安路196号,,27,15,28,9,10,86,86,92,92,46,28,6,6,0.2,0.2
2026-06-30T1600,1252A,120.7439,30.778,嘉兴市,清河小学,,30,24,18,21,9,67,67,56,56,10,14,5,5,0.6,0.6
2026-06-30T1600,1253A,120.7261,30.7477,嘉兴市,嘉兴学院,,26,NA,17,18,12,74,74,57,57,14,17,4,4,0.7,0.7
2026-06-30T1600,2872A,120.7845,30.7524,嘉兴市,南湖区残联,NA,NA,18,14,17,12,83,83,62,62,6,14,6,7,NA,0.7
2026-06-30T1600,3407A,120.6915,30.7741,嘉兴市,秀洲住建,,26,18,14,18,9,63,63,55,55,15,17,5,6,0.7,0.7
2026-06-30T1600,1945A,98.291,39.7705,嘉峪关市,气象局,颗粒物(PM10),63,68,46,29,20,126,126,114,114,7,17,16,18,0.7,0.7
2026-06-30T1600,2884A,98.2672,39.7978,嘉峪关市,酒钢宾馆,颗粒物(PM10),83,95,48,28,18,111,111,93,93,6,12,29,25,0.6,0.8
2026-06-30T1600,3248A,98.2644,39.7723,嘉峪关市,雄关区,颗粒物(PM10),63,68,49,31,16,125,125,115,115,6,17,17,16,0.2,0.3
2026-06-30T1600,1383A,113.1063,22.6058,江门市,北街,,16,8,17,3,7,50,50,60,60,3,8,/,/,/,/
2026-06-30T1600,1384A,113.073,22.5835,江门市,西区,,21,16,15,3,7,66,66,63,63,7,12,/,/,/,/
2026-06-30T1600,1385A,113.0218,22.531,江门市,圭峰西,,24,NA,21,3,7,75,75,67,67,8,10,/,/,/,/
2026-06-30T1600,1386A,113.0826,22.5947,江门市,东湖,,18,12,13,9,7,55,55,63,63,6,11,6,6,0.3,0.4
2026-06-30T1600,3311A,113.1077,22.5647,江门市,江海富民,,21,21,31,3,8,67,67,68,68,6,11,/,/,0.7,0.8
2026-06-30T1600,3449A,113.0496,22.4669,江门市,新会银湖,NA,NA,NA,17,3,6,70,70,63,63,8,15,1,2,0.6,0.6
2026-06-30T1600,3335A,113.3137,35.2643,焦作市,马村街道办,臭氧1小时(O3_1h),80,39,40,28,27,184,184,134,134,8,13,8,9,0.4,0.5
2026-06-30T1600,3336A,113.2464,35.2374,焦作市,焦作技师学院,臭氧1小时(O3_1h),68,34,41,23,25,174,174,132,132,11,14,8,10,0.6,0.8
2026-06-30T1600,3477A,113.1656,35.2536,焦作市,中站许衡医院,臭氧1小时(O3_1h),55,38,43,23,24,164,164,136,136,6,10,8,8,0.4,0.6
2026-06-30T1600,3981A,113.2456,35.18,焦作市,原李万街道办,臭氧1小时(O3_1h),85,42,46,23,24,188,188,132,132,7,9,8,8,0.5,0.6
2026-06-30T1600,4264A,113.234,35.219,焦作市,新安路1731号,臭氧1小时(O3_1h),92,27,44,20,26,193,193,151,151,2,7,11,11,0.5,0.8
2026-06-30T1600,4295A,113.2722,35.2121,焦作市,人民路3066号,臭氧1小时(O3_1h),104,39,44,32,27,208,208,151,151,11,16,6,6,0.5,0.6
2026-06-30T1600,1708A,116.3701,23.5345,揭阳市,新兴,,22,22,20,3,9,54,54,58,58,4,17,6,7,0.2,0.4
2026-06-30T1600,1709A,116.3261,23.5442,揭阳市,西马,,25,25,19,3,10,61,61,60,60,2,14,4,6,0.4,0.6
2026-06-30T1600,1710A,116.361,23.5627,揭阳市,东兴,,28,28,18,3,9,54,54,55,55,2,13,2,4,/,/
2026-06-30T1600,1711A,116.4151,23.5295,揭阳市,渔湖,,16,10,22,3,8,49,49,51,51,1,14,2,2,/,/
2026-06-30T1600,3320A,116.4028,23.5699,揭阳市,曲溪,,14,9,8,3,8,42,42,43,43,2,11,4,6,0.1,0.2
2026-06-30T1600,1944A,102.1691,38.5166,金昌市,天庆家园,,42,34,53,3,20,133,133,125,125,8,10,1,15,0.2,0.3
2026-06-30T1600,4022A,102.1648,38.5369,金昌市,金川区人防中心,,43,12,44,9,17,135,135,127,127,3,6,4,7,0.2,0.2
2026-06-30T1600,4239A,102.193042,38.531887,金昌市,长春路96号,,41,16,50,12,19,130,130,120,120,1,5,3,7,0.3,0.3
2026-06-30T1600,1262A,119.6478,29.0773,金华市,十五中,,30,29,28,19,16,94,94,51,51,10,20,1,1,0.6,0.6
2026-06-30T1600,1263A,119.6859,29.1032,金华市,监测站,,31,30,28,20,16,99,99,53,53,12,26,3,4,0.6,0.6
2026-06-30T1600,3659A,119.656,29.1132,金华市,气象局,,30,22,27,14,18,93,93,52,52,9,24,2,2,0.5,0.6
2026-06-30T1600,1767A,121.1114,41.0879,锦州市,南山,,47,47,30,31,26,89,89,84,84,14,16,4,5,0.3,0.4
2026-06-30T1600,1768A,121.060361,40.842794,锦州市,开发区,颗粒物(PM10),57,59,40,23,24,114,114,95,95,14,14,6,9,0.4,0.4
2026-06-30T1600,1769A,121.1836,41.1118,锦州市,百股街道,,44,44,30,28,26,99,99,98,98,12,12,4,5,0.3,0.4
2026-06-30T1600,1770A,121.1176,41.1224,锦州市,天安街道,,47,47,35,32,27,93,93,90,90,16,14,4,6,0.5,0.6
2026-06-30T1600,1771A,121.1303,41.1385,锦州市,北湖公园,,45,42,36,31,25,83,83,88,88,12,10,2,4,0.3,0.3
2026-06-30T1600,2160A,112.8496,35.5051,晋城市,自来水公司,臭氧1小时(O3_1h),62,NA,44,37,15,169,169,136,136,6,13,9,5,0.5,1
2026-06-30T1600,2162A,112.8509,35.4886,晋城市,市环保局,臭氧1小时(O3_1h),53,28,38,17,19,162,162,124,124,6,13,10,6,0.5,1.1
2026-06-30T1600,3620A,112.8258,35.4804,晋城市,泽州一中,臭氧1小时(O3_1h),59,33,36,20,21,167,167,129,129,7,14,7,5,0.5,0.9
2026-06-30T1600,4078A,112.8246,35.5152,晋城市,前书院路,臭氧1小时(O3_1h),67,45,35,19,17,173,173,135,135,4,10,8,4,0.4,0.9
2026-06-30T1600,4079A,112.8864,35.4773,晋城市,祥云街666号,,48,32,36,22,22,151,151,116,116,5,12,6,3,0.5,0.9
2026-06-30T1600,2174A,112.6992,37.6984,晋中市,榆次区政府,颗粒物(PM10),53,53,47,23,31,152,152,129,129,17,20,9,11,0.6,0.7
2026-06-30T1600,2865A,112.7195,37.683,晋中市,榆次三中,臭氧1小时(O3_1h),55,51,44,33,30,164,164,137,137,13,18,10,11,0.5,0.6
2026-06-30T1600,4080A,112.7375,37.7215,晋中市,广安街188号,颗粒物(PM10),60,64,48,23,26,153,153,131,131,12,17,9,10,0.3,0.4
2026-06-30T1600,4200A,112.7478,37.6954,晋中市,迎宾街26号,,48,46,38,23,26,152,152,129,129,14,17,8,9,0.5,0.6
2026-06-30T1600,2439A,112.2012,31.048,荆门市,竹园小学,,27,27,28,14,19,80,80,96,88,15,15,4,4,0.7,0.7
2026-06-30T1600,2440A,112.1968,30.9892,荆门市,掇刀,,28,26,28,19,20,74,74,80,80,11,11,14,9,0.6,0.6
2026-06-30T1600,3012A,112.1849,31.0361,荆门市,西山林语,,27,27,22,15,19,74,74,81,78,9,8,10,9,0.5,0.5
2026-06-30T1600,3547A,112.1631,31.0134,荆门市,龙泉中学南校,,26,26,24,13,12,78,78,83,82,9,9,7,7,0.9,0.8
2026-06-30T1600,4124A,112.2213,31.0654,荆门市,新台西路6号,,32,26,34,22,21,83,83,98,88,10,11,6,5,1.0,1
2026-06-30T1600,1844A,112.2493,30.3198,荆州市,市图书馆,,15,15,17,3,14,47,47,66,52,7,10,6,6,0.6,0.6
2026-06-30T1600,1845A,112.2009,30.3543,荆州市,市委党校,,16,8,19,3,12,51,51,62,51,7,12,7,8,0.4,0.4
2026-06-30T1600,3194A,112.2749,30.3124,荆州市,管委会,,14,8,21,7,17,44,44,64,48,8,10,7,8,0.5,0.5
2026-06-30T1600,4268A,112.1722,30.3366,荆州市,学苑路85号,,18,15,30,3,14,56,56,56,52,4,12,10,9,0.2,0.3
2026-06-30T1600,2343A,117.2114,29.2931,景德镇市,老干部活动中心,,43,NA,6,30,11,28,28,36,30,19,9,9,5,0.8,0.6
2026-06-30T1600,2344A,117.1893,29.2789,景德镇市,兽医站,,16,16,16,8,5,31,31,41,31,21,8,4,4,0.7,0.6
2026-06-30T1600,2346A,117.246,29.2958,景德镇市,陶研所,,10,8,8,3,4,32,32,38,30,9,5,4,5,0.8,0.7
2026-06-30T1600,4289A,117.154766,29.256967,景德镇市,青少年活动中心,,11,6,11,3,5,34,34,29,26,13,11,25,10,/,/
2026-06-30T1600,1803A,115.9873,29.6816,九江市,十里,,26,19,13,16,5,83,83,82,82,13,9,3,3,0.5,0.5
2026-06-30T1600,1804A,115.9583,29.7047,九江市,茅山头,,26,NA,10,18,6,63,63,78,77,26,4,4,4,0.5,0.5
2026-06-30T1600,1805A,115.9877,29.7295,九江市,西园,,25,NA,12,17,6,58,58,66,63,28,15,4,3,0.3,0.3
2026-06-30T1600,1808A,115.9112,29.6038,九江市,综合工业园,,19,NA,13,12,6,58,58,67,67,28,20,3,2,0.3,0.3
2026-06-30T1600,3190A,116.0254,29.6995,九江市,外国语学校,,23,23,8,13,6,67,67,74,74,21,8,7,6,0.7,0.7
2026-06-30T1600,4253A,116.010205,29.659402,九江市,莲花大道8号,,28,NA,8,19,7,71,71,69,69,16,6,4,4,0.6,0.5
2026-06-30T1600,4240A,98.495752,39.733935,酒泉市,玉门东路5号,颗粒物(PM10),53,53,40,21,16,129,129,114,114,3,9,6,7,0.1,0.2
2026-06-30T1600,4241A,98.5099,39.7506,酒泉市,北大街108号,颗粒物(PM10),56,58,44,20,17,127,127,112,112,2,9,10,11,0.3,0.3
2026-06-30T1600,2698A,76.0071,39.466,喀什地区,巡警大队,颗粒物(PM10),88,103,104,29,41,139,139,110,110,5,35,4,4,0.1,0.4
2026-06-30T1600,2699A,75.9756,39.4693,喀什地区,吾办,颗粒物(PM10),86,100,96,35,38,134,134,106,106,2,24,1,3,0.2,0.5
2026-06-30T1600,4027A,75.9485,39.4688,喀什地区,老干局,颗粒物(PM10),90,105,100,19,28,132,132,100,100,4,24,4,4,0.2,0.4
2026-06-30T1600,1824A,114.3389,34.778,开封市,肿瘤医院,臭氧1小时(O3_1h),60,56,55,36,36,168,168,146,146,10,14,8,10,0.2,0.3
2026-06-30T1600,1826A,114.2884,34.7966,开封市,世纪星幼儿园,细颗粒物(PM2.5),64,46,50,42,36,148,148,136,136,13,16,7,10,0.4,0.6
2026-06-30T1600,3147A,114.3434,34.8101,开封市,龙亭公园,NA,NA,104,55,29,30,177,177,157,157,NA,14,2,7,0.1,0.5
2026-06-30T1600,3210A,114.3645,34.7955,开封市,汴京公园,臭氧1小时(O3_1h),64,53,52,27,35,171,171,144,144,6,11,8,11,0.7,0.8
2026-06-30T1600,3473A,114.2485,34.8306,开封市,技师学院,细颗粒物(PM2.5),56,51,61,38,34,160,160,153,153,5,14,6,10,0.8,0.8
2026-06-30T1600,3592A,114.4518,34.7503,开封市,祥符区生态环境局,细颗粒物(PM2.5),62,50,52,41,40,167,167,131,131,9,18,10,13,0.5,0.6
2026-06-30T1600,1951A,84.886,45.6029,克拉玛依市,长征新村,NA,NA,NA,31,NA,16,NA,NA,129,NA,NA,12,NA,4,NA,0.4
2026-06-30T1600,1952A,84.8894,45.5827,克拉玛依市,南林小区,,39,24,37,3,6,124,124,104,104,1,16,7,6,0.2,0.2
2026-06-30T1600,1954A,84.896,44.3328,克拉玛依市,独山子区,,44,27,30,3,5,140,140,111,111,6,8,9,8,0.6,0.4
2026-06-30T1600,1955A,85.6888,46.0909,克拉玛依市,乌尔禾区商贸楼,,37,16,31,16,19,118,118,93,93,5,11,8,7,0.3,0.3
2026-06-30T1600,3612A,85.1045,45.6895,克拉玛依市,白碱滩区新站,,36,31,24,3,5,115,115,117,117,1,5,8,9,0.1,0.2
2026-06-30T1600,2697A,76.1457,39.7143,克孜勒苏柯尔克孜自治州,市人民政府,颗粒物(PM10),82,94,72,30,25,145,145,116,116,2,10,6,7,0.0,0.1
2026-06-30T1600,3665A,76.1654,39.7157,克孜勒苏柯尔克孜自治州,克州文化中心,颗粒物(PM10),88,102,81,36,29,150,150,126,126,1,13,7,8,0.2,0.2
2026-06-30T1600,1450A,102.8203,24.889,昆明市,呈贡新区,,27,NA,14,9,8,86,86,86,86,4,5,4,5,0.8,0.8
2026-06-30T1600,1452A,102.7253,25.0904,昆明市,龙泉镇,,26,17,18,14,9,81,81,76,76,6,8,5,5,0.3,0.4
2026-06-30T1600,1453A,102.7267,25.0378,昆明市,东风东路,,30,15,12,9,9,93,93,92,92,14,11,2,2,0.3,0.3
2026-06-30T1600,1454A,102.6744,25.0671,昆明市,金鼎山,,28,28,20,12,12,80,80,84,84,11,11,4,4,0.4,0.4
2026-06-30T1600,1455A,102.6643,25.0401,昆明市,碧鸡广场,,26,15,19,11,12,83,83,81,81,9,10,3,3,0.6,0.6
2026-06-30T1600,3179A,102.7491,25.012,昆明市,官渡区博物馆,,26,20,17,3,9,82,82,82,82,11,14,3,3,0.3,0.4
2026-06-30T1600,3375A,102.8016,24.8336,昆明市,青年创业园,,28,9,12,6,9,88,88,86,86,6,7,4,4,0.3,0.3
2026-06-30T1600,3550A,102.8,24.9787,昆明市,昆明学院,,25,13,16,3,8,80,80,82,82,9,15,6,6,0.3,0.3
2026-06-30T1600,3551A,102.5969,24.6738,昆明市,晋宁区生态环境分局,,31,11,13,7,8,99,99,98,98,4,5,4,4,0.6,0.6
2026-06-30T1600,3552A,102.6673,24.9861,昆明市,云天化总部,,30,16,15,6,7,93,93,85,85,10,11,5,5,0.4,0.4
2026-06-30T1600,1456A,91.132,29.6515,拉萨市,八廓街,,42,6,10,3,7,132,132,130,130,5,8,5,5,0.3,0.4
2026-06-30T1600,1457A,91.1221,29.6748,拉萨市,市环保局,,44,7,9,3,6,138,138,127,126,7,9,6,7,0.2,0.2
2026-06-30T1600,1458A,91.0874,29.6476,拉萨市,区监测站,,44,8,8,3,6,139,139,129,128,7,11,5,5,0.3,0.3
2026-06-30T1600,1459A,91.1774,29.6541,拉萨市,西藏大学,,41,7,9,3,6,129,129,130,130,6,10,4,4,0.2,0.3
2026-06-30T1600,1460A,90.9798,29.6586,拉萨市,区辐射站,,40,6,10,3,6,127,127,128,124,6,13,6,7,0.2,0.3
2026-06-30T1600,1461A,91.0831,29.6292,拉萨市,拉萨火车站,,42,NA,8,6,5,134,134,128,128,6,8,4,4,0.3,0.2
2026-06-30T1600,2520A,109.2203,23.7252,来宾市,来宾技工学校,,27,27,23,3,10,60,60,63,63,5,9,8,9,0.5,0.6
2026-06-30T1600,3535A,109.1781,23.7293,来宾市,兴宾区政府,,21,21,22,9,11,60,60,64,64,8,8,6,7,0.5,0.6
2026-06-30T1600,4002A,109.2312,23.7428,来宾市,中南小学,,21,18,22,3,9,67,67,66,66,4,8,5,5,0.5,0.6
2026-06-30T1600,1479A,103.8309,36.0467,兰州市,铁路设计院,臭氧1小时(O3_1h),58,21,50,15,25,166,166,138,138,13,31,9,11,0.6,0.8
2026-06-30T1600,3241A,103.7439,36.0841,兰州市,百合公园,臭氧1小时(O3_1h),52,28,51,13,22,161,161,142,142,6,40,10,10,0.7,0.8
2026-06-30T1600,3242A,103.9613,35.9985,兰州市,和平,臭氧1小时(O3_1h),58,17,40,14,17,166,166,134,134,2,9,13,16,0.2,0.4
2026-06-30T1600,4236A,103.629272,36.093822,兰州市,庄浪东路808号,,48,25,46,10,21,153,153,126,126,6,17,11,17,0.3,0.3
2026-06-30T1600,4237A,103.7251,36.104344,兰州市,安宁西路88号,NA,NA,39,62,18,24,174,174,152,152,NA,33,11,15,0.3,0.4
2026-06-30T1600,4238A,103.846982,36.067567,兰州市,北滨河东路1号,臭氧1小时(O3_1h),53,33,52,13,21,162,162,129,129,13,46,14,16,0.2,0.5
2026-06-30T1600,1067A,116.6712,39.5109,廊坊市,药材公司,,45,33,40,28,29,144,144,136,126,6,8,3,2,0.5,0.5
2026-06-30T1600,1068A,116.7215,39.5592,廊坊市,开发区,,50,50,41,28,31,157,157,122,122,10,12,3,3,0.4,0.5
2026-06-30T1600,1070A,116.7246,39.5273,廊坊市,北华航天学院,,50,25,29,22,26,158,158,124,121,4,8,3,3,0.5,0.5
2026-06-30T1600,2919A,116.7022,39.5454,廊坊市,河北工业大学,臭氧1小时(O3_1h),52,NA,28,30,32,161,161,127,125,14,16,3,3,0.4,0.4
2026-06-30T1600,2536A,103.7629,29.5844,乐山市,牛耳桥,,24,22,19,16,12,75,75,53,53,6,8,6,5,0.7,0.7
2026-06-30T1600,2537A,103.7501,29.6002,乐山市,市第三水厂,,25,25,19,14,13,69,69,50,50,11,9,4,4,0.8,0.7
2026-06-30T1600,2538A,103.7571,29.5664,乐山市,市监测站,,23,23,23,14,12,68,68,47,47,8,8,4,2,0.8,0.7
2026-06-30T1600,3361A,103.7313,29.563,乐山市,理工大学,,32,22,22,22,18,74,74,50,50,6,7,4,4,0.6,0.6
2026-06-30T1600,2599A,100.2497,26.8802,丽江市,丽江古城,,26,11,13,3,6,83,83,78,78,6,9,8,8,0.6,0.6
2026-06-30T1600,2600A,100.2203,26.8906,丽江市,市中心,,25,NA,9,9,8,80,80,74,74,7,7,8,7,0.7,0.7
2026-06-30T1600,1267A,119.9141,28.4513,丽水市,监测站大楼,,27,27,19,12,10,67,67,49,49,9,10,4,4,0.5,0.5
2026-06-30T1600,1268A,119.93,28.4589,丽水市,莲都小学,,28,28,23,13,9,69,69,49,49,10,13,/,/,/,/
2026-06-30T1600,1269A,119.8794,28.4232,丽水市,余庄前,,22,22,23,9,10,40,40,33,33,12,12,7,14,0.6,0.6
2026-06-30T1600,1173A,119.1759,34.5885,连云港市,市环境监测站,,38,29,33,19,33,120,120,125,125,5,6,7,7,0.4,0.5
2026-06-30T1600,3000A,119.3577,34.6971,连云港市,德源药业,,30,27,40,17,35,93,93,108,108,4,7,5,5,0.2,0.3
2026-06-30T1600,3007A,119.178,34.8442,连云港市,新城一中,,27,15,34,8,17,85,85,97,97,4,16,2,2,0.4,0.5
2026-06-30T1600,3008A,119.3607,34.7519,连云港市,胡沟管理处,,24,22,33,7,17,75,75,92,88,13,19,8,9,0.4,0.5
2026-06-30T1600,3009A,119.1478,34.5913,连云港市,矿山设计院,,36,31,39,19,28,115,115,115,115,6,8,4,4,0.3,0.4
2026-06-30T1600,3434A,119.2414,34.6539,连云港市,工贸学校,,36,22,33,13,22,114,114,125,125,9,9,4,4,0.5,0.5
2026-06-30T1600,3664A,119.4171,34.734,连云港市,连云街道,,30,19,32,10,18,93,93,98,98,4,9,8,9,0.4,0.5
2026-06-30T1600,2573A,102.2629,27.8981,凉山彝族自治州,西昌市政府,,34,26,22,14,14,106,106,76,76,13,9,6,6,0.4,0.5
2026-06-30T1600,2574A,102.2686,27.885,凉山彝族自治州,凉山州政府,,34,26,22,14,16,107,107,69,69,8,12,7,7,0.4,0.5
2026-06-30T1600,4229A,102.2342,27.8859,凉山彝族自治州,凯乐南路30号,NA,NA,NA,NA,NA,NA,NA,NA,NA,NA,NA,NA,NA,NA,NA,NA
2026-06-30T1600,2212A,123.1978,41.2036,辽阳市,宏伟区,,34,20,19,10,10,106,106,98,98,6,5,7,8,0.7,0.6
2026-06-30T1600,2213A,123.1684,41.2497,辽阳市,新华园,,35,26,21,11,11,111,111,105,105,6,6,8,8,0.4,0.4
2026-06-30T1600,2214A,123.2355,41.2663,辽阳市,滨河路,,31,27,19,10,11,98,98,91,91,9,10,7,8,0.4,0.3
2026-06-30T1600,4083A,123.153,41.2874,辽阳市,铁西路150号,,34,24,22,12,12,108,108,102,102,5,5,6,7,0.4,0.4
2026-06-30T1600,2227A,125.1359,42.8845,辽源市,环保局,,43,14,26,3,10,136,136,132,132,3,25,7,7,0.3,0.4
2026-06-30T1600,4085A,125.0998,42.9134,辽源市,安宁大街333号,,41,22,26,3,12,131,131,127,127,2,24,5,5,0.4,0.5
2026-06-30T1600,1625A,115.9789,36.4372,聊城市,区政府,臭氧1小时(O3_1h),87,73,63,28,42,189,189,128,128,5,10,10,11,0.7,0.7
2026-06-30T1600,3200A,115.9772,36.4986,聊城市,监控中心,臭氧1小时(O3_1h),109,72,62,26,49,218,218,149,149,9,12,11,10,0.5,0.6
2026-06-30T1600,3513A,116.0443,36.436,聊城市,九州社区,臭氧1小时(O3_1h),102,80,20,22,56,203,203,146,146,2,10,6,4,NA,1
2026-06-30T1600,4018A,116.0564,36.4609,聊城市,星美广场,臭氧1小时(O3_1h),101,75,81,27,52,201,201,138,138,5,10,6,7,0.5,0.6
2026-06-30T1600,4113A,116.0091,36.4495,聊城市,利民路,臭氧1小时(O3_1h),103,62,69,32,49,206,206,147,147,6,12,14,13,0.5,0.5
2026-06-30T1600,2632A,94.3683,29.6373,林芝市,林芝监测站,,23,7,6,3,4,73,73,65,65,5,5,3,4,0.3,0.4
2026-06-30T1600,2633A,94.3616,29.6634,林芝市,林芝人民医院,NA,NA,6,7,3,4,76,76,66,66,4,6,NA,3,0.1,0.2
2026-06-30T1600,2603A,100.0779,23.8981,临沧市,市环保局,,18,NA,23,12,11,36,36,35,35,5,7,3,4,0.4,0.4
2026-06-30T1600,2604A,100.0894,23.882,临沧市,市气象局,,20,20,19,9,13,46,46,41,41,6,8,8,6,0.6,0.1
2026-06-30T1600,1733A,111.5552,36.0791,临汾市,临钢医院,臭氧1小时(O3_1h),63,NA,37,13,18,170,170,128,128,8,17,6,5,0.6,0.6
2026-06-30T1600,1734A,111.4984,36.0734,临汾市,技工学校,NA,NA,NA,45,NA,33,167,167,129,129,NA,17,7,6,0.5,0.7
2026-06-30T1600,1736A,111.5017,36.0857,临汾市,市委,臭氧1小时(O3_1h),59,35,55,10,18,167,167,126,126,6,16,6,5,0.5,0.7
2026-06-30T1600,3018A,111.5048,36.1015,临汾市,唐尧大酒店,臭氧1小时(O3_1h),63,42,57,3,19,170,170,128,128,8,17,6,6,0.6,0.8
2026-06-30T1600,4244A,111.4879,36.053,临汾市,启星学校,臭氧1小时(O3_1h),62,22,38,15,23,169,169,128,128,7,15,7,6,0.7,0.9
2026-06-30T1600,4271A,103.2464,35.6123,临夏回族自治州,滨河东路1号,NA,NA,28,44,6,14,134,134,111,111,NA,16,14,13,0.2,0.3
2026-06-30T1600,4310A,103.207136,35.599807,临夏回族自治州,新华街21号,,39,16,37,3,15,122,122,93,93,4,11,10,9,0.3,0.4
2026-06-30T1600,1618A,118.3429,35.0532,临沂市,沂河小区,颗粒物(PM10),55,56,64,30,45,157,157,127,127,8,13,9,8,0.3,0.5
2026-06-30T1600,1619A,118.2962,35.0568,临沂市,鲁南制药厂,颗粒物(PM10),55,56,64,28,41,157,157,113,113,7,16,10,10,0.6,0.8
2026-06-30T1600,1620A,118.2793,34.9976,临沂市,新光毛纺厂,细颗粒物(PM2.5),64,46,53,42,57,157,157,112,112,5,14,5,5,0.4,0.5
2026-06-30T1600,1621A,118.3955,35.0889,临沂市,河东保险公司,颗粒物(PM10),51,51,51,23,39,158,158,98,98,4,13,8,6,0.2,0.3
2026-06-30T1600,3370A,118.3563,35.0215,临沂市,十里堡居委,,48,46,51,24,44,153,153,108,108,14,20,10,10,0.6,0.8
2026-06-30T1600,3496A,118.359,35.1067,临沂市,南坊新区,细颗粒物(PM2.5),72,63,61,46,58,166,166,116,116,9,15,6,5,0.6,0.7
2026-06-30T1600,3860A,118.3915,35.0297,临沂市,皇山花园小区,"颗粒物(PM10),臭氧1小时(O3_1h)",53,53,58,24,42,162,162,119,119,6,14,8,8,0.6,0.8
2026-06-30T1600,1870A,109.4854,24.3898,柳州市,柳东小学,,29,18,24,7,11,91,91,67,67,3,8,3,4,0.3,0.6
2026-06-30T1600,1871A,109.4109,24.3304,柳州市,环保监测站,,26,7,26,3,14,81,81,60,60,6,15,7,7,0.6,0.8
2026-06-30T1600,1872A,109.3886,24.3408,柳州市,河西水厂,,28,19,31,8,16,87,87,61,61,2,13,8,8,0.6,0.7
2026-06-30T1600,1873A,109.4263,24.2951,柳州市,市四中,,27,26,29,7,16,84,84,62,62,5,16,5,6,0.5,0.6
2026-06-30T1600,1874A,109.396,24.3658,柳州市,市九中,NA,NA,NA,32,6,16,81,81,57,57,6,15,6,6,NA,0.3
2026-06-30T1600,1875A,109.4912,24.3164,柳州市,古亭山,,34,34,28,3,11,86,86,62,62,2,13,3,3,0.5,0.7
2026-06-30T1600,3402A,109.5422,24.3994,柳州市,市二中,,29,18,29,3,14,90,90,72,72,1,11,5,6,0.5,0.7
2026-06-30T1600,2307A,116.5078,31.7369,六安市,监测大楼,,30,8,22,3,23,95,95,90,90,6,6,4,3,0.4,0.6
2026-06-30T1600,2308A,116.4738,31.7642,六安市,皖西学院,,34,15,29,3,21,108,108,103,103,7,5,7,6,0.3,0.5
2026-06-30T1600,2309A,116.4997,31.7904,六安市,朝阳厂,,30,9,24,3,23,94,94,92,92,7,8,6,7,0.2,0.4
2026-06-30T1600,2310A,116.5566,31.7885,六安市,开发区,,31,NA,28,3,22,98,98,95,95,4,10,5,5,0.1,0.3
2026-06-30T1600,2577A,104.8293,26.592,六盘水市,黄土坡,,21,14,14,7,9,65,65,69,69,12,10,6,6,0.5,0.4
2026-06-30T1600,2579A,104.8481,26.5898,六盘水市,民中,,20,8,10,3,9,63,63,62,62,12,13,2,3,0.4,0.4
2026-06-30T1600,2580A,104.9541,26.5506,六盘水市,双水,,24,6,9,3,4,76,76,76,76,4,6,4,4,0.3,0.3
2026-06-30T1600,4151A,104.8899,26.5685,六盘水市,钟山大道中段564号,,21,10,17,3,11,66,66,61,61,5,11,8,7,0.5,0.7
2026-06-30T1600,2336A,117.022,25.1031,龙岩市,龙岩市监测站,,19,7,13,3,7,59,59,51,51,2,8,5,5,0.2,0.3
2026-06-30T1600,2337A,117.0257,25.0662,龙岩市,闽西职业技术学院,,18,6,16,3,7,55,55,47,47,1,6,4,4,0.3,0.4
2026-06-30T1600,2338A,117.0195,25.0306,龙岩市,龙岩学院,,18,6,15,3,5,55,55,47,47,2,6,2,3,/,/
2026-06-30T1600,2885A,104.9344,33.3827,陇南市,滨江中学,,39,22,27,11,10,124,124,100,100,4,6,9,8,0.4,0.4
2026-06-30T1600,3247A,104.9551,33.3709,陇南市,市总工会,,39,25,26,8,11,122,122,99,99,4,5,10,9,0.3,0.3
2026-06-30T1600,2488A,111.9984,27.7346,娄底市,市监测站,,42,42,43,20,32,67,67,75,70,7,10,8,4,0.4,0.7
2026-06-30T1600,2491A,111.9888,27.7035,娄底市,市政府,,39,34,36,27,32,85,85,80,80,7,7,12,12,0.9,0.7
2026-06-30T1600,4127A,111.9812,27.7591,娄底市,涟钢职大,,45,33,37,31,31,71,71,81,75,4,7,3,3,0.3,0.4
2026-06-30T1600,4128A,112.0303,27.7457,娄底市,娄底体校,,35,35,45,16,30,73,73,82,81,6,7,2,2,0.5,0.5
2026-06-30T1600,1894A,105.4427,28.9063,泸州市,小市上码头,,40,40,37,22,19,90,90,54,54,12,11,5,6,0.5,0.4
2026-06-30T1600,1895A,105.4241,28.8573,泸州市,兰田宪桥,颗粒物(PM10),51,51,52,31,29,100,100,56,56,14,16,3,3,0.5,0.5
2026-06-30T1600,1896A,105.4378,28.8833,泸州市,市环监站,,39,39,35,19,15,88,88,45,45,12,16,5,5,0.7,0.7
2026-06-30T1600,4272A,105.3689,28.7783,泸州市,纳溪中医医院,,38,NA,20,26,25,91,91,52,52,5,15,2,2,0.7,0.7
2026-06-30T1600,2183A,111.1447,37.5212,吕梁市,环保局,臭氧1小时(O3_1h),74,35,34,9,13,179,179,149,149,6,14,6,6,0.2,0.3
2026-06-30T1600,2185A,111.1285,37.5338,吕梁市,自来水公司,臭氧1小时(O3_1h),69,22,36,6,14,175,175,154,154,7,14,4,3,0.4,0.5
2026-06-30T1600,2867A,111.1225,37.5093,吕梁市,马茂庄小学,臭氧1小时(O3_1h),79,28,36,10,13,183,183,152,152,8,18,3,3,0.1,0.2
2026-06-30T1600,1812A,112.3934,34.6517,洛阳市,市委党校,,46,34,34,20,20,146,146,119,119,5,8,7,8,0.5,0.5
2026-06-30T1600,1815A,112.494,34.6883,洛阳市,河南林校,,50,37,39,23,22,160,160,135,135,7,11,11,10,0.3,0.3
2026-06-30T1600,1816A,112.3843,34.623,洛阳市,开发区管委会,臭氧1小时(O3_1h),53,NA,30,30,20,162,162,131,131,2,2,10,9,0.5,0.5
2026-06-30T1600,1817A,112.4263,34.6249,洛阳市,市委新办公区,,47,32,27,31,20,148,148,114,114,5,6,10,10,0.4,0.4
2026-06-30T1600,3340A,112.6005,34.6323,洛阳市,伊滨,,48,32,34,18,19,152,152,119,119,8,8,5,4,0.4,0.4
2026-06-30T1600,3341A,112.495,34.6338,洛阳市,中移产业园,臭氧1小时(O3_1h),59,37,33,29,21,167,167,122,122,6,7,16,8,0.8,0.7
2026-06-30T1600,3593A,112.5736,34.8993,洛阳市,吉利监测站,臭氧1小时(O3_1h),67,40,38,20,18,173,173,127,127,5,9,8,8,0.3,0.3
2026-06-30T1600,3635A,112.3678,34.6623,洛阳市,河科大西苑校区,,49,35,34,22,22,155,155,126,126,6,9,11,11,0.7,0.7
2026-06-30T1600,3636A,112.4387,34.678,洛阳市,英才小学,,48,NA,35,33,24,145,145,119,119,3,8,8,8,0.6,0.6
2026-06-30T1600,4214A,112.460027,34.694929,洛阳市,春都路1号院,臭氧1小时(O3_1h),54,45,35,30,22,163,163,132,132,4,9,5,5,0.4,0.4
2026-06-30T1600,2399A,114.051,33.5721,漯河市,三五一五工厂,臭氧1小时(O3_1h),64,24,45,23,33,171,171,146,146,12,35,6,7,0.2,0.2
2026-06-30T1600,2400A,114.0055,33.5698,漯河市,漯河大学,NA,NA,NA,38,31,32,NA,NA,94,NA,NA,35,6,8,0.5,0.7
2026-06-30T1600,2401A,114.0134,33.5826,漯河市,市水利局,臭氧1小时(O3_1h),70,31,45,18,32,176,176,133,133,14,28,6,8,0.3,0.4
2026-06-30T1600,2402A,114.0261,33.5697,漯河市,市广电局,臭氧1小时(O3_1h),68,24,41,20,26,174,174,146,146,12,30,5,6,0.4,0.5
2026-06-30T1600,3478A,113.9691,33.568,漯河市,市图书馆,臭氧1小时(O3_1h),67,35,49,17,30,173,173,124,124,12,37,6,8,0.6,0.7
2026-06-30T1600,4250A,114.089259,33.588274,漯河市,韶山路11号,臭氧1小时(O3_1h),69,38,54,14,32,175,175,137,137,9,28,7,8,0.3,0.4
2026-06-30T1600,1798A,118.5084,31.6838,马鞍山市,湖东路四小,,26,10,25,3,15,83,83,87,87,4,8,6,7,0.5,0.6
2026-06-30T1600,1799A,118.5019,31.6449,马鞍山市,开发区,,27,8,25,3,16,86,86,92,92,2,5,5,6,0.5,0.6
2026-06-30T1600,3633A,118.4914,31.681,马鞍山市,雨山,,28,6,24,3,14,88,88,92,92,2,8,3,4,0.5,0.6
2026-06-30T1600,4191A,118.527362,31.722269,马鞍山市,慈湖高新区,,27,6,26,3,16,85,85,91,91,3,10,6,7,0.4,0.5
2026-06-30T1600,1686A,111.0285,21.469,茂名市,电白南海,NA,NA,NA,17,NA,1,67,67,66,64,NA,4,NA,6,0.6,0.6
2026-06-30T1600,1687A,110.9294,21.6533,茂名市,茂石化七小,,19,14,18,3,9,60,60,57,57,8,9,7,9,0.4,0.5
2026-06-30T1600,1688A,110.9108,21.6688,茂名市,健康路,,21,7,10,6,8,65,65,61,61,6,6,6,8,0.5,0.5
2026-06-30T1600,1689A,110.8592,21.6826,茂名市,高岭,,22,22,24,3,7,65,65,59,59,8,8,8,7,/,/
2026-06-30T1600,3450A,111.0101,21.5165,茂名市,电白水东,,21,9,11,6,8,65,65,64,64,4,5,2,2,/,/
2026-06-30T1600,2540A,103.8414,30.0871,眉山市,气象局,,32,21,17,12,7,101,101,81,81,9,11,7,7,0.7,0.7
2026-06-30T1600,3148A,103.829,30.0563,眉山市,区人社局,,35,35,31,6,5,95,95,74,74,11,13,7,7,0.6,0.6
2026-06-30T1600,4148A,103.8836,30.0695,眉山市,眉职院,,28,27,20,11,7,89,89,72,72,8,13,7,7,0.8,0.8
2026-06-30T1600,1690A,116.1248,24.3307,梅州市,梅江月梅,,16,8,15,3,6,49,49,50,50,9,10,/,/,/,/
2026-06-30T1600,1691A,116.0798,24.2719,梅州市,梅县新城,,15,NA,13,3,6,48,48,52,52,8,11,9,8,0.4,0.4
2026-06-30T1600,3315A,116.1234,24.2994,梅州市,梅龙,NA,NA,NA,11,2,6,51,51,48,48,5,8,6,6,0.6,0.6
2026-06-30T1600,1878A,104.7775,31.4741,绵阳市,富乐山,,45,30,25,17,14,141,141,118,118,5,7,11,11,0.8,0.7
2026-06-30T1600,1880A,104.6698,31.4668,绵阳市,高新区自来水公司,,45,35,25,19,14,143,143,110,110,8,8,11,11,0.5,0.5
2026-06-30T1600,3491A,104.6899,31.5324,绵阳市,西科大附属小学,,44,32,24,27,16,139,139,111,111,12,10,6,6,0.2,0.2
2026-06-30T1600,3492A,104.5647,31.5343,绵阳市,安州区旅游局,,49,39,26,26,16,154,154,111,111,4,5,6,6,0.6,0.5
2026-06-30T1600,4146A,104.7092,31.4972,绵阳市,科技城新区公安局,,45,35,26,18,13,142,142,113,113,9,8,11,11,0.8,0.7
2026-06-30T1600,4226A,104.765114,31.453094,绵阳市,绵阳市气象局,,40,32,24,18,14,126,126,99,99,6,10,8,8,0.6,0.6
2026-06-30T1600,1784A,129.61,44.561,牡丹江市,环保大楼,,35,29,20,17,15,110,110,104,104,13,13,5,5,0.4,0.4
2026-06-30T1600,1787A,129.6364,44.6075,牡丹江市,机车工厂,,49,49,32,21,20,95,95,102,102,14,14,8,8,0.5,0.5
2026-06-30T1600,1788A,129.6386,44.5462,牡丹江市,第一中学,,45,45,27,20,14,117,117,107,107,10,16,7,8,0.5,0.4
2026-06-30T1600,4287A,129.5992,44.5964,牡丹江市,东晓云街98号,,35,35,27,23,17,95,95,102,102,14,10,6,5,0.4,0.3
2026-06-30T1600,2531A,105.0703,29.61,内江市,市监测站,,28,17,14,9,14,88,88,58,58,13,13,9,9,0.5,0.5
2026-06-30T1600,2533A,105.0657,29.5807,内江市,内江二中,,32,14,20,9,13,100,100,68,68,7,11,9,9,0.4,0.4
2026-06-30T1600,2534A,105.0407,29.5828,内江市,内江日报社,,31,13,11,8,14,99,99,71,71,8,13,5,6,0.4,0.4
2026-06-30T1600,4147A,105.0433,29.6105,内江市,玉峰路西段888号,,29,25,20,13,15,90,90,NA,NA,12,14,5,6,0.5,0.5
2026-06-30T1600,2628A,92.0653,31.4846,那曲市,那曲监测站,,38,20,18,3,8,121,121,112,112,8,9,3,4,0.2,0.3
2026-06-30T1600,4243A,92.0515,31.4787,那曲市,那曲市委宣传部,,38,7,8,3,6,121,121,111,111,6,7,4,4,0.2,0.3
2026-06-30T1600,1291A,115.8887,28.7006,南昌市,省林业公司,,23,NA,4,3,4,72,72,56,56,4,7,4,4,0.7,0.6
2026-06-30T1600,1292A,115.813,28.7443,南昌市,林科所,,21,NA,3,3,4,66,66,45,45,4,8,6,6,0.9,0.8
2026-06-30T1600,1294A,115.8518,28.687,南昌市,建工学校,NA,NA,14,5,7,4,69,69,50,50,4,7,NA,5,0.8,0.8
2026-06-30T1600,1295A,115.8926,28.6425,南昌市,象湖,,22,NA,2,14,6,70,70,47,47,7,12,8,8,0.6,0.5
2026-06-30T1600,3046A,115.9084,28.6062,南昌市,机电学校,,21,NA,13,12,4,66,66,44,44,6,10,6,6,0.7,0.6
2026-06-30T1600,3690A,115.9718,28.7032,南昌市,外国语学校,,22,NA,5,8,3,68,68,56,56,2,4,12,11,0.8,0.7
2026-06-30T1600,4106A,115.7923,28.6873,南昌市,工业二路,,22,8,9,3,2,69,69,44,44,1,5,5,5,0.7,0.6
2026-06-30T1600,4192A,115.931587,28.686774,南昌市,南京东路235号,,24,8,8,7,4,74,74,56,56,7,9,4,4,0.6,0.6
2026-06-30T1600,1906A,106.0791,30.8022,南充市,南充市委,,28,13,22,7,13,89,89,56,56,6,11,6,6,0.2,0.3
2026-06-30T1600,1907A,106.1038,30.8215,南充市,南充炼油厂,,30,24,22,8,13,96,96,60,60,6,11,6,6,0.2,0.2
2026-06-30T1600,4227A,106.108336,30.788436,南充市,梨树横街98号,,29,13,21,9,13,90,90,67,67,6,11,7,7,0.3,0.3
2026-06-30T1600,4304A,106.1172,30.843,南充市,清泉寺北路188号,,29,11,24,10,14,92,92,59,59,7,9,7,7,0.4,0.4
2026-06-30T1600,4305A,106.067,30.7616,南充市,同庆路1号,,29,17,21,8,13,92,92,62,62,7,11,6,7,0.4,0.4
2026-06-30T1600,1151A,118.8033,32.1085,南京市,迈皋桥,,35,14,23,3,17,111,111,95,95,9,10,4,5,0.5,0.4
2026-06-30T1600,1152A,118.7487,32.057,南京市,草场门,,35,17,22,3,15,109,109,97,97,10,12,4,5,0.5,0.6
2026-06-30T1600,1154A,118.770105,32.004342,南京市,中华门,,30,6,19,3,15,93,93,86,86,6,8,6,6,0.3,0.3
2026-06-30T1600,1155A,118.8059,32.0329,南京市,瑞金路,,29,6,22,3,14,90,90,82,82,9,11,4,4,0.2,0.3
2026-06-30T1600,1156A,118.7946,32.0774,南京市,玄武湖,,29,12,28,3,14,90,90,75,75,8,9,6,6,0.4,0.4
2026-06-30T1600,1157A,118.6415,32.0964,南京市,浦口,,27,8,23,3,13,85,85,89,89,18,15,3,4,0.2,0.2
2026-06-30T1600,1158A,118.730129,32.000956,南京市,奥体中心,,30,8,26,3,14,95,95,84,84,9,11,7,8,0.9,0.9
2026-06-30T1600,1159A,118.9072,32.1047,南京市,仙林大学城,NA,NA,NA,32,0,17,109,109,99,99,4,8,6,7,0.7,0.7
2026-06-30T1600,3422A,118.8443,31.919,南京市,江宁彩虹桥,,32,8,24,3,15,101,101,98,98,7,8,4,4,0.5,0.5
2026-06-30T1600,3427A,118.8497,32.3599,南京市,六合雄州,,33,17,38,6,22,104,104,89,89,16,21,5,4,0.5,0.6
2026-06-30T1600,4086A,118.7641,32.0841,南京市,新模范马路66号,,36,9,27,3,13,114,114,102,102,6,7,5,4,0.4,0.4
2026-06-30T1600,4249A,118.8707617,31.34017673,南京市,汶溪路181号,,33,6,22,3,15,103,103,91,84,8,11,4,7,0.9,0.8
2026-06-30T1600,4312A,119.019,31.6512,南京市,中山西路1号,NA,NA,0,21,NA,16,87,87,78,78,10,11,4,4,0.5,0.5
2026-06-30T1600,1401A,108.3098,22.788,南宁市,二十一中,,20,16,17,3,8,61,61,56,56,6,7,3,2,0.7,0.7
2026-06-30T1600,1402A,108.3135,22.8529,南宁市,北湖,,23,23,19,3,11,56,56,54,54,11,8,2,2,0.6,0.6
2026-06-30T1600,1403A,108.3205,22.8222,南宁市,市监测站,,43,43,19,3,8,72,72,66,66,5,5,2,3,0.6,0.6
2026-06-30T1600,1404A,108.3828,22.8038,南宁市,大自然花园,,20,8,16,8,9,64,64,61,61,4,6,4,4,0.5,0.7
2026-06-30T1600,1406A,108.2397,22.8462,南宁市,区农职院,,23,23,18,6,12,62,62,61,61,6,8,2,2,0.9,0.9
2026-06-30T1600,1407A,108.3285,22.7356,南宁市,英华嘉园,,20,12,18,3,8,62,62,57,57,8,8,4,4,0.5,0.5
2026-06-30T1600,3401A,108.4829,22.762,南宁市,红星社区,,22,12,16,3,7,68,68,64,64,2,5,4,4,0.5,0.5
2026-06-30T1600,4132A,108.2927,23.1477,南宁市,起凤路9号,,20,9,18,3,10,64,64,63,63,7,7,5,5,0.5,0.5
2026-06-30T1600,4221A,108.2177,22.7774,南宁市,乐贤路16号,,20,11,19,3,8,64,64,59,59,6,12,4,4,0.5,0.6
2026-06-30T1600,2332A,118.1682,26.6371,南平市,南平市监测站,,18,14,15,3,5,57,57,49,49,3,7,3,4,0.3,0.4
2026-06-30T1600,2334A,118.1757,26.6276,南平市,南平七中,,18,18,17,6,5,56,56,47,47,2,5,3,3,0.3,0.3
2026-06-30T1600,1168A,120.9056,31.9669,南通市,狼山街道,,27,6,7,3,10,86,86,74,74,7,12,4,4,0.8,0.8
2026-06-30T1600,1170A,120.8635,32.0231,南通市,城中,,24,6,18,3,12,75,75,70,70,11,10,2,2,0.4,0.4
2026-06-30T1600,1171A,120.9376,31.9301,南通市,星湖花园,,26,6,11,3,10,81,81,72,72,7,13,3,4,0.4,0.4
2026-06-30T1600,1172A,120.8053,32.046,南通市,紫琅学院,,25,6,12,3,11,77,77,64,64,12,17,5,5,0.7,0.7
2026-06-30T1600,3291A,121.0631,32.0644,南通市,通州监测站,,28,6,15,3,9,87,87,78,78,4,5,5,6,0.4,0.4
2026-06-30T1600,3432A,120.9348,31.9874,南通市,环境教育馆,,25,6,17,3,10,80,80,70,70,12,15,5,5,0.5,0.5
2026-06-30T1600,4091A,120.8692,31.9885,南通市,洪江路,,25,6,12,3,10,78,78,70,70,7,10,3,3,0.7,0.7
2026-06-30T1600,2404A,112.5338,33.0086,南阳市,瓦房庄,,49,31,39,11,24,154,154,128,128,5,7,6,6,0.4,0.5
2026-06-30T1600,2405A,112.5002,32.9734,南阳市,汉画馆,,50,39,46,12,26,157,157,129,129,10,16,7,7,0.5,0.6
2026-06-30T1600,2406A,112.5778,33.0144,南阳市,气象站,,48,25,42,8,25,152,152,123,123,8,13,7,6,0.4,0.5
2026-06-30T1600,2407A,112.548,32.9687,南阳市,理工学院,,50,28,42,16,29,158,158,126,126,7,18,8,7,0.4,0.6
2026-06-30T1600,4008A,112.5233,32.9921,南阳市,卧龙区政府,,50,27,42,14,25,157,157,132,132,6,10,6,6,0.6,0.7
2026-06-30T1600,1234A,121.8352,29.9111,宁波市,区环保大楼,,23,23,22,10,11,57,57,50,50,18,26,4,4,0.6,1
2026-06-30T1600,1235A,121.5595,29.8208,宁波市,万里学院,,24,24,20,12,15,63,63,53,53,7,14,8,8,0.7,0.7
2026-06-30T1600,1236A,121.713,29.9564,宁波市,龙赛医院,,24,24,26,14,15,72,72,56,56,9,19,4,5,0.3,0.4
2026-06-30T1600,1240A,121.5855,29.8635,宁波市,太古小学,,23,23,20,15,13,59,59,53,53,12,14,4,4,0.7,0.6
2026-06-30T1600,1241A,121.5239,29.8673,宁波市,市环境监测中心,,22,22,21,13,15,53,53,46,46,12,17,5,6,0.3,0.4
2026-06-30T1600,2871A,121.6156,29.9015,宁波市,万里国际学校,,26,26,23,16,12,69,69,61,61,7,9,6,6,0.5,0.5
2026-06-30T1600,3710A,121.5593,29.8976,宁波市,白沙活动中心,,26,18,14,18,16,60,60,53,53,11,15,6,6,0.7,0.7
2026-06-30T1600,4095A,121.8962,29.7529,宁波市,中科路88号,,21,11,9,3,4,65,65,72,57,3,10,6,6,0.3,0.4
2026-06-30T1600,2341A,119.5387,26.6611,宁德市,宁德市监测站,,30,29,26,10,12,94,94,82,82,11,14,6,5,1.1,0.9
2026-06-30T1600,3209A,119.5231,26.6562,宁德市,宁德一中,,30,28,26,10,15,93,93,80,80,6,8,10,10,0.5,0.5
2026-06-30T1600,2618A,98.859,25.8541,怒江傈僳族自治州,州监测站,,20,12,23,6,11,63,63,51,51,5,10,5,6,0.4,0.5
2026-06-30T1600,2619A,98.8607,25.8168,怒江傈僳族自治州,泸水一中,,19,14,20,11,11,58,58,37,37,11,10,4,4,0.6,0.7
2026-06-30T1600,1888A,101.6891,26.571,攀枝花市,弄弄坪,颗粒物(PM10),61,65,43,12,11,72,72,57,57,16,16,3,5,0.4,0.8
2026-06-30T1600,1889A,101.577,26.5914,攀枝花市,河门口,,25,25,33,8,12,70,70,60,60,11,12,7,14,0.6,0.9
2026-06-30T1600,1891A,101.7365,26.4986,攀枝花市,仁和,,26,21,20,12,12,70,70,62,62,20,10,29,7,2.6,0.9
2026-06-30T1600,2835A,101.7222,26.567,攀枝花市,四十中小,,21,21,19,3,9,60,60,58,58,21,15,9,12,0.7,1.1
2026-06-30T1600,1604A,122.0303,41.1489,盘锦市,开发区,颗粒物(PM10),54,55,21,22,18,126,126,120,120,12,7,10,9,0.3,0.3
2026-06-30T1600,1605A,122.0486,41.0883,盘锦市,兴隆台,,42,42,24,15,14,114,114,106,106,13,11,8,6,0.5,0.5
2026-06-30T1600,1606A,121.8297,41.1026,盘锦市,新生街道,,35,27,20,19,15,109,109,104,104,10,10,6,7,0.4,0.4
2026-06-30T1600,1832A,113.3257,33.7423,平顶山市,新华旅馆,臭氧1小时(O3_1h),84,43,63,21,31,187,187,167,167,11,21,3,4,0.6,0.7
2026-06-30T1600,1833A,113.2917,33.737,平顶山市,规划设计院,臭氧1小时(O3_1h),78,35,50,26,29,182,182,153,153,12,18,7,7,0.4,0.6
2026-06-30T1600,1834A,113.182,33.7738,平顶山市,平顶山工学院,臭氧1小时(O3_1h),82,29,40,22,28,185,185,140,140,8,14,6,7,0.4,0.4
2026-06-30T1600,3594A,112.8736,33.9068,平顶山市,石龙区,臭氧1小时(O3_1h),93,52,57,30,33,194,194,151,151,9,19,8,9,0.7,0.7
2026-06-30T1600,4116A,113.284,33.7139,平顶山市,姚电大道23号,臭氧1小时(O3_1h),84,37,57,21,31,187,187,148,148,15,25,8,10,0.5,0.7
2026-06-30T1600,2656A,106.6633,35.5338,平凉市,聚贤嘉苑,,44,38,45,7,16,138,138,117,117,6,22,6,8,0.4,0.6
2026-06-30T1600,2657A,106.7021,35.5307,平凉市,博物馆,,45,24,46,3,16,144,144,121,121,5,22,7,7,0.3,0.5
2026-06-30T1600,2348A,113.8384,27.6436,萍乡市,中医院,,26,26,32,6,19,60,60,52,52,9,11,6,9,0.6,0.8
2026-06-30T1600,2350A,113.8677,27.6438,萍乡市,市环保局,,21,15,27,9,23,66,66,64,64,7,11,12,14,0.4,0.6
2026-06-30T1600,2351A,113.8663,27.6202,萍乡市,安源区政府,,23,23,32,12,25,58,58,52,52,7,12,12,16,0.5,0.6
2026-06-30T1600,4107A,113.8686,27.6668,萍乡市,联洪村委会,,19,14,32,9,22,60,60,57,57,7,8,6,8,0.4,0.5
2026-06-30T1600,2319A,119.0142,25.4324,莆田市,荔城区仓后路,,22,19,23,3,4,70,70,71,71,6,12,/,/,/,/
2026-06-30T1600,2320A,119.0016,25.4553,莆田市,莆田市监测站,,24,16,21,3,2,75,75,72,72,4,4,4,3,0.3,0.3
2026-06-30T1600,2321A,119.112,25.4561,莆田市,涵江区六中,,24,19,22,6,7,74,74,76,76,6,13,/,/,0.3,0.4
2026-06-30T1600,2322A,119.1014,25.3215,莆田市,秀屿区政府,,21,21,23,3,4,62,62,71,71,4,8,6,5,0.4,0.5
2026-06-30T1600,2392A,115.0312,35.7636,濮阳市,环保局,臭氧1小时(O3_1h),65,47,72,27,45,172,172,122,122,6,15,5,4,0.5,0.7
2026-06-30T1600,3021A,115,35.7667,濮阳市,濮水河管理处,臭氧1小时(O3_1h),73,51,79,32,45,178,178,123,123,1,14,5,5,0.5,0.6
2026-06-30T1600,4118A,115.0552,35.7816,濮阳市,中原东路68号,臭氧1小时(O3_1h),72,58,102,31,43,177,177,128,128,7,16,4,7,0.4,0.5
2026-06-30T1600,4216A,115.0923632,35.76857718,濮阳市,任丘路479号,臭氧1小时(O3_1h),83,53,94,29,47,186,186,134,134,5,15,3,5,0.6,0.8
2026-06-30T1600,2601A,100.9801,22.7634,普洱市,市环保局,,24,24,27,10,10,67,67,74,73,7,6,5,5,0.7,0.7
2026-06-30T1600,2602A,100.9763,22.8237,普洱市,普洱第二中学,,20,18,24,14,10,62,62,70,70,5,6,9,8,0.7,0.8
2026-06-30T1600,3345A,131.0413,45.7795,七台河市,中波台,,40,NA,14,3,11,125,125,117,117,4,15,4,4,0.3,0.4
2026-06-30T1600,3637A,131.0136,45.7688,七台河市,人民广场,,38,10,25,3,8,119,119,119,119,4,13,8,8,0.3,0.4
2026-06-30T1600,3684A,130.8639,45.8144,七台河市,新建矿广场,,39,17,29,7,11,124,124,109,109,6,20,3,5,0,0.1
2026-06-30T1600,1779A,123.9307,47.3641,齐齐哈尔市,安居小区,,45,28,30,14,17,144,144,146,146,11,14,4,4,0.6,0.5
2026-06-30T1600,1780A,123.9497,47.3389,齐齐哈尔市,中心广场,,43,37,38,9,16,136,136,136,136,13,14,4,4,0.5,0.4
2026-06-30T1600,1781A,123.9483,47.3229,齐齐哈尔市,农牧车辆厂,颗粒物(PM10),53,53,44,24,22,144,144,145,145,12,14,5,4,0.2,0.3
2026-06-30T1600,1783A,123.9442,47.2994,齐齐哈尔市,市环境监测站,,45,33,30,30,26,142,142,130,130,7,13,3,3,0.4,0.4
2026-06-30T1600,3662A,123.6341,47.2079,齐齐哈尔市,富区青少年活动中心,,47,37,43,21,23,149,149,142,142,9,17,4,5,0.3,0.4
2026-06-30T1600,2591A,107.9765,26.5724,黔东南苗族侗族自治州,市环境监测站,,15,10,21,3,18,46,46,57,52,9,6,2,2,0.6,0.6
2026-06-30T1600,2881A,107.8909,26.531,黔东南苗族侗族自治州,凯里学院,NA,NA,NA,13,3,15,54,54,60,56,8,7,3,3,NA,0.5
2026-06-30T1600,2593A,107.5223,26.2371,黔南布依族苗族自治州,小围寨,,18,NA,15,12,14,29,29,28,24,11,10,5,4,0.6,0.6
2026-06-30T1600,3538A,107.5175,26.2977,黔南布依族苗族自治州,沙坝,NA,NA,7,19,NA,13,20,20,23,14,8,8,4,3,0.6,0.5
2026-06-30T1600,2589A,104.9022,25.0943,黔西南布依族苗族自治州,场坝街,,25,NA,12,12,6,80,80,72,72,9,7,6,8,0.3,0.3
2026-06-30T1600,2590A,104.8812,25.0994,黔西南布依族苗族自治州,坪东大道,,24,14,16,3,7,75,75,67,67,8,9,9,7,0.3,0.3
2026-06-30T1600,2502A,108.6238,21.9667,钦州市,市环保站,,14,6,14,3,7,44,44,49,49,16,10,5,5,0.6,0.7
2026-06-30T1600,2503A,108.655,21.9481,钦州市,沙埠小学,,15,7,22,3,12,48,48,50,50,10,9,4,5,0.6,0.6
2026-06-30T1600,2504A,108.5989,21.7435,钦州市,港区一小,NA,NA,15,26,9,15,NA,NA,46,46,20,16,4,5,0.5,0.5
2026-06-30T1600,3404A,108.5959,21.9634,钦州市,北职校,,18,NA,18,10,10,56,56,57,57,14,9,11,5,0.6,0.5
2026-06-30T1600,1046A,119.5247,39.9346,秦皇岛市,建设大厦,,46,46,47,26,20,113,113,87,87,4,19,6,6,0.3,0.3
2026-06-30T1600,3132A,119.5979,39.938,秦皇岛市,文明里,,44,44,45,18,19,108,108,86,86,10,15,7,6,0.2,0.2
2026-06-30T1600,4066A,119.7458,39.9952,秦皇岛市,南园路157号,,38,38,36,19,19,101,101,81,81,5,15,8,8,0.2,0.2
2026-06-30T1600,4067A,119.5131,39.8858,秦皇岛市,翠岛大街1号,,35,29,27,22,18,110,110,87,87,5,13,4,4,0.3,0.3
2026-06-30T1600,4198A,119.509013,39.825305,秦皇岛市,北戴河轮滑馆,,38,30,37,20,18,121,121,94,94,4,9,10,10,0.3,0.3
2026-06-30T1600,1310A,120.404,36.0625,青岛市,市南区东部子站,,24,12,19,8,11,75,75,72,72,2,7,5,6,0.2,0.2
2026-06-30T1600,1311A,120.362344,36.10282,青岛市,四方区子站,,27,7,18,3,11,85,85,89,82,3,6,8,8,0.6,0.6
2026-06-30T1600,1312A,120.294373,36.054183,青岛市,市南区西部子站,,24,7,15,3,8,76,76,84,78,16,15,5,5,0.5,0.4
2026-06-30T1600,1313A,120.4581,36.0858,青岛市,崂山区子站,,28,17,22,7,11,88,88,86,82,5,6,6,6,0.3,0.3
2026-06-30T1600,1315A,120.3945,36.3083,青岛市,城阳区子站,臭氧1小时(O3_1h),52,9,22,3,15,161,161,104,104,3,3,7,7,0.3,0.3
2026-06-30T1600,3642A,120.3454,36.0735,青岛市,市北区南部,,26,16,23,3,9,81,81,88,79,9,9,1,2,0.6,0.7
2026-06-30T1600,3643A,120.3897,36.18,青岛市,李沧区北部,,25,7,14,3,12,79,79,76,65,10,10,6,6,0.4,0.4
2026-06-30T1600,4110A,120.5222,36.4089,青岛市,盟旺路653号,,47,22,23,3,13,148,148,104,104,8,5,6,6,0.7,0.7
2026-06-30T1600,4290A,120.196923,35.954556,青岛市,珠江路669号,,26,17,20,8,9,82,82,86,72,7,9,4,4,0.3,0.3
2026-06-30T1600,4291A,120.0424,35.8656,青岛市,黄岛区人民政府广场,,27,12,19,6,8,85,85,86,81,6,7,5,5,0.5,0.5
2026-06-30T1600,1703A,113.0218,23.7086,清远市,凤城街办,,30,8,20,8,14,95,95,74,74,9,16,/,/,/,/
2026-06-30T1600,3025A,113.0479,23.6343,清远市,技师学院,,28,8,21,6,12,87,87,75,75,17,19,4,5,0.4,0.4
2026-06-30T1600,3318A,112.9898,23.7403,清远市,清新太和,,33,21,22,15,14,104,104,88,88,12,12,5,7,0.4,0.5
2026-06-30T1600,3455A,113.076,23.72,清远市,清城东城,,29,20,24,7,12,92,92,72,72,11,13,/,/,/,/
2026-06-30T1600,2661A,107.6325,35.7357,庆阳市,庆阳五中,,50,50,44,21,17,139,139,137,137,8,9,6,5,0.4,0.4
2026-06-30T1600,2662A,107.6361,35.7067,庆阳市,市环保局,,44,44,41,20,16,131,131,128,128,10,10,6,6,0.4,0.4
2026-06-30T1600,1916A,103.7897,25.5036,曲靖市,环境监测站,,26,26,20,11,9,74,74,70,70,6,10,2,7,0.4,0.6
2026-06-30T1600,1917A,103.8013,25.5357,曲靖市,烟厂办公区,,23,15,16,8,8,73,73,69,69,5,8,2,7,0.5,0.8
2026-06-30T1600,3376A,103.7926,25.4651,曲靖市,南苑二区,,24,18,17,6,9,76,76,72,72,8,12,4,5,0.5,0.6
2026-06-30T1600,3377A,103.7442,25.5259,曲靖市,曲靖师范学院,,25,NA,19,12,11,77,77,76,76,6,11,3,5,0.4,0.6
2026-06-30T1600,1264A,118.8694,28.94,衢州市,环保大楼,,17,17,18,11,10,54,54,29,29,15,16,/,/,/,/
2026-06-30T1600,1266A,118.8622,28.9809,衢州市,衢州学院,,20,15,14,10,10,62,62,35,35,14,18,3,2,0.5,0.5
2026-06-30T1600,4097A,118.9646,28.9832,衢州市,衢州三中,,22,13,15,12,13,68,68,33,33,13,20,3,3,0.8,0.7
2026-06-30T1600,1611A,118.5818,24.9116,泉州市,涂山街,,18,16,25,6,8,57,57,61,61,2,16,2,3,0.5,0.6
2026-06-30T1600,1612A,118.597,24.8976,泉州市,津头埔,,17,15,20,7,9,54,54,59,59,6,16,2,2,0.1,0.2
2026-06-30T1600,1613A,118.6669,24.9422,泉州市,万安,,18,16,24,3,8,57,57,62,62,6,17,3,3,0.3,0.3
2026-06-30T1600,4105A,118.6355,24.9148,泉州市,霞新路6号,,20,14,21,3,8,62,62,67,67,4,14,/,/,0.3,0.3
2026-06-30T1600,2626A,88.8873,29.2723,日喀则市,日喀则监测站,,43,6,5,3,2,136,136,140,134,4,4,9,8,0.4,0.4
2026-06-30T1600,3726A,88.8775,29.2425,日喀则市,林业技术推广中心,,44,6,3,3,1,140,140,141,137,2,2,8,8,0.3,0.3
2026-06-30T1600,1659A,119.4711,35.421,日照市,监测站,,26,9,26,3,19,83,83,80,80,6,12,7,8,0.2,0.3
2026-06-30T1600,1660A,119.523,35.4216,日照市,市政府广场,,25,12,23,3,16,80,80,77,77,2,4,8,8,0.4,0.4
2026-06-30T1600,1661A,119.5511,35.4113,日照市,港务局,,24,17,19,3,10,75,75,80,76,4,7,5,5,0.7,0.7
2026-06-30T1600,3507A,119.5326,35.4627,日照市,职业技术学院,,26,9,24,3,11,82,82,84,82,2,4,7,7,0.4,0.4
2026-06-30T1600,3604A,119.3267,35.1043,日照市,岚山环保分局,,26,14,33,3,17,83,83,87,87,2,7,8,9,0.6,0.7
2026-06-30T1600,1835A,111.1922,34.7752,三门峡市,市政府,NA,NA,NA,32,13,15,126,126,113,113,4,7,5,8,1.0,0.7
2026-06-30T1600,1836A,111.1588,34.794,三门峡市,开发区,,40,18,29,15,18,127,127,114,114,5,9,6,6,0.4,0.4
2026-06-30T1600,3039A,111.1911,34.7829,三门峡市,三门峡市第一小学,,41,34,28,15,16,131,131,116,116,2,5,9,8,0.6,0.6
2026-06-30T1600,3598A,111.1031,34.719,三门峡市,富达温泉假日酒店,,44,29,38,7,20,138,138,112,112,8,10,7,8,0.8,0.9
2026-06-30T1600,2324A,117.621,26.2626,三明市,三钢,,27,17,17,7,8,47,47,60,60,12,10,19,7,2.7,0.8
2026-06-30T1600,2325A,117.6352,26.2714,三明市,三明二中,,16,12,18,3,8,49,49,61,61,8,8,8,4,0.8,0.7
2026-06-30T1600,2326A,117.6028,26.2377,三明市,三元区政府,,17,11,19,3,9,52,52,52,52,5,8,6,8,0.4,0.8
2026-06-30T1600,1877A,109.4962,18.2682,三亚市,河西子站,,23,14,15,10,9,72,72,66,66,18,7,3,3,0.2,0.2
2026-06-30T1600,3540A,109.7348,18.3443,三亚市,君悦子站,,36,36,23,11,7,84,84,60,60,8,7,2,2,0.4,0.3
2026-06-30T1600,4135A,109.1714,18.3739,三亚市,城东小学站,,25,14,17,7,9,77,77,73,73,4,5,/,/,/,/
2026-06-30T1600,2624A,91.7592,29.234,山南市,山南监测站,,44,6,4,3,2,138,138,121,121,2,5,7,7,0.2,0.3
2026-06-30T1600,2625A,91.7701,29.2436,山南市,山南人民医院,,44,6,9,3,3,138,138,125,125,2,2,5,5,0.2,0.2
2026-06-30T1600,1674A,116.6795,23.3666,汕头市,金平子站,,21,20,13,6,5,65,65,59,59,4,7,3,3,0.4,0.5
2026-06-30T1600,1675A,116.7248,23.3632,汕头市,龙湖子站,,21,16,12,8,6,66,66,59,59,2,5,6,6,/,/
2026-06-30T1600,1676A,116.7257,23.2774,汕头市,濠江子站,,22,19,15,7,6,68,68,55,55,6,11,8,8,/,/
2026-06-30T1600,1677A,116.7518,23.4712,汕头市,澄海子站,,20,18,15,10,6,64,64,57,57,2,6,3,4,0.4,0.5
2026-06-30T1600,1678A,116.6088,23.2539,汕头市,潮阳子站,,19,15,11,3,7,58,58,52,52,2,7,6,6,0.7,0.8
2026-06-30T1600,3444A,116.4539,23.2684,汕头市,潮南峡山,,20,8,15,3,8,61,61,61,61,2,8,7,7,0.5,0.6
2026-06-30T1600,3624A,116.4069,23.2533,汕头市,潮南子站,,15,8,16,3,7,48,48,52,52,2,9,6,6,/,/
2026-06-30T1600,1693A,115.3653,22.7751,汕尾市,市环保局,,21,8,12,3,5,65,65,58,58,2,6,5,5,0.6,0.6
2026-06-30T1600,1695A,115.362,22.7926,汕尾市,新城中学,,22,6,10,3,4,68,68,59,59,1,4,5,6,0.5,0.5
2026-06-30T1600,2645A,109.9155,33.8714,商洛市,监测站,,40,19,20,13,11,126,126,120,120,5,6,7,6,0.9,0.9
2026-06-30T1600,3045A,109.9647,33.8486,商洛市,商州区中学,,38,22,22,11,10,121,121,110,110,6,7,6,6,0.8,0.8
2026-06-30T1600,2408A,115.6701,34.4283,商丘市,环境监测站,臭氧1小时(O3_1h),97,71,75,46,43,197,197,171,171,6,9,4,5,0.6,0.6
2026-06-30T1600,2409A,115.6458,34.4047,商丘市,粮食局,臭氧1小时(O3_1h),92,67,69,40,42,193,193,166,166,6,9,3,4,0.6,0.6
2026-06-30T1600,3171A,115.6069,34.4465,商丘市,梁园区档案局,臭氧1小时(O3_1h),72,46,61,37,40,177,177,159,159,5,8,2,3,0.8,0.8
2026-06-30T1600,4119A,115.6701,34.3767,商丘市,北海东路185号,臭氧1小时(O3_1h),92,NA,58,49,40,193,193,163,163,9,14,4,4,0.6,0.6
2026-06-30T1600,4120A,115.6172,34.3704,商丘市,中山大街3号,臭氧1小时(O3_1h),78,43,69,38,35,182,182,158,158,5,10,6,7,0.7,0.6
2026-06-30T1600,1141A,121.401,31.2382,上海市,普陀,,18,14,18,12,14,56,56,57,57,24,19,5,5,0.2,0.2
2026-06-30T1600,1142A,121.4774,31.2043,上海市,十五厂,,20,16,20,14,17,50,50,53,52,21,17,5,6,0.5,0.5
2026-06-30T1600,1143A,121.4673,31.3011,上海市,虹口,NA,NA,14,19,11,14,47,47,52,52,20,16,3,3,NA,0.9
2026-06-30T1600,1147A,121.4253,31.226,上海市,静安监测站,,20,14,15,14,15,53,53,56,56,23,18,8,8,0.5,0.6
2026-06-30T1600,1148A,121.7029,31.1905,上海市,浦东川沙,,23,15,20,15,15,71,71,70,70,18,17,8,9,0.9,0.8
2026-06-30T1600,1149A,121.5339,31.229,上海市,浦东新区监测站,,19,13,17,13,13,54,54,54,54,14,12,6,6,0.5,0.5
2026-06-30T1600,1150A,121.5776,31.2038,上海市,浦东张江,,22,15,18,14,13,70,70,69,69,17,14,6,6,0.3,0.3
2026-06-30T1600,3265A,121.4242,31.3303,上海市,宝山庙行,,18,15,22,11,14,56,56,54,54,17,17,10,10,0.3,0.3
2026-06-30T1600,3266A,121.8789,31.4662,上海市,崇明上实东滩,,16,7,15,7,14,50,50,87,84,30,12,9,9,0.3,0.2
2026-06-30T1600,3268A,121.316,31.2839,上海市,嘉定南翔,,15,10,15,10,12,46,46,53,52,28,22,5,5,0.2,0.2
2026-06-30T1600,3269A,121.3357,30.7455,上海市,金山新城,,36,30,21,25,15,111,111,62,62,16,14,4,4,0.8,0.7
2026-06-30T1600,3270A,121.4996,31.0741,上海市,闵行浦江,,29,21,19,20,16,69,69,54,54,14,15,6,6,0.4,0.4
2026-06-30T1600,3271A,121.2886,31.1663,上海市,青浦徐泾,,18,14,21,12,14,50,50,49,49,15,14,5,5,0.5,0.5
2026-06-30T1600,3272A,121.2193,31.0382,上海市,松江图书馆,,23,23,22,15,17,71,71,54,54,5,12,6,7,0.4,0.5
2026-06-30T1600,3273A,121.3904,31.206,上海市,长宁仙霞,,16,14,17,11,13,36,36,48,46,25,17,7,7,0.3,0.3
2026-06-30T1600,3274A,121.7964,31.0507,上海市,浦东惠南,,26,17,17,17,15,82,82,75,75,27,17,8,8,0.8,0.8
2026-06-30T1600,3544A,121.4891,30.925,上海市,奉贤南桥新城,,30,22,21,15,17,94,94,66,66,24,21,7,6,0.6,0.5
2026-06-30T1600,4183A,121.417401,31.16637,上海市,冠生园路458号,,19,16,19,13,13,41,41,48,47,25,20,4,5,0.6,0.6
2026-06-30T1600,4205A,121.541914,31.268301,上海市,宁武路151号,,17,17,26,11,15,48,48,49,49,34,28,7,7,0.5,0.4
2026-06-30T1600,2382A,117.9758,28.4439,上饶市,市监测站,,34,34,32,13,18,69,69,52,52,11,11,11,10,/,/
2026-06-30T1600,2383A,117.9521,28.4637,上饶市,凤凰光学,,21,20,26,10,17,67,67,55,55,6,11,9,9,0.7,0.7
2026-06-30T1600,3685A,117.897,28.4316,上饶市,双创科技城,,25,25,29,8,17,60,60,52,52,7,14,7,8,0.5,0.6
2026-06-30T1600,4211A,118.190438,28.444845,上饶市,裕丰大道,,14,9,25,3,9,44,44,37,37,5,10,10,10,0.5,0.6
2026-06-30T1600,1669A,113.5821,24.7733,韶关市,市八中,,27,13,23,6,13,84,84,88,88,6,12,3,14,0.5,0.7
2026-06-30T1600,1671A,113.5916,24.7973,韶关市,园林处,,25,8,18,3,12,79,79,81,81,8,14,6,11,/,/
2026-06-30T1600,1673A,113.5971,24.6864,韶关市,曲江监测站,,26,12,25,9,16,83,83,82,82,9,16,6,10,0.9,1
2026-06-30T1600,2809A,113.6668,24.7756,韶关市,大学路288号,,30,18,28,9,15,96,96,90,90,7,8,11,14,/,/
2026-06-30T1600,3622A,113.5556,24.8082,韶关市,碧湖山庄,,25,20,25,10,11,77,77,82,82,9,11,3,3,0.4,0.6
2026-06-30T1600,2464A,111.5277,27.2442,邵阳市,市化工厂,,25,NA,35,17,38,70,70,68,68,6,5,4,4,0.4,0.6
2026-06-30T1600,2466A,111.4327,27.2276,邵阳市,市环保局,,26,26,36,16,38,62,62,65,61,2,5,3,3,0.7,0.9
2026-06-30T1600,4218A,111.446,27.2472,邵阳市,北塔二期4-26地块,,20,18,43,3,27,63,63,59,59,7,8,4,5,0.8,1
2026-06-30T1600,4219A,111.4739,27.2282,邵阳市,邵水西路287号,,30,24,36,21,37,63,63,64,64,4,5,2,2,0.4,0.6
2026-06-30T1600,1247A,120.6053,29.9927,绍兴市,城东开发委,,15,14,11,8,5,48,48,37,37,7,9,8,8,0.4,0.3
2026-06-30T1600,2921A,120.5482,30.0003,绍兴市,树下王站,,16,13,11,11,8,47,47,37,37,7,10,8,8,0.4,0.4
2026-06-30T1600,3408A,120.5685,29.936,绍兴市,绍兴中专,,14,13,13,6,5,44,44,35,35,5,10,5,5,0.5,0.5
2026-06-30T1600,3409A,120.4905,30.086,绍兴市,柯桥区政府,,17,11,14,10,10,52,52,40,40,4,9,5,5,0.5,0.5
2026-06-30T1600,3410A,120.8751,30.0249,绍兴市,重华小学,,23,20,14,16,9,52,52,38,38,12,12,9,9,0.6,0.7
2026-06-30T1600,3411A,120.837,30.0137,绍兴市,上虞中学,,20,16,15,14,10,47,47,41,41,5,9,7,7,0.5,0.5
2026-06-30T1600,3560A,120.4715,30.0414,绍兴市,柯桥妇保,,17,11,15,9,8,54,54,38,38,6,12,5,5,0.4,0.5
2026-06-30T1600,3658A,120.6156,30.0762,绍兴市,袍江中学,,18,12,11,12,10,53,53,40,40,6,12,5,6,0.4,0.5
2026-06-30T1600,1356A,114.0948,22.5506,深圳市,通心岭子站,NA,NA,NA,3,NA,0,76,76,63,63,6,9,2,3,0.6,0.7
2026-06-30T1600,1357A,114.1153,22.5713,深圳市,洪湖,,24,6,13,3,6,74,74,60,60,1,9,5,6,0.3,0.3
2026-06-30T1600,1358A,113.9823,22.5398,深圳市,华侨城,,23,13,13,3,6,72,72,63,63,6,14,/,/,/,/
2026-06-30T1600,1359A,113.9181,22.517,深圳市,南海子站,,22,7,13,3,6,70,70,66,66,2,10,4,4,0.7,0.8
2026-06-30T1600,1360A,114.2345,22.565,深圳市,盐田,,19,9,10,3,3,58,58,44,44,14,17,6,6,0.2,0.2
2026-06-30T1600,1363A,114.4911,22.5381,深圳市,南澳,,20,9,12,3,3,61,61,63,63,2,4,/,/,/,/
2026-06-30T1600,1364A,114.41,22.6346,深圳市,葵涌,,21,10,12,3,4,65,65,63,63,5,9,6,6,0.6,0.6
2026-06-30T1600,1365A,114.2967,22.5978,深圳市,梅沙,,23,7,10,3,4,73,73,67,67,2,4,/,/,/,/
2026-06-30T1600,1366A,114.0563,22.7353,深圳市,观澜,,28,9,20,3,11,89,89,79,79,9,21,6,6,0.5,0.6
2026-06-30T1600,3305A,114.0614,22.556,深圳市,莲花,,22,11,13,7,6,68,68,48,48,8,10,/,/,/,/
