timepoint,stationcode,longitude,latitude,area,positionname,primarypollutant,aqi,pm10,pm10_24h,pm2_5,pm2_5_24h,o3,o3_24h,o3_8h,o3_8h_24h,no2,no2_24h,so2,so2_24h,co,co_24h
2026-06-30T1200,2568A,102.2503,31.8896,阿坝藏族羌族自治州,马师校,,26,23,24,9,8,83,83,42,42,4,7,4,3,0.3,0.3
2026-06-30T1200,3994A,102.2174,31.9016,阿坝藏族羌族自治州,马尔康中学西区,,25,NA,12,6,8,80,80,44,44,5,6,2,2,0.2,0.2
2026-06-30T1200,2695A,80.2899,41.1684,阿克苏地区,电视台,颗粒物(PM10),65,70,55,20,18,124,124,76,76,6,18,3,3,0.7,0.8
2026-06-30T1200,2696A,80.2592,41.1541,阿克苏地区,艺术中心,颗粒物(PM10),56,58,47,34,26,110,110,65,65,10,13,5,4,0.7,0.8
2026-06-30T1200,2205A,105.699,38.8409,阿拉善盟,蒙二幼,,43,25,29,6,10,135,135,109,109,3,4,11,10,0.3,0.3
2026-06-30T1200,2206A,105.7198,38.8508,阿拉善盟,环保局新楼,,41,22,29,3,13,130,130,112,112,3,6,9,9,0.4,0.4
2026-06-30T1200,2708A,88.1266,47.8515,阿勒泰地区,市站,,32,31,27,3,5,102,102,84,84,14,12,7,7,0.4,0.3
2026-06-30T1200,4166A,88.1198,47.7931,阿勒泰地区,阿勒泰路33号,,32,25,24,3,4,100,100,80,80,6,7,7,6,0.4,0.4
2026-06-30T1200,2630A,80.1171,32.4999,阿里地区,阿里监测站,,46,14,11,3,3,147,147,136,136,3,4,4,4,0.2,0.2
2026-06-30T1200,3192A,80.0906,32.5029,阿里地区,阿里藏医院,,47,14,10,3,3,150,150,140,137,2,2,6,7,0.5,0.5
2026-06-30T1200,2644A,109.0088,32.6974,安康市,汉滨区检察院,,23,23,24,10,13,71,71,35,35,5,6,2,2,0.4,0.4
2026-06-30T1200,4054A,109.0324,32.6913,安康市,市邮政管理局,,27,23,22,10,16,84,84,44,44,4,6,1,3,0.6,0.6
2026-06-30T1200,2291A,117.0806,30.5181,安庆市,环科院,,25,18,21,7,13,80,80,94,84,8,7,8,9,0.5,0.6
2026-06-30T1200,2292A,117.0331,30.5118,安庆市,马山宾馆,,25,24,21,17,16,48,48,96,80,38,11,3,3,0.5,0.6
2026-06-30T1200,2294A,116.9897,30.6146,安庆市,安庆大学,,25,8,24,3,15,79,79,80,76,1,8,2,3,0.4,0.5
2026-06-30T1200,3173A,117.0598,30.5351,安庆市,市人大,,27,13,20,8,14,85,85,98,86,9,7,6,5,0.5,0.6
2026-06-30T1200,3123A,105.9408,26.2431,安顺市,凤凰山,,21,19,12,6,9,66,66,51,51,8,7,9,7,0.6,0.4
2026-06-30T1200,3124A,105.9443,26.2567,安顺市,金钟山,,23,NA,9,16,9,64,64,47,47,5,6,11,8,0.5,0.4
2026-06-30T1200,3125A,105.8983,26.248,安顺市,娄家坡,,23,NA,11,12,9,73,73,50,50,4,6,6,11,0.7,0.7
2026-06-30T1200,1819A,114.3552,36.1017,安阳市,红庙街,"细颗粒物(PM2.5),臭氧1小时(O3_1h)",70,70,56,45,31,176,176,89,89,7,13,16,10,1.2,1.2
2026-06-30T1200,1820A,114.361,36.0681,安阳市,银杏小区,臭氧1小时(O3_1h),75,69,54,42,33,180,180,95,95,6,11,8,5,1.1,0.9
2026-06-30T1200,3141A,114.3921,36.0879,安阳市,信访局,臭氧1小时(O3_1h),83,77,55,49,35,186,186,98,98,6,13,9,7,1.2,1.1
2026-06-30T1200,3669A,114.4706,36.0634,安阳市,左辅环卫站,颗粒物(PM10),67,73,67,38,36,157,157,72,72,11,20,9,6,1.4,1.3
2026-06-30T1200,4117A,114.2918,36.0769,安阳市,钢三路198号,颗粒物(PM10),86,100,62,49,31,161,161,80,80,13,14,15,6,1.5,1
2026-06-30T1200,1748A,123.0441,41.1201,鞍山市,深沟寺,,27,13,18,8,12,86,86,75,75,4,6,6,6,0.5,0.5
2026-06-30T1200,1749A,123.011,41.0931,鞍山市,太阳城,,28,12,20,8,13,88,88,71,71,6,7,7,7,0.6,0.7
2026-06-30T1200,1750A,123.0483,41.1445,鞍山市,太平,,28,18,24,9,12,87,87,74,74,10,11,7,7,0.7,0.6
2026-06-30T1200,1751A,122.964,41.0968,鞍山市,铁西三道街,,32,23,24,13,14,100,100,85,85,8,12,6,5,1.0,0.7
2026-06-30T1200,1753A,123.0219,41.0822,鞍山市,明达新区,,29,13,19,8,12,91,91,79,79,5,7,5,6,0.5,0.6
2026-06-30T1200,4201A,122.944647,41.082639,鞍山市,兴盛南路290号,,31,22,35,11,15,97,97,81,81,10,13,7,7,0.8,0.6
2026-06-30T1200,2195A,107.4206,40.7609,巴彦淖尔市,附二中,,43,31,41,16,16,135,135,105,101,6,9,12,14,0.6,0.6
2026-06-30T1200,2196A,107.37,40.7372,巴彦淖尔市,市环保大楼,,44,34,40,14,12,138,138,113,105,5,8,9,10,0.5,0.5
2026-06-30T1200,1956A,86.1476,41.7529,巴音郭楞蒙古自治州,孔雀公园,颗粒物(PM10),75,84,33,15,8,105,105,88,88,12,14,6,5,0.3,0.2
2026-06-30T1200,1957A,86.1971,41.7166,巴音郭楞蒙古自治州,棉纺厂,NA,NA,NA,NA,NA,NA,NA,NA,90,NA,NA,NA,NA,NA,NA,NA
2026-06-30T1200,1958A,86.236,41.7172,巴音郭楞蒙古自治州,经济开发区,颗粒物(PM10),53,54,18,9,8,100,100,104,101,19,7,4,2,0.2,0.1
2026-06-30T1200,3181A,106.776805,31.852614,巴中市,市五中,,26,21,20,18,14,81,81,66,58,6,7,10,8,0.7,0.7
2026-06-30T1200,3183A,106.7419,31.8654,巴中市,圣泉水务公司,,27,22,21,16,15,85,85,57,55,6,10,12,9,0.5,0.6
2026-06-30T1200,3616A,106.7617,31.8343,巴中市,市中心医院,,30,30,26,18,16,88,88,53,53,4,8,10,7,0.7,0.7
2026-06-30T1200,2235A,122.7909,45.608,白城市,洮北区环保局,,40,26,29,15,19,125,125,109,106,4,6,4,4,0.3,0.3
2026-06-30T1200,2236A,122.8741,45.5725,白城市,市环保局,,40,19,19,16,18,128,128,107,105,6,9,6,3,0.3,0.3
2026-06-30T1200,2231A,126.4219,41.9172,白山市,喜丰,,41,21,50,3,10,130,130,64,64,6,22,13,13,0.5,0.6
2026-06-30T1200,2232A,126.4082,41.9416,白山市,环保局,,40,17,21,6,7,125,125,70,70,5,8,10,11,0.3,0.3
2026-06-30T1200,2647A,104.1727,36.5448,白银市,第三小学,,38,37,39,9,14,121,121,77,77,8,16,13,15,0.3,0.5
2026-06-30T1200,2648A,104.1467,36.5482,白银市,动力公司,,39,32,34,11,13,123,123,80,80,4,14,13,8,0.4,0.4
2026-06-30T1200,2512A,106.6102,23.901,百色市,市监测站,,14,6,22,3,12,43,43,37,36,6,10,7,11,0.3,0.4
2026-06-30T1200,2513A,106.6524,23.8842,百色市,市中心血站,,15,NA,24,3,16,45,45,45,40,6,7,7,12,0.4,0.6
2026-06-30T1200,4133A,106.6273,23.8798,百色市,龙景西路,,14,14,27,3,16,44,44,36,34,9,12,10,13,0.7,0.8
2026-06-30T1200,2270A,117.396,32.9389,蚌埠市,工人疗养院,,39,16,50,3,33,122,122,96,96,6,13,4,5,0.3,0.5
2026-06-30T1200,2271A,117.3606,32.9428,蚌埠市,百货大楼,,38,14,45,3,30,120,120,98,98,5,10,7,8,0.5,0.7
2026-06-30T1200,2273A,117.4183,32.8909,蚌埠市,蚌埠学院,,39,7,41,3,34,122,122,97,97,2,7,5,5,0.3,0.5
2026-06-30T1200,2274A,117.3534,32.9672,蚌埠市,淮上区政府,,40,14,47,3,31,126,126,102,101,5,12,5,6,0.3,0.5
2026-06-30T1200,2275A,117.3143,32.8977,蚌埠市,高新区,,38,7,46,3,35,119,119,95,95,5,10,8,8,0.3,0.5
2026-06-30T1200,3715A,117.3091,32.9314,蚌埠市,蚌埠田家炳中学,,39,22,50,3,37,124,124,101,101,5,8,7,7,0.5,0.6
2026-06-30T1200,1585A,109.8761,40.6533,包头市,市环境监测站,臭氧1小时(O3_1h),52,37,25,11,14,161,161,96,96,12,21,12,10,0.5,0.4
2026-06-30T1200,1587A,109.9992,40.5843,包头市,包头八中,,43,37,33,24,18,136,136,101,101,16,19,22,18,0.7,0.5
2026-06-30T1200,1589A,109.8641,40.6288,包头市,惠龙物流,颗粒物(PM10),59,62,28,11,14,154,154,105,105,11,18,12,11,0.4,0.3
2026-06-30T1200,1590A,110.0376,40.5546,包头市,东河鸿龙湾,,46,22,23,18,15,146,146,107,107,14,16,18,15,0.5,0.4
2026-06-30T1200,3283A,109.9154,40.5684,包头市,滨河大厦,,46,37,19,16,14,147,147,109,109,16,15,16,12,0.7,0.5
2026-06-30T1200,3419A,109.9449,40.6259,包头市,包头市委党校,,47,14,20,14,16,148,148,92,92,20,23,19,15,0.7,0.6
2026-06-30T1200,3683A,109.8332,40.6577,包头市,昆区政府,,45,28,28,10,16,142,142,95,95,12,24,9,10,0.6,0.7
2026-06-30T1200,1931A,107.0802,34.3129,宝鸡市,竹园沟,,43,43,31,24,18,133,133,90,90,7,6,8,7,0.6,0.2
2026-06-30T1200,1933A,107.1429,34.3549,宝鸡市,监测站,颗粒物(PM10),58,60,39,24,19,143,143,102,102,9,8,6,8,0.6,0.5
2026-06-30T1200,1934A,107.1172,34.3759,宝鸡市,技工学校,颗粒物(PM10),68,74,39,27,22,152,152,109,109,8,6,6,6,0.6,0.5
2026-06-30T1200,1936A,107.2025,34.3518,宝鸡市,文理学院,颗粒物(PM10),55,57,43,28,23,154,154,110,110,12,12,8,8,0.6,0.5
2026-06-30T1200,1937A,107.2396,34.3626,宝鸡市,三迪小学,颗粒物(PM10),69,76,46,27,24,155,155,112,112,14,14,8,8,0.6,0.6
2026-06-30T1200,4155A,107.1721,34.3558,宝鸡市,滨河北路,,49,49,41,26,22,140,140,99,99,8,9,6,6,0.6,0.6
2026-06-30T1200,4308A,107.3898,34.3601,宝鸡市,陈仓区北开路21号,颗粒物(PM10),55,56,44,27,21,132,132,99,99,7,9,5,5,0.5,0.5
2026-06-30T1200,1051A,115.4803,38.8568,保定市,游泳馆,NA,NA,NA,45,NA,34,129,129,106,106,NA,10,2,2,0.2,0.2
2026-06-30T1200,1052A,115.509,38.8895,保定市,华电二区,,43,27,43,11,31,135,135,115,115,10,8,3,2,0.6,0.7
2026-06-30T1200,1053A,115.4588,38.9037,保定市,接待中心,,41,24,46,19,33,130,130,106,106,6,7,1,2,0.4,0.5
2026-06-30T1200,1054A,115.4484,38.8344,保定市,地表水厂,NA,NA,33,56,18,33,140,140,109,NA,5,7,2,2,NA,0.6
2026-06-30T1200,3581A,115.3136,38.9511,保定市,满城区生态环境分局,,39,29,39,20,30,123,123,109,107,7,8,2,2,0.0,0.1
2026-06-30T1200,3582A,115.4709,38.7628,保定市,清苑区第二中学,,42,42,56,14,29,134,134,118,118,7,7,4,4,0.4,0.4
2026-06-30T1200,3583A,115.6231,39.0223,保定市,徐水物探局,,40,11,42,10,29,127,127,102,102,11,11,3,3,0.3,0.5
2026-06-30T1200,4004A,115.4199,38.8665,保定市,双鹰农机,,44,20,40,17,34,140,140,114,114,5,6,2,3,0.2,0.3
2026-06-30T1200,4034A,115.515,38.8589,保定市,植保所站,,47,24,40,3,31,148,148,122,122,8,7,6,7,0.3,0.4
2026-06-30T1200,2594A,99.1589,25.1137,保山市,市环境监测站,,17,8,11,7,7,52,52,23,23,10,7,6,6,0.3,0.3
2026-06-30T1200,2595A,99.1616,25.1381,保山市,市环保局,NA,NA,NA,14,20,19,51,51,22,22,NA,5,5,5,0.2,0.3
2026-06-30T1200,1867A,109.1435,21.4085,北海市,海滩公园,,21,NA,15,12,9,67,67,59,59,4,6,3,2,0.5,0.5
2026-06-30T1200,1868A,109.0983,21.466,北海市,新市环保局,,23,23,15,13,8,70,70,60,60,4,8,5,4,0.4,0.4
2026-06-30T1200,1869A,109.1775,21.5232,北海市,北海工业园,,38,33,21,26,15,65,65,39,39,5,12,1,4,0.3,0.3
2026-06-30T1200,3400A,109.1844,21.4396,北海市,龙潭自来水厂,,24,24,14,3,5,66,66,48,48,2,4,3,3,0.6,0.7
2026-06-30T1200,1001A,116.3611,39.8786,北京市,万寿西宫,臭氧1小时(O3_1h),53,8,30,7,22,162,162,119,119,5,7,3,3,0.4,0.5
2026-06-30T1200,1003A,116.4174,39.9289,北京市,东四,臭氧1小时(O3_1h),58,10,29,7,22,166,166,133,133,9,12,3,3,0.2,0.4
2026-06-30T1200,1004A,116.4073,39.8858,北京市,天坛,,46,9,30,6,22,146,146,106,106,9,12,1,1,0.5,0.6
2026-06-30T1200,1005A,116.4622,39.9364,北京市,农展馆,,46,11,32,7,23,146,146,110,110,11,12,3,3,0.4,0.5
2026-06-30T1200,1006A,116.3399,39.9293,北京市,官园,,48,10,32,3,23,152,152,122,122,6,8,5,4,0.4,0.5
2026-06-30T1200,1007A,116.2879,39.9613,北京市,海淀万柳,,43,12,33,8,25,135,135,99,99,11,14,5,4,0.3,0.4
2026-06-30T1200,1008A,116.6635,40.1349,北京市,顺义新城,,43,14,36,12,33,135,135,107,107,4,8,2,1,0.6,0.7
2026-06-30T1200,1009A,116.6275,40.327,北京市,怀柔镇,,39,18,34,14,27,122,122,107,105,5,7,1,1,0.5,0.6
2026-06-30T1200,1010A,116.2295,40.217,北京市,昌平镇,,40,7,28,3,21,125,125,92,92,7,12,3,3,0.9,0.9
2026-06-30T1200,1011A,116.3968,39.982,北京市,奥体中心,,39,9,34,6,25,122,122,103,103,4,8,4,4,0.4,0.6
2026-06-30T1200,3418A,116.8336,40.4095,北京市,密云新城,,40,17,35,13,26,126,126,108,103,3,7,2,2,0.6,0.7
2026-06-30T1200,3671A,116.0879,39.9725,北京市,门头沟三家店,,39,11,25,8,16,122,122,95,95,5,12,3,2,0.6,0.7
2026-06-30T1200,3672A,116.1507,39.8246,北京市,丰台云岗,,44,11,38,7,24,140,140,94,94,2,2,3,2,0.5,0.6
2026-06-30T1200,3674A,115.9578,39.7602,北京市,房山燕山,,42,24,40,18,29,133,133,113,100,7,8,1,1,0.6,0.7
2026-06-30T1200,3675A,116.4669,39.7734,北京市,大兴旧宫,,44,14,42,9,31,138,138,90,90,8,11,1,1,0.7,0.7
2026-06-30T1200,3694A,115.9859,40.4562,北京市,延庆石河营,NA,NA,6,21,3,17,110,110,105,97,5,8,NA,2,0.3,0.4
2026-06-30T1200,3695A,116.6151,40.3052,北京市,怀柔新城,,38,18,33,15,26,120,120,102,102,3,6,1,1,0.8,0.8
2026-06-30T1200,3696A,116.2542,39.8764,北京市,丰台小屯,,46,10,34,7,22,146,146,107,107,3,6,3,4,0.4,0.5
2026-06-30T1200,3697A,116.8399,40.3843,北京市,密云镇,,37,28,37,23,27,118,118,107,98,5,6,2,5,0.7,0.6
2026-06-30T1200,4057A,115.9423,40.4431,北京市,延庆百泉,,40,6,19,3,14,125,125,108,106,3,6,1,1,0.2,0.3
2026-06-30T1200,4058A,116.6598,39.9164,北京市,通州新华,,42,14,45,11,30,134,134,108,108,6,11,3,3,0.7,0.8
2026-06-30T1200,4182A,116.1942,39.9158,北京市,石景山八角,,46,12,32,11,24,147,147,103,103,3,7,4,2,0.5,0.6
2026-06-30T1200,4194A,117.078628,40.151726,北京市,平谷新城,,39,17,46,15,39,122,122,103,96,2,3,1,1,0.7,0.8
2026-06-30T1200,1761A,123.8274146,41.31234549,本溪市,大峪,,31,16,22,8,12,98,98,67,67,4,12,6,6,0.3,0.3
2026-06-30T1200,1763A,123.7169,41.3094,本溪市,彩屯,,30,18,30,3,15,95,95,63,63,6,15,8,8,0.7,1.1
2026-06-30T1200,1764A,123.7672166,41.28649327,本溪市,东明,,40,40,30,8,11,106,106,74,74,7,12,7,5,0.4,0.4
2026-06-30T1200,1765A,123.799345,41.266614,本溪市,新立屯,,32,21,21,8,10,101,101,75,75,3,20,8,7,0.5,0.5
2026-06-30T1200,1766A,123.829144,41.336777,本溪市,威宁,,32,15,27,9,14,101,101,63,63,2,11,8,8,0.3,0.4
2026-06-30T1200,2587A,105.287,27.3133,毕节市,八中,,27,NA,17,9,8,86,86,45,45,3,8,9,8,0.5,0.5
2026-06-30T1200,2588A,105.3079,27.2987,毕节市,师专,,24,12,17,10,9,76,76,39,39,4,8,3,3,0.6,0.6
2026-06-30T1200,4263A,105.3688,27.3598,毕节市,工业大道,,25,15,16,8,7,80,80,38,38,2,9,6,6,/,/
2026-06-30T1200,1629A,117.9961,37.3604,滨州市,第二水厂,细颗粒物(PM2.5),64,46,50,42,45,137,137,79,79,10,15,6,8,1.2,1
2026-06-30T1200,1630A,117.9789,37.3931,滨州市,北中新校,细颗粒物(PM2.5),76,56,48,48,41,147,147,85,85,13,19,12,13,1.0,0.8
2026-06-30T1200,3514A,117.9379,37.3959,滨州市,中海酒店,细颗粒物(PM2.5),70,48,40,45,40,149,149,97,92,20,21,9,10,0.7,0.6
2026-06-30T1200,3515A,117.9381509,37.35547456,滨州市,开发区一中,细颗粒物(PM2.5),80,51,48,50,42,145,145,82,82,20,21,10,10,0.8,0.6
2026-06-30T1200,3516A,118.0914,37.6938,滨州市,金海六路,细颗粒物(PM2.5),84,NA,52,52,44,108,108,81,81,16,14,7,7,0.3,0.4
2026-06-30T1200,4028A,117.9955,37.3752,滨州市,滨州市西街道办事处,细颗粒物(PM2.5),68,44,40,44,41,140,140,82,82,10,13,5,5,0.8,0.6
2026-06-30T1200,2311A,115.8071,33.8399,亳州市,污水处理厂,,50,43,46,31,37,158,158,110,110,9,14,4,5,0.5,0.4
2026-06-30T1200,2312A,115.7789,33.8519,亳州市,三国揽胜宫,颗粒物(PM10),58,60,54,32,39,149,149,119,112,7,10,4,4,0.5,0.4
2026-06-30T1200,3332A,115.7631,33.803,亳州市,亳州学院,,50,42,46,33,43,160,160,119,119,6,10,4,4,0.6,0.6
2026-06-30T1200,2693A,82.0482,44.8553,博尔塔拉蒙古自治州,市党校,,42,42,30,7,6,97,97,80,74,4,5,3,3,0.3,0.2
2026-06-30T1200,2694A,82.0805,44.8966,博尔塔拉蒙古自治州,市环保局,,40,40,27,3,6,91,91,76,73,7,11,8,6,0.5,0.5
2026-06-30T1200,1071A,116.8733,38.2922,沧州市,沧县城建局,NA,NA,NA,34,NA,30,108,108,92,92,10,10,NA,5,0.8,0.7
2026-06-30T1200,1072A,116.8462,38.3189,沧州市,电视转播站,,40,40,48,25,27,105,105,92,92,9,12,4,4,0.4,0.4
2026-06-30T1200,1073A,116.8588,38.3161,沧州市,市环保局,颗粒物(PM10),65,71,58,41,33,102,102,90,90,10,11,3,8,0.3,0.2
2026-06-30T1200,3324A,116.8011,38.294,沧州市,河北水利电力学院,,44,44,36,26,30,112,112,98,98,9,11,7,8,0.5,0.4
2026-06-30T1200,2622A,97.1813,31.1289,昌都市,昌都监测站,,29,NA,5,3,3,90,90,82,72,7,10,8,8,0.6,0.7
2026-06-30T1200,3719A,97.1707,31.1428,昌都市,昌都会议中心,,29,7,5,3,3,92,92,90,79,6,4,5,5,0.4,0.4
2026-06-30T1200,2692A,87.2722,44.0298,昌吉回族自治州,新区政务中心,,35,28,21,24,14,109,109,58,58,10,13,10,10,0.5,0.4
2026-06-30T1200,3613A,87.3069,44.0093,昌吉回族自治州,亚心广场,,37,34,28,22,12,118,118,63,63,13,18,10,9,0.3,0.4
2026-06-30T1200,4164A,87.2057,43.9289,昌吉回族自治州,财政所,,34,30,19,7,6,107,107,71,71,9,9,8,7,0.6,0.2
2026-06-30T1200,1120A,125.2874,43.9024,长春市,客车厂,,39,27,32,7,22,123,123,96,96,11,17,6,6,0.4,0.6
2026-06-30T1200,1121A,125.2943,43.8508,长春市,邮电学院,,42,17,34,8,22,132,132,87,87,4,13,6,7,0.4,0.5
2026-06-30T1200,1122A,125.3648,43.8745,长春市,劳动公园,,43,24,31,8,24,136,136,84,84,6,17,7,7,0.3,0.5
2026-06-30T1200,1123A,125.3233,43.8781,长春市,园林处,,43,22,33,6,21,136,136,92,92,5,15,4,5,0.4,0.5
2026-06-30T1200,1124A,125.4604,43.7904,长春市,净月潭,,39,20,23,12,18,122,122,82,82,6,9,6,6,0.3,0.3
2026-06-30T1200,1126A,125.38,43.8422,长春市,经开区环卫处,,43,21,32,9,21,136,136,76,76,5,21,5,5,0.3,0.4
2026-06-30T1200,1127A,125.234,43.7761,长春市,高新区管委会,,40,19,33,6,21,126,126,84,84,3,19,6,6,0.4,0.6
2026-06-30T1200,1128A,125.1695,43.83,长春市,岱山公园,,43,17,36,7,25,135,135,91,91,4,21,3,3,0.4,0.5
2026-06-30T1200,4281A,125.334645,43.916281,长春市,北亚泰大街1068号,,41,16,37,9,25,129,129,85,85,8,22,5,5,0.4,0.5
2026-06-30T1200,1335A,113.082,28.2421,长沙市,经开区环保局,,35,35,41,15,31,55,55,64,52,12,7,4,4,0.6,0.6
2026-06-30T1200,1336A,112.8873,28.2202,长沙市,高开区环保局,,25,25,42,13,30,71,71,72,60,6,7,3,4,0.4,0.5
2026-06-30T1200,1337A,113.0785,28.2012,长沙市,马坡岭,,38,38,43,23,33,53,53,67,57,16,10,6,6,0.6,0.6
2026-06-30T1200,1338A,112.9448,28.1894,长沙市,湖南师范大学,,21,21,42,13,30,66,66,68,62,7,6,8,9,0.1,0.2
2026-06-30T1200,1339A,113.0177,28.1322,长沙市,雨花区环保局,,36,32,40,25,33,44,44,61,53,12,5,4,5,1.0,1
2026-06-30T1200,1340A,112.9795,28.2593,长沙市,伍家岭,,29,29,43,12,28,67,67,67,62,9,8,3,4,0.4,0.4
2026-06-30T1200,1341A,113.002,28.1944,长沙市,火车新站,,32,32,42,18,29,48,48,60,55,10,6,7,8,0.5,0.5
2026-06-30T1200,1342A,112.9846,28.1177,长沙市,天心区环保局,,34,34,41,22,34,53,53,73,60,16,13,4,4,0.4,1
2026-06-30T1200,1343A,112.8906,28.1307,长沙市,湖南中医药大学,,25,18,42,17,30,67,67,69,62,8,8,6,7,0.5,0.6
2026-06-30T1200,1727A,113.1146,36.1547,长治市,清华站,,43,36,27,15,16,136,136,61,61,11,11,13,9,0.4,0.8
2026-06-30T1200,1730A,113.0887,36.2126,长治市,审计局,,38,33,27,25,18,121,121,56,56,12,10,10,9,0.7,0.7
2026-06-30T1200,1731A,113.0845,36.1856,长治市,长治八中,,45,45,37,21,18,122,122,54,54,14,13,12,11,0.7,0.8
2026-06-30T1200,2845A,113.1561,36.1912,长治市,德盛苑,,44,27,24,21,17,140,140,90,75,16,12,11,11,0.5,0.5
2026-06-30T1200,3568A,113.0603,36.0464,长治市,向阳小学,,40,33,33,13,16,128,128,69,62,2,5,3,3,0.7,0.8
2026-06-30T1200,3569A,112.8788,36.315,长治市,屯留一中,,42,NA,23,22,16,133,133,64,64,3,12,12,10,0.7,0.8
2026-06-30T1200,4189A,113.113092,36.199482,长治市,英华南巷50号,,47,47,32,17,19,136,136,63,63,15,12,12,11,0.7,0.7
2026-06-30T1200,4190A,113.23666,36.33435,长治市,学府街1号,颗粒物(PM10),61,65,37,27,20,151,151,77,77,10,15,20,14,0.7,0.8
2026-06-30T1200,1854A,111.696,28.9725,常德市,市二中,,26,26,29,15,18,51,51,76,62,6,6,8,8,1.0,1
2026-06-30T1200,3138A,111.7152,29.0288,常德市,武陵区永安,,25,19,29,17,19,66,66,82,69,3,4,6,8,0.8,0.8
2026-06-30T1200,3139A,111.6891,28.9881,常德市,鼎城区玉霞,NA,NA,NA,26,15,17,56,56,78,62,6,6,9,10,NA,0.9
2026-06-30T1200,3140A,111.6651,29.0526,常德市,武陵区长庚,,23,23,30,14,19,58,58,71,60,6,6,8,11,0.6,0.6
2026-06-30T1200,1196A,119.9524,31.7586,常州市,市监测站,,26,10,35,3,18,81,81,75,75,21,21,10,10,0.4,0.4
2026-06-30T1200,1200A,119.9351,31.703,常州市,武进监测站,,22,13,27,7,18,70,70,70,70,20,17,8,7,0.8,0.6
2026-06-30T1200,3002A,119.9701,31.813,常州市,行政中心,,27,9,29,3,22,85,85,74,74,10,16,5,6,0.3,0.4
2026-06-30T1200,3003A,120.0434,31.7726,常州市,经开区,,25,18,37,3,20,77,77,76,76,20,17,2,2,0.9,0.8
2026-06-30T1200,3010A,119.8919,31.7892,常州市,钟楼,,26,22,35,3,20,83,83,80,80,16,17,7,7,0.5,0.6
2026-06-30T1200,3429A,119.8595,31.706,常州市,武进经发区,,22,16,35,10,18,70,70,68,67,13,13,7,7,1.1,0.8
2026-06-30T1200,3430A,119.5812,31.7256,常州市,金坛城区,,25,15,26,8,18,78,78,82,80,13,7,6,7,0.8,0.8
2026-06-30T1200,4089A,119.9551,31.863,常州市,崇义南街5-H号,,23,16,30,9,25,72,72,68,68,21,22,7,7,0.9,0.8
2026-06-30T1200,2220A,120.4318,41.588,朝阳市,西梁,细颗粒物(PM2.5),102,NA,26,62,18,66,66,82,79,7,9,7,7,1.4,0.8
2026-06-30T1200,2221A,120.452,41.565,朝阳市,河畔小区,,35,28,23,24,20,67,67,85,77,6,8,9,8,0.4,0.4
2026-06-30T1200,2222A,120.4176,41.5648,朝阳市,八里堡,,38,30,22,26,18,74,74,77,75,10,12,2,2,0.7,0.8
2026-06-30T1200,3026A,116.6179,23.6608,潮州市,市政府,,24,16,15,6,8,75,75,44,44,4,9,4,6,0.2,0.5
2026-06-30T1200,4036A,116.646,23.676,潮州市,金山,,23,21,13,3,5,71,71,52,52,3,5,1,2,0.3,0.3
2026-06-30T1200,2473A,113.0116,25.8228,郴州市,市职中,,20,13,20,7,9,64,64,27,27,5,11,7,7,0.5,0.8
2026-06-30T1200,2475A,113.0381,25.8074,郴州市,市审计局,,22,14,16,8,8,68,68,39,39,4,10,4,3,/,/
2026-06-30T1200,2476A,113.0348,25.7757,郴州市,市环保局,,25,25,20,6,7,66,66,46,46,3,7,6,6,0.7,0.8
2026-06-30T1200,4252A,113.0138,25.8011,郴州市,好美居路49号,,21,21,16,3,5,66,66,34,34,4,11,5,5,/,/
2026-06-30T1200,1431A,103.9727,30.7242,成都市,金泉两河,,37,24,24,20,14,116,116,70,70,15,14,2,2,0.3,0.3
2026-06-30T1200,1432A,104.1423,30.6765,成都市,十里店,,32,NA,21,15,15,102,102,67,67,10,11,5,4,0.5,0.5
2026-06-30T1200,1433A,104.0594,30.5765,成都市,三瓦窑,,32,23,23,18,14,100,100,61,55,14,15,5,4,0.7,0.6
2026-06-30T1200,1434A,104.1122,30.6306,成都市,沙河铺,,31,28,26,21,14,98,98,67,67,15,12,4,4,0.5,0.4
2026-06-30T1200,2880A,104.0219,30.6561,成都市,大石西路,,35,35,26,19,15,97,97,68,66,17,12,4,4,0.5,0.5
2026-06-30T1200,3136A,104.2724,30.559,成都市,龙泉驿区区政府,,28,NA,9,15,13,88,88,59,58,10,7,7,7,0.4,0.4
2026-06-30T1200,3357A,104.0028,30.6891,成都市,金博路,,35,NA,14,24,14,103,103,64,64,20,14,7,7,0.6,0.5
2026-06-30T1200,3359A,104.056,30.5228,成都市,华阳,,33,24,16,14,10,105,105,75,75,10,7,2,2,0.4,0.4
2026-06-30T1200,3488A,104.387954,30.746684,成都市,青白江技师分院,,31,NA,20,12,14,97,97,59,59,6,8,6,5,0.6,0.6
2026-06-30T1200,3489A,104.0788,30.4054,成都市,科学城,,20,20,10,13,8,64,64,64,56,15,5,6,5,0.3,0.3
2026-06-30T1200,4011A,103.8505,30.6946,成都市,光华大道三段,,38,33,24,15,13,121,121,74,74,12,9,11,6,0.6,0.4
2026-06-30T1200,4144A,104.3257,30.6406,成都市,八角井街185号,,31,12,23,12,12,97,97,53,53,12,11,7,4,0.4,0.4
2026-06-30T1200,4224A,104.2433276,30.53529463,成都市,鲸龙路1057号,,31,16,17,10,10,98,98,62,62,11,10,8,8,0.7,0.6
2026-06-30T1200,1062A,117.9531,40.908,承德市,铁路,,25,22,41,11,24,80,80,100,93,18,15,4,4,0.3,0.4
2026-06-30T1200,1063A,117.9397,40.9763,承德市,中国银行,,43,NA,34,30,22,81,81,61,61,8,8,1,2,0.4,0.4
2026-06-30T1200,4073A,117.9462,40.95,承德市,杏林街1号,,35,29,32,24,29,102,102,107,96,8,6,2,3,0.4,0.3
2026-06-30T1200,4274A,117.7994,40.9605,承德市,滨河大街98号,,32,32,26,19,23,90,90,104,103,7,6,4,4,0.3,0.3
2026-06-30T1200,2314A,117.4698,30.6617,池州市,池州学院,,25,7,23,6,18,77,77,92,82,10,13,4,4,0.9,0.9
2026-06-30T1200,3237A,117.4918,30.6617,池州市,展览馆,,24,14,25,3,14,74,74,88,76,6,9,4,4,0.5,0.6
2026-06-30T1200,3333A,117.5626,30.695,池州市,第八中学,,23,14,27,10,20,72,72,89,80,11,13,4,4,0.3,0.5
2026-06-30T1200,3334A,117.5037,30.6242,池州市,第十二中学,,24,8,22,3,14,75,75,88,75,5,10,5,5,0.6,0.7
2026-06-30T1200,1744A,118.9229,42.2816,赤峰市,松山一中,颗粒物(PM10),52,52,28,23,21,122,122,95,95,13,13,20,16,0.8,0.7
2026-06-30T1200,1745A,118.9588,42.2733,赤峰市,哈达街,,49,49,29,32,21,104,104,80,80,12,15,23,20,0.6,0.5
2026-06-30T1200,1746A,118.8792,42.2551,赤峰市,天义路,,35,25,20,19,20,111,111,82,82,15,16,12,11,0.7,0.6
2026-06-30T1200,3058A,119.2656,42.0356,赤峰市,银河街,细颗粒物(PM2.5),74,69,40,47,28,123,123,112,112,17,13,15,12,1.4,0.9
2026-06-30T1200,3286A,118.9359,42.3146,赤峰市,桥北物流园区,,40,36,32,28,24,123,123,86,86,14,16,16,11,0.7,0.7
2026-06-30T1200,2521A,107.3473,22.4137,崇左市,市环保局江州分局,,16,6,16,3,8,50,50,36,36,5,7,6,6,0.5,0.5
2026-06-30T1200,4256A,107.375,22.3736,崇左市,石景林东路7号,,19,13,13,3,7,58,58,40,40,5,9,6,6,0.5,0.5
2026-06-30T1200,3207A,118.31131,32.3033,滁州市,市政府原办公楼,,40,NA,32,15,32,126,126,101,98,5,8,6,6,0.5,0.6
2026-06-30T1200,3331A,118.3268,32.2633,滁州市,图书馆,,37,12,42,3,20,116,116,97,92,3,7,9,9,0.4,0.5
2026-06-30T1200,4101A,118.3196,32.3335,滁州市,银山路666号,,39,17,50,13,30,124,124,99,97,9,12,3,3,0.3,0.4
2026-06-30T1200,4102A,118.3426,32.2979,滁州市,黄山路555号,,37,19,46,11,29,117,117,92,89,7,9,10,9,0.4,0.5
2026-06-30T1200,2606A,101.5379,25.0492,楚雄彝族自治州,市经济开发区,,20,NA,14,14,9,58,58,42,42,4,7,2,2,0.5,0.5
2026-06-30T1200,4153A,101.5536,25.0343,楚雄彝族自治州,团结路562号,,19,10,13,7,11,59,59,45,44,5,6,5,5,0.6,0.6
2026-06-30T1200,2549A,107.5087,31.2186,达州市,市环境监测站,,33,33,30,17,4,47,47,26,26,34,19,8,7,0.5,0.4
2026-06-30T1200,2550A,107.4988,31.2132,达州市,凤凰小区,,41,41,31,17,9,57,57,33,31,19,16,7,7,0.4,0.4
2026-06-30T1200,2551A,107.5081,31.1987,达州市,达县机关宾馆,,48,48,32,22,12,47,47,26,26,33,26,9,7,0.5,0.4
2026-06-30T1200,2552A,107.4644,31.2124,达州市,市政中心,,32,32,32,6,6,69,69,39,39,12,13,6,4,0.3,0.2
2026-06-30T1200,2614A,100.2168,25.5818,大理白族自治州,大理市环境监测站,,26,9,11,3,5,82,82,76,76,7,10,5,5,0.5,0.5
2026-06-30T1200,2615A,100.1542,25.7055,大理白族自治州,大理古城,,23,14,11,3,5,71,71,67,67,9,8,3,4,0.5,0.6
2026-06-30T1200,1109A,121.6119,38.974,大连市,甘井子,NA,NA,21,26,16,18,96,96,73,NA,6,6,NA,8,0.6,0.6
2026-06-30T1200,1110A,121.565,38.9509,大连市,周水子,,29,26,26,19,19,90,90,86,86,13,12,12,13,0.7,0.7
2026-06-30T1200,1111A,121.5637,38.8849,大连市,星海三站,,28,27,32,11,18,89,89,86,86,18,13,5,6,0.7,0.7
2026-06-30T1200,1112A,121.6301,38.9117,大连市,青泥洼桥,,30,19,27,13,18,94,94,87,87,5,6,7,7,0.6,0.6
2026-06-30T1200,1113A,121.6248,38.8643,大连市,傅家庄,,26,17,24,11,22,81,81,82,82,9,8,11,11,0.4,0.5
2026-06-30T1200,1114A,121.5117,38.8636,大连市,七贤岭,,27,20,25,15,19,84,84,83,83,12,10,4,4,0.7,0.8
2026-06-30T1200,1116A,121.7507,39.1339,大连市,金州,,31,23,24,20,18,97,97,90,90,6,7,10,9,0.6,0.6
2026-06-30T1200,1117A,121.7811,39.0495,大连市,开发区,,30,30,32,14,20,87,87,79,79,10,17,6,8,0.4,0.4
2026-06-30T1200,1118A,121.9762,39.0631,大连市,双D港,,23,23,21,8,17,65,65,71,71,16,6,7,6,0.5,0.5
2026-06-30T1200,4082A,121.2548,38.8188,大连市,旅顺,,29,29,30,20,22,83,83,75,75,11,8,6,6,0.4,0.4
2026-06-30T1200,1789A,124.8085,46.0381,大庆市,大同区,NA,NA,41,34,23,18,145,145,128,128,7,16,4,5,NA,0.7
2026-06-30T1200,1790A,125.1166,46.5255,大庆市,龙凤区,,45,27,36,16,18,141,141,108,108,6,11,9,17,0.1,0.1
2026-06-30T1200,1791A,124.8894,46.4007,大庆市,红岗区,,46,25,32,21,16,146,146,116,116,5,8,9,8,0.6,0.5
2026-06-30T1200,1792A,125.1391,46.578,大庆市,萨尔图区,,47,26,32,11,20,148,148,118,118,6,11,5,6,0.4,0.4
2026-06-30T1200,1793A,124.9026,46.6217,大庆市,让胡路区,臭氧1小时(O3_1h),52,33,34,19,23,161,161,120,120,6,10,4,5,0.6,0.6
2026-06-30T1200,3481A,125.127,46.6277,大庆市,萨区政府监测点,臭氧1小时(O3_1h),54,29,35,20,22,163,163,129,129,2,6,5,9,0.3,0.3
2026-06-30T1200,1723A,113.2926,40.0759,大同市,云冈宾馆,,44,26,21,10,9,138,138,106,106,13,11,9,7,0.4,0.4
2026-06-30T1200,1724A,113.3437,40.0921,大同市,大同大学,,45,27,22,23,14,144,144,90,90,12,12,8,6,0.5,0.5
2026-06-30T1200,1725A,113.2637,40.129,大同市,安家小村,NA,NA,NA,23,NA,10,139,139,98,98,12,11,10,7,0.4,0.4
2026-06-30T1200,3282A,113.3399,40.0586,大同市,大同市卫生学校,,46,32,30,21,15,146,146,89,89,12,13,11,9,0.6,0.6
2026-06-30T1200,3565A,113.1371,40.1122,大同市,云冈站,,42,24,20,10,9,133,133,97,97,9,7,10,6,0.6,0.6
2026-06-30T1200,3566A,113.1186,40.2556,大同市,图书馆,,46,22,20,8,9,146,146,122,122,7,9,7,7,0.7,0.6
2026-06-30T1200,3567A,113.5931,40.0459,大同市,区一中,颗粒物(PM10),53,54,21,10,12,142,142,100,100,9,12,10,8,0.5,0.4
2026-06-30T1200,4199A,113.2798248,40.09972476,大同市,魏都大道141号,,43,32,19,16,10,136,136,104,104,16,14,10,8,0.4,0.4
2026-06-30T1200,2269A,124.1068,50.4091,大兴安岭地区,科技局,,37,23,30,16,15,116,116,68,68,4,6,5,5,0.3,0.3
2026-06-30T1200,3663A,124.117,50.4279,大兴安岭地区,红旗社区,,42,17,20,3,8,133,133,81,81,6,11,7,6,0.2,0.2
2026-06-30T1200,1600A,124.33,40.0625,丹东市,江湾东路,,27,16,24,6,15,86,86,63,63,5,13,3,7,0.3,0.5
2026-06-30T1200,1601A,124.4242,40.1513,丹东市,临江后街,,30,25,35,10,13,95,95,64,64,3,10,5,5,0.4,0.4
2026-06-30T1200,1602A,124.3935,40.1461,丹东市,元宝山,NA,NA,22,25,6,11,90,90,52,52,6,12,NA,5,NA,0.6
2026-06-30T1200,1603A,124.3634,40.1093,丹东市,民主桥,,27,26,34,8,15,85,85,62,62,3,13,6,8,0.6,0.7
2026-06-30T1200,3541A,109.5726195,19.51688767,儋州市,第一中学子站,,16,13,15,3,6,49,49,38,38,5,5,2,3,0.5,0.6
2026-06-30T1200,3542A,109.5567,19.5187,儋州市,东坡学校子站,,18,18,14,3,6,53,53,38,38,2,4,5,4,0.6,0.6
2026-06-30T1200,2616A,98.5611,24.4273,德宏傣族景颇族自治州,德宏州监测站,NA,NA,NA,13,16,12,67,67,25,25,6,8,NA,8,0.4,0.5
2026-06-30T1200,3677A,98.5887,24.4366,德宏傣族景颇族自治州,芒市人民政府综合楼,,44,44,34,17,11,57,57,18,18,9,8,4,2,0.6,0.6
2026-06-30T1200,1901A,104.424,31.1209,德阳市,东山公园,,43,NA,14,30,13,104,104,56,56,15,8,4,3,0.7,0.6
2026-06-30T1200,1902A,104.3827,31.1318,德阳市,西小区,,49,36,29,34,14,94,94,58,58,17,12,8,8,1.0,0.9
2026-06-30T1200,1904A,104.3553,31.1091,德阳市,耐火材料厂,,40,32,28,28,15,120,120,67,67,9,10,4,4,0.5,0.4
2026-06-30T1200,4145A,104.4144,31.1495,德阳市,市林业局,,39,32,26,24,14,124,124,61,61,9,14,11,10,0.9,0.8
2026-06-30T1200,1622A,116.3034,37.4675,德州市,儿童乐园,细颗粒物(PM2.5),100,68,53,60,47,162,162,137,137,12,11,13,11,1.0,0.9
2026-06-30T1200,1624A,116.2992,37.4449,德州市,监理站,细颗粒物(PM2.5),94,78,57,57,45,156,156,131,131,13,12,17,15,0.6,0.5
2026-06-30T1200,3066A,116.2722,37.438,德州市,九衢泉纯净水厂,细颗粒物(PM2.5),102,NA,58,62,48,140,140,110,110,11,18,21,12,1.0,0.9
2026-06-30T1200,3371A,116.3693,37.44,德州市,开发区人民医院,细颗粒物(PM2.5),103,75,54,63,48,149,149,126,126,15,15,12,11,0.8,0.7
2026-06-30T1200,3511A,116.5687,37.3331,德州市,陵城艺术中心,细颗粒物(PM2.5),100,73,51,60,49,143,143,140,132,18,13,13,9,0.8,0.6
2026-06-30T1200,4292A,116.352738,37.420875,德州市,新河东路,细颗粒物(PM2.5),90,66,50,55,46,151,151,124,124,18,19,13,11,1.2,0.9
2026-06-30T1200,2621A,99.7054,27.8319,迪庆藏族自治州,迪庆州站,,31,19,15,12,6,98,98,96,96,6,6,7,7,0.1,0.2
2026-06-30T1200,3180A,99.7122,27.8129,迪庆藏族自治州,质量技术监督局,,32,21,13,9,6,100,100,100,100,8,7,10,10,0.3,0.3
2026-06-30T1200,4257A,104.6092,35.5962,定西市,将台街,NA,NA,NA,43,NA,15,147,147,67,67,NA,12,9,5,NA,0.2
2026-06-30T1200,4309A,104.6159,35.5701,定西市,正龙路62号,,44,33,45,9,12,138,138,70,70,8,10,8,6,0.5,0.4
2026-06-30T1200,4071A,114.9883,38.5232,定州市,交通局,细颗粒物(PM2.5),88,93,63,54,37,130,130,114,106,15,16,4,4,0.5,0.5
2026-06-30T1200,4072A,115.0045,38.5136,定州市,第五中学,颗粒物(PM10),58,61,68,28,36,129,129,115,102,13,15,3,4,0.4,0.4
2026-06-30T1200,1390A,113.7943,23.0132,东莞市,东城石井,,35,14,23,9,15,111,111,52,52,16,20,3,2,0.5,0.6
2026-06-30T1200,1391A,113.7384,22.9659,东莞市,南城西平,,30,13,21,3,11,95,95,45,45,13,30,3,3,0.5,0.6
2026-06-30T1200,3319A,113.7283,23.041,东莞市,万江金泰,,37,14,20,9,15,118,118,48,48,13,27,8,8,0.6,0.6
2026-06-30T1200,4129A,113.8666,23.1062,东莞市,裕兴路,NA,NA,NA,26,NA,13,160,160,63,63,11,19,4,9,NA,0.7
2026-06-30T1200,4130A,114.0076,22.9739,东莞市,教育路1号,,32,12,27,6,16,102,102,42,42,14,34,5,6,0.7,0.7
2026-06-30T1200,4131A,113.7981,22.8124,东莞市,长怡路1号,,26,16,28,6,12,83,83,42,42,11,25,5,4,0.6,0.6
2026-06-30T1200,1666A,118.6612,37.4313,东营市,市环保局,细颗粒物(PM2.5),68,NA,41,44,33,77,77,78,76,17,12,6,6,0.7,0.6
2026-06-30T1200,3036A,118.6903,37.4337,东营市,开发区管委会,细颗粒物(PM2.5),68,44,42,44,32,83,83,81,80,18,14,8,9,0.7,0.6
2026-06-30T1200,3365A,118.5721,37.5654,东营市,垦利区民丰路,细颗粒物(PM2.5),70,51,46,45,30,79,79,80,79,16,12,13,13,0.5,0.5
2026-06-30T1200,3498A,118.5063,37.8606,东营市,河口城区,NA,NA,14,40,3,61,145,145,96,96,NA,13,4,7,0.7,0.9
2026-06-30T1200,3646A,118.4979,37.4623,东营市,胜利站,细颗粒物(PM2.5),80,NA,39,50,34,77,77,76,73,21,13,6,7,0.9,0.8
2026-06-30T1200,3734A,118.5753,37.4405,东营市,理想之城,细颗粒物(PM2.5),102,NA,38,62,50,77,77,72,70,16,16,6,8,0.5,0.5
2026-06-30T1200,1591A,110.0024,39.8127,鄂尔多斯市,综合楼,,47,29,38,12,14,150,150,106,106,11,21,11,11,0.5,0.6
2026-06-30T1200,1592A,109.9485,39.8259,鄂尔多斯市,巴音孟克林场办事处,,48,19,31,3,13,153,153,120,120,8,14,5,5,0.3,0.3
2026-06-30T1200,1593A,109.7734,39.5987,鄂尔多斯市,康泽苑,,50,34,27,3,10,160,160,110,110,8,10,10,10,0.3,0.3
2026-06-30T1200,1594A,109.8121,39.5987,鄂尔多斯市,华泰汽车城,,47,31,25,8,10,148,148,86,86,7,12,9,8,0.5,0.5
2026-06-30T1200,1595A,109.9734,39.7884,鄂尔多斯市,奥林花园,,48,29,37,10,15,151,151,93,93,8,19,5,4,0.4,0.5
2026-06-30T1200,2436A,114.894,30.3989,鄂州市,市政府,,24,24,30,3,14,60,60,59,56,11,12,5,5,0.8,0.8
2026-06-30T1200,2437A,114.8986,30.3714,鄂州市,赵家坝,,20,12,29,3,14,64,64,56,53,13,12,9,9,1.0,0.9
2026-06-30T1200,3654A,114.8093,30.4091,鄂州市,精准医疗中心,,18,18,30,3,18,53,53,53,52,20,16,11,7,1.2,1.1
2026-06-30T1200,2454A,109.4978,30.2979,恩施土家族苗族自治州,湖北民院,,20,20,23,3,11,38,38,19,18,5,4,4,4,0.5,0.4
2026-06-30T1200,3549A,109.5061,30.3771,恩施土家族苗族自治州,龙凤新区,,22,20,17,15,11,26,26,17,17,16,7,6,6,0.5,0.5
2026-06-30T1200,2499A,108.3411,21.6159,防城港市,沙万,,15,6,22,3,9,45,45,42,38,14,16,2,3,0.7,0.8
2026-06-30T1200,2500A,108.3515,21.7733,防城港市,防城档案局,,16,NA,20,3,11,49,49,41,41,4,8,5,7,0.5,0.7
2026-06-30T1200,2501A,108.3506,21.6414,防城港市,大海花园,,18,NA,18,3,8,57,57,NA,NA,4,8,6,8,0.6,0.7
2026-06-30T1200,1371A,113.1293,23.0065,佛山市,湾梁,,25,12,17,8,11,79,79,42,42,11,19,/,/,/,/
2026-06-30T1200,1372A,113.1082,23.0477,佛山市,华材职中,,27,7,18,6,11,85,85,48,48,3,13,6,7,0.3,0.3
2026-06-30T1200,1373A,113.1439,23.045,佛山市,南海气象局,,24,18,20,8,11,75,75,41,41,12,23,/,/,/,/
2026-06-30T1200,1374A,113.2879,22.8094,佛山市,顺德苏岗,,25,6,17,6,8,80,80,48,48,12,19,/,/,0.7,0.7
2026-06-30T1200,1376A,112.8384,22.8678,佛山市,高明孔堂,NA,NA,NA,19,10,8,93,93,48,48,9,9,/,/,/,/
2026-06-30T1200,1377A,112.8835,23.1584,佛山市,三水监测站,,27,19,19,10,15,86,86,32,32,16,27,5,5,0.6,0.6
2026-06-30T1200,1378A,112.8668,23.185,佛山市,三水云东海,,33,28,29,10,16,104,104,36,36,6,19,/,/,/,/
2026-06-30T1200,3625A,113.2568,22.7629,佛山市,容桂街道办,,23,NA,10,9,9,73,73,51,51,11,14,/,/,/,/
2026-06-30T1200,1282A,119.2681,26.0506,福州市,师大,,20,7,20,3,4,63,63,34,34,3,8,4,4,0.2,0.3
2026-06-30T1200,1283A,119.2983,26.1028,福州市,五四北路,,21,NA,17,3,5,67,67,40,40,5,10,4,4,0.4,0.4
2026-06-30T1200,1284A,119.2648,26.0769,福州市,杨桥西路,,20,14,18,3,2,62,62,34,34,4,8,3,4,/,/
2026-06-30T1200,3048A,119.5799,26.0937,福州市,九龙,,25,21,20,3,5,77,77,40,40,4,6,6,6,0.2,0.2
2026-06-30T1200,3526A,119.5188,25.9666,福州市,吴航,,25,NA,4,6,6,77,77,51,51,5,7,6,6,0.5,0.5
2026-06-30T1200,4104A,119.3106,26.0648,福州市,路通桥巷6号,,26,14,12,3,7,83,83,48,48,4,8,/,/,/,/
2026-06-30T1200,1755A,123.7974,41.8494,抚顺市,望花区,,39,27,37,10,17,124,124,72,72,8,18,9,11,0.7,0.8
2026-06-30T1200,1756A,123.9161,41.8827,抚顺市,顺城区,,39,11,27,3,13,123,123,75,75,8,21,10,12,0.6,0.7
2026-06-30T1200,1757A,124.0437,41.8615,抚顺市,东洲区,,36,18,19,3,10,114,114,75,75,8,12,10,10,0.4,0.2
2026-06-30T1200,1758A,123.9246,41.8638,抚顺市,新抚区,,41,24,27,6,15,130,130,74,74,7,18,7,8,0.5,0.7
2026-06-30T1200,1759A,124.0972,41.8961,抚顺市,大伙房水库,,40,NA,18,3,11,125,125,76,76,8,14,11,11,0.4,0.5
2026-06-30T1200,1760A,123.708,41.8386,抚顺市,沈抚新城,,41,32,34,9,13,129,129,72,72,15,25,11,10,0.8,0.7
2026-06-30T1200,2377A,116.3544,27.9833,抚州市,市站,,31,31,25,3,6,48,48,28,28,4,4,2,2,0.7,0.6
2026-06-30T1200,2378A,116.3562,27.9631,抚州市,血防站,,24,24,20,6,5,48,48,26,26,3,6,5,5,0.6,0.7
2026-06-30T1200,2379A,116.3561,28.0007,抚州市,采茶剧团,,25,25,20,3,3,55,55,32,32,4,7,5,5,0.5,0.6
2026-06-30T1200,2380A,116.3854,27.9648,抚州市,医学分院,,18,13,22,3,3,56,56,31,31,2,4,3,4,0.7,0.8
2026-06-30T1200,2207A,121.6095,41.9978,阜新市,工业园区,,34,34,34,17,18,86,86,76,76,13,18,8,10,0.3,0.3
2026-06-30T1200,2208A,121.6567,42.0188,阜新市,长青街,,31,28,30,14,17,98,98,84,84,11,16,9,11,0.4,0.4
2026-06-30T1200,2209A,121.6672,42.07,阜新市,农业园区,,31,31,32,14,19,85,85,81,81,10,11,5,6,0.8,0.8
2026-06-30T1200,2211A,121.6343,42.0455,阜新市,玉龙新城,,33,33,32,12,19,76,76,67,67,12,16,6,6,0.6,0.6
2026-06-30T1200,2301A,115.8276,32.8929,阜阳市,市监测站,,39,26,60,8,41,123,123,87,87,10,16,6,6,0.4,0.6
2026-06-30T1200,2303A,115.8551,32.8606,阜阳市,开发区,,38,36,69,8,41,119,119,86,84,9,15,4,4,0.4,0.5
2026-06-30T1200,2875A,115.783962,32.889217,阜阳市,阜阳职业技术学院,,40,33,63,9,42,126,126,117,104,3,8,4,4,0.4,0.7
2026-06-30T1200,3468A,115.79,32.8614,阜阳市,市规划展馆,,48,48,72,8,43,130,130,103,100,7,13,3,3,0.6,0.7
2026-06-30T1200,3469A,115.835101,32.918568,阜阳市,枣园社区,,40,35,63,9,49,125,125,96,90,8,14,2,2,0.3,0.5
2026-06-30T1200,2669A,102.9097,34.9841,甘南藏族自治州,州政府,,36,31,33,14,15,115,115,42,42,8,16,3,3,0.3,0.3
2026-06-30T1200,3380A,102.8915,34.9618,甘南藏族自治州,甘肃民族师范学院,,40,24,36,13,16,127,127,47,47,13,23,4,3,0.3,0.3
2026-06-30T1200,2570A,101.96,30.048,甘孜藏族自治州,水桥子,,23,NA,17,14,10,71,71,30,30,10,13,2,2,0.1,0.1
2026-06-30T1200,3065A,101.9534,29.9976,甘孜藏族自治州,州环保局,,28,28,24,17,11,57,57,32,32,23,19,2,2,0.6,0.5
2026-06-30T1200,2363A,114.9368,25.8663,赣州市,地委,,23,17,23,12,9,72,72,48,48,2,7,3,4,0.5,0.6
2026-06-30T1200,2364A,114.946,25.8483,赣州市,气象台,NA,NA,34,19,NA,11,65,65,54,54,NA,9,4,4,0.2,0.4
2026-06-30T1200,2365A,114.932,25.8332,赣州市,市图书馆,,22,17,17,13,8,68,68,46,46,4,7,4,5,0.4,0.6
2026-06-30T1200,2366A,114.8905,25.8472,赣州市,华坚鞋城,,25,25,22,9,9,70,70,42,42,6,9,2,1,0.2,0.2
2026-06-30T1200,3109A,115.0094,25.8614,赣州市,赣县区卫计委,,20,NA,18,8,7,62,62,30,30,2,7,2,2,0.3,0.3
2026-06-30T1200,2684A,106.2753,36.0057,固原市,监测站,,43,39,38,3,14,135,135,84,84,3,16,5,5,0.3,0.3
2026-06-30T1200,2685A,106.2384,36.0189,固原市,新区,,40,34,37,10,15,128,128,79,79,5,15,7,6,0.3,0.4
2026-06-30T1200,2544A,106.6307,30.4577,广安市,市委,,24,23,24,15,13,74,74,48,48,10,10,7,6,0.6,0.6
2026-06-30T1200,2545A,106.6266,30.4662,广安市,友谊中学,,24,17,19,11,12,74,74,55,55,8,9,9,9,0.5,0.5
2026-06-30T1200,2547A,106.6386,30.4551,广安市,广电花园,,24,15,17,15,14,75,75,47,47,10,11,9,9,0.6,0.6
2026-06-30T1200,2902A,106.6347,30.4868,广安市,北辰小学,,26,19,21,18,15,68,68,54,54,9,10,6,6,0.4,0.4
2026-06-30T1200,2524A,105.8211,32.4444,广元市,老城,颗粒物(PM10),51,51,27,20,14,123,123,82,82,8,6,23,11,1.3,0.7
2026-06-30T1200,2526A,105.8629,32.429,广元市,监测站,颗粒物(PM10),52,52,42,20,17,122,122,76,76,10,9,14,8,0.8,0.7
2026-06-30T1200,3617A,105.8047,32.4167,广元市,经开区,,35,31,27,17,17,112,112,74,74,8,8,13,8,0.7,0.6
2026-06-30T1200,1345A,113.2346,23.1423,广州市,广雅中学,,24,13,18,6,10,75,75,35,35,11,23,4,5,0.6,0.7
2026-06-30T1200,1346A,113.2611,23.105,广州市,市五中,,29,12,17,6,11,90,90,42,42,10,21,3,4,/,/
2026-06-30T1200,1348A,113.3477,23.0916,广州市,广东商学院,NA,NA,16,18,8,11,86,86,34,34,NA,25,6,5,NA,0.5
2026-06-30T1200,1349A,113.4332,23.105,广州市,市八十六中,,32,17,20,9,13,100,100,40,40,25,37,9,8,/,/
2026-06-30T1200,1350A,113.3506,22.9488,广州市,番禺中学,,24,20,14,3,8,75,75,39,39,5,19,5,5,0.5,0.6
2026-06-30T1200,1351A,113.2147,23.3918,广州市,花都师范,,36,36,26,19,15,108,108,40,40,17,27,3,3,0.6,0.7
2026-06-30T1200,1352A,113.2599,23.1329,广州市,市监测站,,25,13,17,8,10,80,80,41,41,10,19,4,4,/,/
2026-06-30T1200,1353A,113.5618,23.3119,广州市,九龙镇镇龙,,27,17,20,11,13,85,85,34,34,15,20,6,7,0.6,0.6
2026-06-30T1200,1354A,113.2764,23.1544,广州市,麓湖,,25,11,18,3,10,80,80,36,36,12,23,7,7,0.5,0.6
2026-06-30T1200,2846A,113.3209,23.1323,广州市,体育西,,27,20,20,10,11,84,84,34,34,23,29,6,6,0.4,0.5
2026-06-30T1200,3298A,113.5718,23.5493,广州市,从化街口,,21,13,17,10,12,66,66,40,40,6,10,7,8,0.5,0.5
2026-06-30T1200,3299A,113.3463,23.369,广州市,白云竹料,,30,25,22,15,13,96,96,40,40,14,20,2,3,0.6,0.6
2026-06-30T1200,3300A,113.2981,23.2365,广州市,白云嘉禾,,35,21,23,11,13,109,109,35,35,16,32,14,13,/,/
2026-06-30T1200,3301A,113.4256,23.1716,广州市,黄埔科学城,,33,28,23,23,18,100,100,34,34,24,27,10,8,0.7,0.7
2026-06-30T1200,3302A,113.3942,23.0485,广州市,番禺大学城,,26,NA,21,3,8,82,82,42,42,16,24,4,5,0.3,0.3
2026-06-30T1200,3303A,113.4923,22.8169,广州市,南沙黄阁,,24,20,14,12,6,76,76,52,52,13,15,6,6,/,/
2026-06-30T1200,3304A,113.534,22.7893,广州市,南沙街,,24,20,15,7,6,74,74,50,50,11,17,8,8,0.4,0.4
2026-06-30T1200,3443A,113.2905,23.5541,广州市,花都梯面,,27,15,20,7,11,85,85,40,40,8,15,8,8,/,/
2026-06-30T1200,3445A,113.786,23.7479,广州市,从化良口,,17,8,6,8,9,54,54,30,30,5,10,4,4,/,/
2026-06-30T1200,3446A,113.805,23.2614,广州市,增城荔城,,25,7,20,3,14,77,77,31,31,7,15,8,8,0.5,0.5
2026-06-30T1200,2506A,109.604387,23.066791,贵港市,江南子站,,24,24,22,15,13,67,67,38,38,6,11,9,6,0.6,0.6
2026-06-30T1200,2508A,109.5669,23.1065,贵港市,荷城子站,,24,24,17,9,11,69,69,37,37,7,11,7,6,0.7,0.7
2026-06-30T1200,3405A,109.5886,23.1172,贵港市,新世纪学校,,33,27,18,23,13,64,64,31,31,7,11,/,/,0.7,0.5
2026-06-30T1200,4260A,109.5933,23.095,贵港市,中山路155-3号,,29,29,26,17,13,76,76,38,38,8,11,/,/,0.7,0.6
2026-06-30T1200,1439A,106.6863,26.6035,贵阳市,马鞍山,,16,7,11,3,7,51,51,32,30,7,11,11,9,/,/
2026-06-30T1200,1441A,106.6241,26.6266,贵阳市,鉴湖路,,24,24,21,8,6,51,51,39,39,7,9,7,7,0.7,0.8
2026-06-30T1200,1442A,106.7468,26.6344,贵阳市,燕子冲,,17,17,19,3,6,39,39,33,28,12,12,8,8,0.8,0.7
2026-06-30T1200,1443A,106.6556,26.4362,贵阳市,碧云窝,,29,29,24,3,9,41,41,40,33,16,11,6,5,/,/
2026-06-30T1200,1445A,106.6963,26.6063,贵阳市,红边门,,16,12,10,3,6,50,50,36,30,11,11,7,5,/,/
2026-06-30T1200,1446A,106.7162383,26.56964667,贵阳市,新华路,,17,17,17,3,5,51,51,43,37,10,10,8,5,0.6,0.6
2026-06-30T1200,1447A,106.6742,26.542,贵阳市,太慈桥,,14,12,14,9,7,44,44,27,23,11,11,2,3,/,/
2026-06-30T1200,4230A,106.688212,26.56952,贵阳市,花果园大街66号,,18,11,13,9,8,56,56,37,30,8,12,2,2,/,/
2026-06-30T1200,4231A,106.687268,26.516892,贵阳市,漓江路57号,,19,19,16,3,9,33,33,30,23,16,36,2,2,1.0,0.9
2026-06-30T1200,1864A,110.3091,25.2705,桂林市,龙隐路小学,,21,21,24,12,12,58,58,32,32,2,6,4,4,0.5,0.7
2026-06-30T1200,1865A,110.2849361,25.22909545,桂林市,八中,,22,22,23,3,9,62,62,35,35,7,9,4,8,0.7,0.8
2026-06-30T1200,3531A,110.296,25.1254,桂林市,旅游学院,,18,15,26,6,11,57,57,30,30,2,4,7,9,0.3,0.4
2026-06-30T1200,4222A,110.1835,25.2444,桂林市,环湖路276号,,20,NA,13,11,11,64,64,44,44,1,4,3,4,0.5,0.5
2026-06-30T1200,4301A,110.2803,25.2773,桂林市,信义路13号,NA,NA,20,23,7,13,61,61,33,33,4,7,5,10,NA,0.7
2026-06-30T1200,2674A,100.2262,34.4854,果洛藏族自治州,玛沁县大武镇,,37,37,40,10,13,116,116,75,75,2,2,15,12,0.3,0.3
2026-06-30T1200,1130A,126.5557,45.8109,哈尔滨市,松北商大,,49,35,41,34,29,141,141,78,78,10,19,6,6,0.5,0.5
2026-06-30T1200,1132A,126.6162,45.719,哈尔滨市,南岗学府路,颗粒物(PM10),62,66,51,39,32,144,144,80,80,16,28,6,8,0.4,0.4
2026-06-30T1200,1133A,126.6894,45.7733,哈尔滨市,太平宏伟公园,颗粒物(PM10),56,58,46,29,17,139,139,64,64,17,25,8,7,0.4,0.4
2026-06-30T1200,1134A,126.6361,45.7672,哈尔滨市,道外承德广场,颗粒物(PM10),65,70,61,23,19,152,152,90,90,18,26,5,6,0.8,0.6
2026-06-30T1200,1136A,126.644,45.7261,哈尔滨市,动力和平路,颗粒物(PM10),55,57,57,34,17,152,152,86,86,14,28,5,8,0.5,0.5
2026-06-30T1200,1137A,126.5933,45.7479,哈尔滨市,道里建国路,NA,NA,NA,52,NA,25,NA,NA,134,NA,NA,20,NA,5,NA,1.4
2026-06-30T1200,1138A,126.6127,45.6119,哈尔滨市,平房东轻厂,,37,29,23,22,15,116,116,69,69,14,15,5,6,0.9,0.8
2026-06-30T1200,1139A,126.5875,45.9827,哈尔滨市,呼兰师专,颗粒物(PM10),68,75,48,18,17,126,126,60,60,20,24,4,3,0.6,0.6
2026-06-30T1200,1140A,126.6299,45.6799,哈尔滨市,省农科院,颗粒物(PM10),79,90,64,39,24,131,131,65,65,15,34,5,5,0.4,0.5
2026-06-30T1200,4282A,126.6769,45.7379,哈尔滨市,华山路1号,,49,41,36,26,17,154,154,90,90,11,20,8,8,0.2,0.3
2026-06-30T1200,4283A,126.9717,45.5356,哈尔滨市,解放大街52号,颗粒物(PM10),53,54,40,14,9,127,127,76,76,12,18,3,4,0.5,0.5
2026-06-30T1200,2688A,93.5124,42.8176,哈密市,地区监测站,,39,17,13,8,9,122,122,106,102,6,7,8,6,0.4,0.4
2026-06-30T1200,2689A,93.5014,42.8312,哈密市,哈密师范学校,,36,18,22,6,11,115,115,95,91,7,12,7,7,0.0,0.1
2026-06-30T1200,2671A,100.9016,36.9464,海北藏族自治州,海晏县西海镇,,48,15,18,6,9,152,152,93,93,1,2,10,7,0.4,0.3
2026-06-30T1200,3867A,102.074,36.5056,海东市,平安区公安局北苑,NA,NA,31,27,10,15,133,133,78,78,NA,7,12,9,0.4,0.5
2026-06-30T1200,4163A,102.0984,36.5119,海东市,滨河路,,41,NA,27,16,15,131,131,65,65,7,28,8,7,0.5,0.5
2026-06-30T1200,1410A,110.3189,20.0596,海口市,海南大学,,21,13,15,7,8,65,65,58,58,5,6,5,5,0.3,0.4
2026-06-30T1200,1411A,110.2827,20.0051,海口市,秀英海南医院,,20,10,14,8,8,63,63,50,50,8,16,5,5,0.3,0.3
2026-06-30T1200,1412A,110.3391,19.9979,海口市,海南师范大学,,19,11,15,7,8,58,58,51,51,4,6,3,3,0.4,0.4
2026-06-30T1200,1413A,110.3303,20.0359,海口市,龙华路环保局宿舍,,21,17,16,9,8,66,66,58,58,5,6,/,/,0.3,0.3
2026-06-30T1200,3539A,110.5111,19.9737,海口市,桂林洋子站,,17,15,17,8,8,54,54,48,48,4,6,/,/,/,/
2026-06-30T1200,4134A,110.1952,20.0451,海口市,长滨二路9号,,20,18,17,10,8,61,61,46,46,4,6,/,/,/,/
2026-06-30T1200,2673A,100.6158,36.2985,海南藏族自治州,共和县恰卜恰镇,,39,28,23,7,14,124,124,91,91,2,6,8,10,0.4,0.4
2026-06-30T1200,2676A,97.373,37.376,海西蒙古族藏族自治州,德令哈市,颗粒物(PM10),168,285,50,93,18,127,127,114,114,3,2,22,19,0.3,0.3
2026-06-30T1200,1049A,114.492,36.5712,邯郸市,矿院,臭氧1小时(O3_1h),97,72,51,52,42,197,197,115,115,7,11,13,6,1.0,1
2026-06-30T1200,1050A,114.4839,36.6136,邯郸市,丛台公园,细颗粒物(PM2.5),84,67,55,52,39,183,183,96,96,9,14,16,11,0.9,0.9
2026-06-30T1200,3458A,114.7893,36.5592,邯郸市,香泉濮院小区,细颗粒物(PM2.5),106,70,67,66,53,164,164,81,81,14,24,2,3,0.7,0.6
2026-06-30T1200,3580A,114.1998,36.4439,邯郸市,峰峰矿区临水派出所,臭氧1小时(O3_1h),74,53,46,30,30,179,179,109,109,16,18,17,14,1.5,1.2
2026-06-30T1200,4068A,114.5209,36.7697,邯郸市,建安街268号,臭氧1小时(O3_1h),89,67,63,36,37,191,191,94,94,13,23,10,3,1.1,0.7
2026-06-30T1200,4069A,114.5488,36.6177,邯郸市,丛台东路558号,细颗粒物(PM2.5),82,69,64,51,40,163,163,74,74,7,33,3,4,0.8,0.8
2026-06-30T1200,2635A,107.0155,33.0707,汉中市,市监测站,,44,44,39,29,26,121,121,62,62,8,11,5,4,0.6,0.4
2026-06-30T1200,2636A,107.0083,33.114,汉中市,鑫源开发区,,42,42,50,12,11,130,130,69,69,8,16,8,7,0.6,0.5
2026-06-30T1200,2637A,107.0072,33.0323,汉中市,南郑大河坎水厂,,39,39,30,25,21,113,113,52,52,8,12,4,3,0.7,0.6
2026-06-30T1200,1223A,120.2073,30.2111,杭州市,滨江,,15,15,26,10,17,33,33,22,22,17,18,4,4,0.6,0.6
2026-06-30T1200,1224A,120.0625,30.2737,杭州市,西溪,,9,8,19,3,11,27,27,15,15,8,10,4,4,0.9,0.9
2026-06-30T1200,1226A,120.3417,30.315,杭州市,下沙,,33,NA,24,23,22,29,29,24,23,33,27,4,4,0.7,0.6
2026-06-30T1200,1227A,120.1252,30.2465,杭州市,卧龙桥,,18,18,30,11,18,24,24,11,11,18,15,5,5,0.6,0.6
2026-06-30T1200,1228A,120.1902,30.2691,杭州市,浙江农大,NA,NA,NA,21,NA,18,38,38,23,22,NA,22,NA,6,NA,0.5
2026-06-30T1200,1230A,120.1195,30.3121,杭州市,和睦小学,,16,12,22,11,19,36,36,24,22,9,11,7,8,0.6,0.6
2026-06-30T1200,1231A,120.3076,30.4146,杭州市,临平镇,,32,27,37,22,18,36,36,28,28,22,22,6,7,0.7,0.6
2026-06-30T1200,1232A,120.2753,30.1839,杭州市,城厢镇,,16,16,23,8,14,32,32,26,20,19,19,5,5,0.9,0.9
2026-06-30T1200,1233A,120.0883,30.1808,杭州市,云栖,,20,19,26,14,16,22,22,12,12,26,19,5,5,0.8,0.7
2026-06-30T1200,3557A,119.9463,30.0496,杭州市,镇二中,,15,13,22,10,17,20,20,12,12,23,20,5,5,0.9,0.9
2026-06-30T1200,3558A,119.7184,30.2367,杭州市,市府大楼,NA,NA,6,19,3,16,43,43,20,20,7,9,7,7,NA,0.6
2026-06-30T1200,3656A,120.1554,30.2863,杭州市,消防大队,,16,11,22,11,19,28,28,21,18,19,15,7,8,0.9,0.8
2026-06-30T1200,1270A,117.1957,31.7845,合肥市,明珠广场,,34,7,39,3,25,106,106,98,98,4,8,7,8,0.5,0.6
2026-06-30T1200,1271A,117.307,31.8765,合肥市,三里街,,34,12,43,3,27,107,107,94,92,8,13,9,9,0.5,0.7
2026-06-30T1200,1272A,117.2587,31.8703,合肥市,琥珀山庄,,37,14,41,3,26,117,117,101,101,4,8,6,7,0.5,0.7
2026-06-30T1200,1275A,117.2593,31.9376,合肥市,庐阳区,,41,19,46,3,26,131,131,106,106,12,18,6,13,0.3,0.5
2026-06-30T1200,1276A,117.345251,31.861615,合肥市,瑶海区,,36,9,44,3,25,114,114,96,96,5,13,8,9,0.5,0.7
2026-06-30T1200,1277A,117.3033,31.7967,合肥市,包河区,NA,NA,7,40,3,25,103,103,100,98,NA,11,8,9,0.6,0.7
2026-06-30T1200,1278A,117.278,31.7392,合肥市,滨湖新区,,34,6,37,3,21,106,106,99,99,4,8,10,11,0.6,0.7
2026-06-30T1200,1279A,117.1324,31.8395,合肥市,高新区,,36,9,40,3,25,115,115,102,102,2,6,7,7,0.5,0.7
2026-06-30T1200,3464A,117.3802,31.9148,合肥市,高教基地,,37,19,44,3,26,116,116,97,94,6,9,5,6,0.4,0.6
2026-06-30T1200,4098A,117.2518,31.8404,合肥市,中国科学技术大学,,37,12,35,3,23,117,117,104,104,4,9,9,10,0.5,0.7
2026-06-30T1200,3614A,79.9241,37.0878,和田地区,地区环保局,颗粒物(PM10),80,92,83,33,26,131,131,107,107,1,6,6,7,0.2,0.1
2026-06-30T1200,3615A,79.9132,37.1137,和田地区,市环保局,颗粒物(PM10),80,92,84,17,21,131,131,104,104,5,17,1,2,0.4,0.4
2026-06-30T1200,2517A,108.0496,24.6957,河池市,市环保站,,31,31,25,16,11,45,45,34,34,5,7,4,3,0.9,0.9
2026-06-30T1200,4302A,108.0901,24.6945,河池市,上任中路54号,,31,31,25,8,10,47,47,44,44,8,9,5,4,0.8,0.8
2026-06-30T1200,1697A,114.6962,23.7538,河源市,东埔,,17,12,15,7,9,52,52,33,33,4,7,4,5,0.5,0.6
2026-06-30T1200,1698A,114.6895,23.7232,河源市,老城,,21,21,18,7,10,53,53,30,30,4,8,6,10,0,0.2
2026-06-30T1200,3374A,115.5562,35.089,菏泽市,定陶老年大学,细颗粒物(PM2.5),70,58,57,45,39,167,167,139,139,8,10,3,3,0.5,0.4
2026-06-30T1200,4114A,115.4239,35.2593,菏泽市,黄河路600号,细颗粒物(PM2.5),92,72,64,56,41,132,132,127,125,6,8,4,4,0.6,0.5
2026-06-30T1200,4115A,115.5025,35.2727,菏泽市,菏泽市人社局,颗粒物(PM10),55,56,57,34,40,121,121,107,106,11,13,5,6,0.5,0.4
2026-06-30T1200,4184A,115.479691,35.244011,菏泽市,永昌路1号,颗粒物(PM10),60,63,65,37,38,140,140,127,127,8,12,6,6,0.3,0.3
2026-06-30T1200,4193A,115.471542,35.280012,菏泽市,长城路999号,细颗粒物(PM2.5),68,61,55,44,38,135,135,126,122,8,10,12,12,0.7,0.7
2026-06-30T1200,2514A,111.5264,24.4178,贺州市,环保小区,,19,18,19,10,13,59,59,38,38,8,9,4,4,0.4,0.4
2026-06-30T1200,2515A,111.561,24.4074,贺州市,政协大楼,NA,NA,NA,NA,NA,NA,NA,NA,NA,NA,NA,NA,NA,NA,NA,NA
2026-06-30T1200,3534A,111.4744,24.455,贺州市,西湾,NA,NA,NA,31,9,10,64,64,33,33,7,9,8,8,0.3,0.4
2026-06-30T1200,2385A,114.17,35.9019,鹤壁市,市监测站,细颗粒物(PM2.5),62,56,52,41,37,148,148,93,93,9,8,10,6,0.8,0.8
2026-06-30T1200,2386A,114.2953,35.7512,鹤壁市,市交警支队,细颗粒物(PM2.5),62,56,55,41,36,133,133,85,85,16,17,6,7,0.9,0.7
2026-06-30T1200,2387A,114.2877,35.7302,鹤壁市,迎宾馆,颗粒物(PM10),63,68,46,33,31,127,127,79,76,13,12,13,8,1.1,0.8
2026-06-30T1200,3474A,114.2616,35.6824,鹤壁市,大新区,细颗粒物(PM2.5),56,54,48,38,35,126,126,75,71,13,16,9,6,1.2,0.8
2026-06-30T1200,3596A,114.1573,35.9607,鹤壁市,南山宾馆,颗粒物(PM10),53,54,42,34,40,147,147,94,94,10,8,14,10,0.9,0.7
2026-06-30T1200,2244A,130.2537,47.3416,鹤岗市,哈啤分公司,NA,NA,9,24,3,8,86,86,73,73,4,10,NA,3,0.1,0.1
2026-06-30T1200,2245A,130.2683,47.3087,鹤岗市,斯达机电,,32,19,22,6,10,102,102,77,77,4,9,5,5,0.2,0.2
2026-06-30T1200,2246A,130.3114,47.3388,鹤岗市,东山纸板厂,,26,17,72,7,16,81,81,64,64,5,18,4,7,0.2,0.3
2026-06-30T1200,2263A,127.4832,50.2524,黑河市,交通局,,42,22,24,11,10,133,133,83,83,8,11,6,5,0.4,0.5
2026-06-30T1200,2264A,127.5146,50.2339,黑河市,环保局,,40,23,22,16,12,128,128,74,74,7,12,7,7,0.2,0.3
2026-06-30T1200,1074A,115.6839,37.754,衡水市,电机北厂,细颗粒物(PM2.5),100,87,75,60,45,177,177,120,104,12,16,5,2,0.7,0.6
2026-06-30T1200,1075A,115.6303,37.7318,衡水市,市监测站,"颗粒物(PM10),细颗粒物(PM2.5)",80,91,71,50,37,179,179,112,96,14,18,10,7,1.0,0.9
2026-06-30T1200,3188A,115.6684,37.7216,衡水市,市城管局,臭氧1小时(O3_1h),78,81,70,44,40,182,182,106,98,12,16,5,6,0.6,0.5
2026-06-30T1200,3459A,115.599,37.5491,衡水市,地表水厂,颗粒物(PM10),75,84,68,44,38,164,164,108,108,10,20,7,7,0.5,0.4
2026-06-30T1200,2457A,112.6209,26.9268,衡阳市,衡阳化工总厂,,33,33,31,14,18,77,77,40,40,5,8,6,6,0.9,0.9
2026-06-30T1200,2458A,112.621,26.8957,衡阳市,珠晖区环保局,,33,33,31,14,16,75,75,39,39,3,7,5,6,0.9,1
2026-06-30T1200,2459A,112.628,26.8654,衡阳市,市委党校,,34,34,28,19,19,77,77,39,39,1,4,11,9,0.5,0.6
2026-06-30T1200,2460A,112.6007,26.8977,衡阳市,市监测站,,29,NA,28,20,18,79,79,46,46,5,8,8,9,0.8,1
2026-06-30T1200,2461A,112.5658,26.9013,衡阳市,真空机电公司,NA,NA,33,28,20,20,77,77,42,42,6,11,NA,5,0.9,1.3
2026-06-30T1200,3399A,112.6703,26.8817,衡阳市,师范学院,,31,31,29,12,16,76,76,36,36,7,7,8,8,0.7,0.8
2026-06-30T1200,3038A,103.3757,23.3679,红河哈尼族彝族自治州,州图书馆,,32,NA,22,22,15,56,56,36,36,6,6,8,5,0.5,0.4
2026-06-30T1200,4154A,103.401,23.3561,红河哈尼族彝族自治州,蒙自市朝阳路,,30,NA,15,21,15,58,58,38,38,6,7,7,8,0.4,0.4
2026-06-30T1200,1090A,111.6506,40.7517,呼和浩特市,呼市一监,,44,22,21,11,10,138,138,96,96,6,7,8,7,0.5,0.4
2026-06-30T1200,1094A,111.7516,40.8369,呼和浩特市,如意水处理厂,,50,38,24,26,13,158,158,112,112,9,9,10,8,0.5,0.4
2026-06-30T1200,1095A,111.727798,40.806187,呼和浩特市,二十九中,,45,27,25,22,18,141,141,106,106,6,10,11,10,0.7,0.6
2026-06-30T1200,1097A,111.717,40.7617,呼和浩特市,化肥厂生活区,,45,36,25,26,16,143,143,107,107,8,11,12,11,0.6,0.5
2026-06-30T1200,3699A,111.6519,40.8389,呼和浩特市,海东办,,43,31,23,3,6,136,136,99,99,15,12,11,8,0.6,0.5
2026-06-30T1200,4275A,111.591512,40.827312,呼和浩特市,成吉思汗西街8号,,42,36,23,12,8,133,133,92,92,21,20,10,7,0.5,0.3
2026-06-30T1200,4276A,111.6597,40.8077,呼和浩特市,公园东路75号,,47,24,21,14,9,148,148,130,126,12,10,13,12,0.7,0.6
2026-06-30T1200,4277A,111.5427,40.7846,呼和浩特市,金海路35号,,39,34,28,11,12,122,122,91,91,14,15,10,8,0.6,0.5
2026-06-30T1200,3061A,119.7511,49.1576,呼伦贝尔市,国华电力东,,36,24,23,17,15,113,113,77,77,5,9,5,5,0.4,0.4
2026-06-30T1200,4279A,119.7569,49.2222,呼伦贝尔市,伊敏大街东7号,,35,24,22,14,12,110,110,76,76,8,14,6,6,0.5,0.5
2026-06-30T1200,1250A,120.075,30.867,湖州市,城西水厂,NA,NA,16,38,13,25,NA,NA,68,NA,22,14,5,5,0.9,0.6
2026-06-30T1200,2873A,120.083,30.8929,湖州市,仁皇山新区,,17,10,36,8,26,54,54,47,47,16,14,5,5,0.6,0.6
2026-06-30T1200,2907A,120.1846,30.8592,湖州市,吴兴区站,,17,9,23,9,20,54,54,51,51,15,15,6,6,0.5,0.5
2026-06-30T1200,3562A,120.4146,30.8538,湖州市,南浔区站,,14,12,20,8,17,44,44,54,54,20,14,7,7,0.7,0.7
2026-06-30T1200,1607A,120.904878,40.721091,葫芦岛市,龙港区,,39,34,27,27,19,96,96,83,83,8,7,8,8,0.5,0.4
2026-06-30T1200,1608A,120.8382,40.7521,葫芦岛市,化工街,,42,39,26,29,17,90,90,81,79,11,14,11,12,0.3,0.3
2026-06-30T1200,1609A,120.8339,40.7078,葫芦岛市,新区,,35,32,26,24,18,83,83,76,75,8,8,4,5,0.3,0.4
2026-06-30T1200,1610A,120.8697,40.7679,葫芦岛市,东城区,,38,36,27,26,22,94,94,79,79,9,12,2,2,0.5,0.5
2026-06-30T1200,2483A,109.9297,27.5383,怀化市,河西地税局,,25,18,20,10,14,77,77,76,66,5,6,10,9,/,/
2026-06-30T1200,2484A,109.9783,27.5342,怀化市,市四医院,NA,NA,21,23,13,17,66,66,77,69,NA,6,7,7,0.1,0.4
2026-06-30T1200,2485A,109.9971,27.5579,怀化市,监测楼,,22,19,22,12,14,68,68,72,70,11,7,7,8,0.2,0.2
2026-06-30T1200,1210A,119.0566,33.5991,淮安市,钵池山,细颗粒物(PM2.5),56,56,51,38,34,102,102,58,58,12,12,7,8,0.5,0.4
2026-06-30T1200,1211A,119.0083,33.578,淮安市,北京南路,细颗粒物(PM2.5),64,56,52,42,38,126,126,69,69,7,8,6,7,1.0,0.9
2026-06-30T1200,1212A,118.9938,33.6083,淮安市,市监测站,细颗粒物(PM2.5),76,48,44,48,40,114,114,66,66,16,13,8,7,0.5,0.7
2026-06-30T1200,1213A,119.135,33.5038,淮安市,楚州区监测站,细颗粒物(PM2.5),68,46,44,44,39,107,107,59,59,4,8,6,6,0.8,0.8
2026-06-30T1200,3426A,118.8757,33.2897,淮安市,新华书店,,50,50,53,28,30,117,117,64,64,10,13,8,9,0.9,0.9
2026-06-30T1200,4092A,119.119691,33.550006,淮安市,枚皋中路89号,"颗粒物(PM10),细颗粒物(PM2.5)",52,52,45,36,33,106,106,62,62,10,11,8,8,0.8,0.8
2026-06-30T1200,4206A,119.028838,33.631911,淮安市,承德北路606号,细颗粒物(PM2.5),72,53,51,46,39,101,101,58,58,5,7,6,6,0.9,0.8
2026-06-30T1200,2282A,116.8005,33.9749,淮北市,监测站,细颗粒物(PM2.5),68,64,58,44,39,172,172,118,118,8,11,6,6,0.6,0.7
2026-06-30T1200,2283A,116.8094,33.9008,淮北市,烈山区政府,臭氧1小时(O3_1h),74,66,77,35,46,179,179,117,117,6,9,4,4,0.8,0.7
2026-06-30T1200,4017A,116.7926,33.9534,淮北市,市博物馆,臭氧1小时(O3_1h),73,67,58,42,40,178,178,128,128,7,9,4,3,0.7,0.7
2026-06-30T1200,4100A,116.8322,33.9884,淮北市,杜集区第一实验学校,颗粒物(PM10),70,78,80,32,46,164,164,113,113,8,10,7,6,0.8,0.7
2026-06-30T1200,2277A,116.8304,32.7726,淮南市,潘集区政府,,43,10,54,3,31,136,136,97,97,6,15,10,8,0.2,0.4
2026-06-30T1200,2279A,116.8569,32.5949,淮南市,谢家集区政府,,39,NA,44,3,34,123,123,99,99,8,12,7,8,0.1,0.4
2026-06-30T1200,2280A,116.8279,32.6333,淮南市,八公山区政府,,40,26,52,3,34,127,127,104,104,6,8,7,8,0.1,0.4
2026-06-30T1200,2894A,117.0561,32.6536,淮南市,经济技术开发区消防队,,37,9,39,3,34,118,118,98,98,5,11,8,8,0.3,0.6
2026-06-30T1200,3329A,117.011,32.5891,淮南市,山南新区,,38,6,43,3,34,119,119,99,99,4,8,10,10,0.3,0.6
2026-06-30T1200,4209A,117.003137,32.644456,淮南市,国庆中路369号,,34,16,56,3,33,108,108,85,85,6,12,7,8,0.2,0.4
2026-06-30T1200,2446A,114.9021,30.474,黄冈市,职工中心,,19,10,22,3,14,58,58,60,60,15,10,11,9,0.6,0.7
2026-06-30T1200,2929A,114.8858,30.4519,黄冈市,红卫路,,20,11,20,11,18,63,63,58,58,4,5,6,7,0.5,0.6
2026-06-30T1200,3398A,114.9134,30.4446,黄冈市,市林业局,NA,NA,10,23,NA,20,66,66,63,63,9,10,4,4,NA,0.5
2026-06-30T1200,2672A,102.02,35.5101,黄南藏族自治州,同仁县隆务镇,,46,20,21,9,10,146,146,107,107,2,2,10,10,0.2,0.2
2026-06-30T1200,2295A,118.2905,29.6965,黄山市,延安路89号,,10,6,9,3,3,30,30,30,29,8,6,6,6,0.5,0.4
2026-06-30T1200,2297A,118.1369,30.2755,黄山市,黄山区政府5号楼,,19,6,18,3,6,60,60,63,63,2,3,3,3,0.5,0.5
2026-06-30T1200,4210A,118.335445,29.720283,黄山市,滨江东路7-2号,,9,6,20,3,4,28,28,32,31,6,7,/,/,/,/
2026-06-30T1200,2423A,115.0547,30.2332,黄石市,沈家营,,22,22,37,3,13,58,58,55,55,15,8,9,6,0.9,0.6
2026-06-30T1200,2426A,114.899,30.211,黄石市,铁山,,20,14,25,3,14,61,61,68,64,3,3,4,4,0.2,0.3
2026-06-30T1200,2427A,115.0259,30.2108,黄石市,团城山,,22,7,30,3,15,69,69,75,72,2,3,4,4,0.6,0.7
2026-06-30T1200,3149A,115.0174,30.1591,黄石市,笔架山北路,,22,22,40,3,14,61,61,63,62,5,5,4,5,0.3,0.4
2026-06-30T1200,4185A,115.078022,30.21118,黄石市,磁湖东路29号,,20,10,29,3,13,62,62,76,72,15,10,6,5,1.0,0.8
2026-06-30T1200,1392A,114.4181,23.0528,惠州市,河南岸金山湖子站,,25,11,12,7,7,78,78,46,46,5,10,7,7,0.5,0.5
2026-06-30T1200,1393A,114.4055,23.0824,惠州市,下埔横江三路子站,,28,13,14,10,8,88,88,50,50,5,8,6,4,0.6,0.5
2026-06-30T1200,1395A,114.4645,22.7832,惠州市,惠阳区承修路船湖子站,,28,10,12,7,7,88,88,50,50,6,7,3,4,0.6,0.6
2026-06-30T1200,1396A,114.5316,22.7423,惠州市,大亚湾管委会子站,,25,9,13,6,7,80,80,43,43,9,10,6,5,0.5,0.5
2026-06-30T1200,3314A,114.4334,22.8134,惠州市,惠阳秋长,,30,7,10,6,6,96,96,50,50,8,9,/,/,/,/
2026-06-30T1200,3452A,114.6521,22.7755,惠州市,大亚湾霞涌,,20,6,11,3,5,64,64,41,41,2,5,/,/,/,/
2026-06-30T1200,4300A,114.4089,23.1147,惠州市,文华一路1号,,28,13,13,9,8,89,89,46,46,4,10,/,/,/,/
2026-06-30T1200,2240A,130.9618,45.2926,鸡西市,环保局,,42,31,25,21,15,133,133,75,75,8,12,10,10,0.3,0.3
2026-06-30T1200,2243A,130.9294,45.2959,鸡西市,第一中学,,34,30,27,22,17,106,106,59,59,7,16,9,9,0.4,0.3
2026-06-30T1200,3707A,131.0069,45.2988,鸡西市,欧美日汽修厂,,39,16,28,16,11,123,123,68,68,6,13,7,6,0.7,0.6
2026-06-30T1200,2367A,114.9753,27.0803,吉安市,红声器材厂,,25,23,25,6,6,78,78,49,49,6,8,6,6,0.3,0.3
2026-06-30T1200,2369A,114.9903,27.1313,吉安市,市环境监测站,,27,27,24,8,7,78,78,48,48,4,7,8,9,/,/
2026-06-30T1200,2370A,115.009527,27.096792,吉安市,青原区法院,,25,25,25,3,6,78,78,52,52,3,7,7,7,0.3,0.2
2026-06-30T1200,1772A,126.54,43.8622,吉林市,哈达湾,,43,41,44,24,25,135,135,83,83,14,20,6,6,0.5,0.5
2026-06-30T1200,1773A,126.5843,43.8358,吉林市,东局子,,41,32,28,25,27,131,131,80,80,9,14,4,4,1.1,1.1
2026-06-30T1200,1774A,126.5051,43.8243,吉林市,电力学院,,46,34,40,23,26,147,147,84,84,6,22,5,6,1.0,1
2026-06-30T1200,1775A,126.6133,43.8971,吉林市,江北,细颗粒物(PM2.5),58,40,31,39,32,143,143,81,81,12,13,8,7,0.7,0.7
2026-06-30T1200,1776A,126.5549,43.8304,吉林市,江南公园,,44,33,34,19,22,139,139,80,80,5,12,5,5,0.2,0.2
2026-06-30T1200,2868A,126.4737,43.953,吉林市,九站,,48,43,45,24,32,152,152,92,92,6,24,3,5,0.3,0.3
2026-06-30T1200,1299A,116.9866,36.6118,济南市,科干所,臭氧1小时(O3_1h),53,51,46,32,35,162,162,164,159,11,14,4,4,0.8,0.8
2026-06-30T1200,1300A,116.9379,36.6652,济南市,农科所,,46,46,50,28,41,143,143,135,135,11,15,4,3,0.4,0.4
2026-06-30T1200,1301A,117.1265,36.6736,济南市,开发区,,46,46,51,25,39,121,121,118,118,8,13,5,6,0.7,0.7
2026-06-30T1200,1303A,117.0616,36.6865,济南市,省种子仓库,颗粒物(PM10),55,56,63,23,41,154,154,142,142,7,17,5,5,0.6,0.7
2026-06-30T1200,1304A,116.9495185,36.644937,济南市,机床二厂,颗粒物(PM10),51,51,52,32,37,142,142,137,137,12,13,5,5,0.5,0.5
2026-06-30T1200,1305A,117.0496,36.6629,济南市,市监测站,颗粒物(PM10),51,51,56,25,36,144,144,144,144,10,15,3,3,0.5,0.6
2026-06-30T1200,1306A,116.7674,36.5458,济南市,长清党校,颗粒物(PM10),58,61,49,32,33,113,113,144,122,11,10,2,4,0.6,0.5
2026-06-30T1200,1961A,117.5323,36.6865,济南市,东山小学,细颗粒物(PM2.5),58,51,51,39,35,138,138,136,133,11,13,4,5,0.5,0.5
2026-06-30T1200,3059A,117.7181,36.205,济南市,泰兴公司,细颗粒物(PM2.5),70,63,44,45,29,136,136,84,84,8,16,10,9,0.5,0.4
2026-06-30T1200,3064A,117.6861,36.2172,济南市,莱芜战役纪念馆,NA,NA,NA,40,51,27,109,109,83,83,17,14,12,4,NA,0.6
2026-06-30T1200,3494A,117.1673,36.9782,济南市,济阳区政府,颗粒物(PM10),62,66,57,36,41,150,150,97,97,16,17,3,3,0.5,0.6
2026-06-30T1200,3495A,117.1168,36.6299,济南市,锦屏中学,,44,44,52,17,36,110,110,117,114,7,9,8,8,0.3,0.4
2026-06-30T1200,4108A,117.7107,36.2385,济南市,山财大街5号,细颗粒物(PM2.5),110,NA,41,71,34,118,118,100,100,19,19,9,7,1.2,0.6
2026-06-30T1200,4109A,116.9744,36.6889,济南市,无影山路12号,,46,46,53,28,44,145,145,134,134,10,18,2,3,0.6,0.7
2026-06-30T1200,1653A,116.6229,35.4288,济宁市,火炬城,臭氧1小时(O3_1h),63,35,55,30,36,170,170,112,112,6,14,4,4,0.8,0.8
2026-06-30T1200,3500A,116.5808,35.3703,济宁市,北湖一中,细颗粒物(PM2.5),105,70,70,65,47,171,171,116,116,8,8,7,6,0.8,0.6
2026-06-30T1200,3501A,116.8251,35.5592,济宁市,服务中心,臭氧1小时(O3_1h),87,86,55,38,42,189,189,126,126,9,10,1,1,0.9,0.7
2026-06-30T1200,3678A,116.5907,35.4054,济宁市,市第七中学,臭氧1小时(O3_1h),78,57,71,48,41,182,182,121,121,8,10,4,4,0.7,0.5
2026-06-30T1200,4111A,116.6075,35.4566,济宁市,任和路,臭氧1小时(O3_1h),87,55,74,35,43,189,189,126,126,8,11,3,4,0.7,0.7
2026-06-30T1200,4112A,116.5648,35.3921,济宁市,文体南路1号,颗粒物(PM10),67,73,65,19,37,159,159,104,104,6,7,5,4,1.0,0.9
2026-06-30T1200,4122A,112.6071,35.1015,济源市,市委党校,,44,28,53,13,22,138,138,80,80,11,15,12,10,0.5,0.7
2026-06-30T1200,4123A,112.596,35.0702,济源市,沁园中路1号,,45,29,39,16,21,144,144,88,88,12,13,4,3,0.7,0.6
2026-06-30T1200,2255A,130.2749,46.8028,佳木斯市,佳纺,,34,34,40,12,13,101,101,70,70,3,19,3,2,0.1,0.2
2026-06-30T1200,2257A,130.3258,46.7975,佳木斯市,环保局,,32,26,27,7,14,100,100,70,70,4,19,4,4,0.1,0.2
2026-06-30T1200,4285A,130.363,46.806,佳木斯市,顺和街,,32,26,24,11,12,102,102,75,75,4,16,1,2,0.2,0.2
2026-06-30T1200,4286A,130.3952,46.8268,佳木斯市,长安路196号,,36,27,28,15,10,113,113,69,69,5,25,5,6,0.1,0.2
2026-06-30T1200,1252A,120.7439,30.778,嘉兴市,清河小学,,14,10,19,3,10,43,43,50,50,22,13,5,5,0.7,0.6
2026-06-30T1200,1253A,120.7261,30.7477,嘉兴市,嘉兴学院,,13,9,19,7,12,40,40,48,48,26,16,4,4,0.7,0.7
2026-06-30T1200,2872A,120.7845,30.7524,嘉兴市,南湖区残联,NA,NA,NA,16,6,13,46,46,43,43,20,13,NA,7,0.7,0.7
2026-06-30T1200,3407A,120.6915,30.7741,嘉兴市,秀洲住建,,14,6,17,3,10,43,43,46,46,23,17,5,7,0.7,0.7
2026-06-30T1200,1945A,98.291,39.7705,嘉峪关市,气象局,颗粒物(PM10),67,73,39,25,16,114,114,75,75,20,16,52,16,1.1,0.7
2026-06-30T1200,2884A,98.2672,39.7978,嘉峪关市,酒钢宾馆,NA,NA,78,40,30,16,81,81,73,68,15,12,49,24,NA,0.8
2026-06-30T1200,3248A,98.2644,39.7723,嘉峪关市,雄关区,颗粒物(PM10),66,72,45,27,13,122,122,76,76,10,16,18,14,0.3,0.3
2026-06-30T1200,1383A,113.1063,22.6058,江门市,北街,,23,23,18,3,7,52,52,47,47,4,8,/,/,/,/
2026-06-30T1200,1384A,113.073,22.5835,江门市,西区,,17,10,16,3,8,54,54,48,48,8,12,/,/,/,/
2026-06-30T1200,1385A,113.0218,22.531,江门市,圭峰西,,24,24,20,3,7,55,55,49,49,7,10,/,/,/,/
2026-06-30T1200,1386A,113.0826,22.5947,江门市,东湖,,18,8,13,3,7,56,56,49,49,8,11,6,6,0.4,0.4
2026-06-30T1200,3311A,113.1077,22.5647,江门市,江海富民,,50,50,28,3,8,54,54,52,52,9,11,/,/,0.7,0.8
2026-06-30T1200,3449A,113.0496,22.4669,江门市,新会银湖,,25,25,18,3,6,53,53,36,36,9,15,3,2,0.5,0.6
2026-06-30T1200,3335A,113.3137,35.2643,焦作市,马村街道办,,48,48,43,33,29,141,141,69,69,13,13,16,9,0.8,0.5
2026-06-30T1200,3336A,113.2464,35.2374,焦作市,焦作技师学院,,43,33,47,20,27,137,137,77,77,17,14,12,10,0.7,0.8
2026-06-30T1200,3477A,113.1656,35.2536,焦作市,中站许衡医院,,46,39,45,23,25,147,147,89,89,8,10,11,8,0.5,0.6
2026-06-30T1200,3981A,113.2456,35.18,焦作市,原李万街道办,颗粒物(PM10),52,52,49,19,26,139,139,72,72,5,9,10,7,0.5,0.6
2026-06-30T1200,4264A,113.234,35.219,焦作市,新安路1731号,NA,NA,NA,50,28,28,150,150,77,77,3,7,13,11,NA,0.8
2026-06-30T1200,4295A,113.2722,35.2121,焦作市,人民路3066号,,49,45,48,28,29,154,154,82,82,15,16,8,6,0.6,0.6
2026-06-30T1200,1708A,116.3701,23.5345,揭阳市,新兴,,17,NA,20,9,10,52,52,35,35,10,18,5,7,0.5,0.5
2026-06-30T1200,1709A,116.3261,23.5442,揭阳市,西马,,33,33,20,13,10,48,48,35,35,12,14,4,6,0.5,0.6
2026-06-30T1200,1710A,116.361,23.5627,揭阳市,东兴,,33,33,17,9,10,48,48,32,32,9,14,1,4,/,/
2026-06-30T1200,1711A,116.4151,23.5295,揭阳市,渔湖,,16,16,22,8,9,51,51,30,30,8,15,2,2,/,/
2026-06-30T1200,3320A,116.4028,23.5699,揭阳市,曲溪,,15,11,10,9,9,47,47,24,24,8,12,7,6,0.3,0.3
2026-06-30T1200,1944A,102.1691,38.5166,金昌市,天庆家园,,41,39,53,13,19,131,131,84,84,6,9,4,16,0.2,0.3
2026-06-30T1200,4022A,102.1648,38.5369,金昌市,金川区人防中心,颗粒物(PM10),56,58,47,26,17,129,129,90,90,4,7,8,7,0.2,0.2
2026-06-30T1200,4239A,102.193042,38.531887,金昌市,长春路96号,颗粒物(PM10),55,57,51,21,18,125,125,84,84,2,5,7,7,0.2,0.3
2026-06-30T1200,1262A,119.6478,29.0773,金华市,十五中,,34,34,29,22,16,41,41,16,16,19,20,1,1,0.7,0.6
2026-06-30T1200,1263A,119.6859,29.1032,金华市,监测站,NA,NA,24,28,13,16,29,29,8,8,NA,27,4,4,NA,0.6
2026-06-30T1200,3659A,119.656,29.1132,金华市,气象局,,22,21,29,15,18,41,41,18,18,25,24,2,2,0.6,0.6
2026-06-30T1200,1767A,121.1114,41.0879,锦州市,南山,,32,31,30,22,25,91,91,73,73,6,16,4,6,0.3,0.3
2026-06-30T1200,1768A,121.060361,40.842794,锦州市,开发区,,50,44,41,35,23,96,96,84,84,9,14,6,9,0.4,0.4
2026-06-30T1200,1769A,121.1836,41.1118,锦州市,百股街道,,39,NA,29,27,25,101,101,85,85,6,12,4,5,0.3,0.4
2026-06-30T1200,1770A,121.1176,41.1224,锦州市,天安街道,,38,26,35,26,27,96,96,81,80,7,14,4,6,0.5,0.6
2026-06-30T1200,1771A,121.1303,41.1385,锦州市,北湖公园,,35,27,36,24,24,91,91,81,78,6,10,2,4,0.3,0.3
2026-06-30T1200,2160A,112.8496,35.5051,晋城市,自来水公司,NA,NA,43,46,26,17,146,146,74,74,11,13,NA,5,1.4,1
2026-06-30T1200,2162A,112.8509,35.4886,晋城市,市环保局,,49,49,38,29,21,138,138,79,79,11,13,11,6,1.4,1
2026-06-30T1200,3620A,112.8258,35.4804,晋城市,泽州一中,,48,48,37,20,22,143,143,82,82,15,14,7,4,1.1,0.9
2026-06-30T1200,4078A,112.8246,35.5152,晋城市,前书院路,,48,43,35,24,19,151,151,79,79,10,10,7,3,1.2,0.9
2026-06-30T1200,4079A,112.8864,35.4773,晋城市,祥云街666号,颗粒物(PM10),54,55,38,32,25,127,127,69,69,13,12,7,3,1.5,0.9
2026-06-30T1200,2174A,112.6992,37.6984,晋中市,榆次区政府,细颗粒物(PM2.5),52,51,46,36,32,151,151,66,66,6,22,14,11,0.8,0.8
2026-06-30T1200,2865A,112.7195,37.683,晋中市,榆次三中,颗粒物(PM10),53,53,45,31,31,153,153,74,74,7,21,14,11,0.9,0.7
2026-06-30T1200,4080A,112.7375,37.7215,晋中市,广安街188号,颗粒物(PM10),52,52,47,33,27,150,150,71,71,8,19,15,10,0.6,0.4
2026-06-30T1200,4200A,112.7478,37.6954,晋中市,迎宾街26号,,46,44,39,30,28,145,145,71,71,9,19,13,9,0.8,0.6
2026-06-30T1200,2439A,112.2012,31.048,荆门市,竹园小学,,28,28,31,18,22,88,88,94,94,14,14,4,4,0.7,0.8
2026-06-30T1200,2440A,112.1968,30.9892,荆门市,掇刀,,29,27,30,20,24,79,79,74,74,11,10,10,9,0.5,0.6
2026-06-30T1200,3012A,112.1849,31.0361,荆门市,西山林语,,33,33,26,14,22,74,74,78,78,7,7,8,9,0.5,0.5
2026-06-30T1200,3547A,112.1631,31.0134,荆门市,龙泉中学南校,,26,24,26,8,14,82,82,75,75,8,8,7,6,0.9,0.9
2026-06-30T1200,4124A,112.2213,31.0654,荆门市,新台西路6号,,26,26,38,16,24,83,83,98,98,9,10,5,5,0.9,1
2026-06-30T1200,1844A,112.2493,30.3198,荆州市,市图书馆,,16,11,21,7,18,51,51,66,60,7,10,5,6,0.6,0.6
2026-06-30T1200,1845A,112.2009,30.3543,荆州市,市委党校,,18,12,24,12,18,48,48,62,57,9,12,7,8,0.4,0.4
2026-06-30T1200,3194A,112.2749,30.3124,荆州市,管委会,,18,18,26,11,21,48,48,64,59,7,10,8,9,0.5,0.5
2026-06-30T1200,4268A,112.1722,30.3366,荆州市,学苑路85号,,29,29,34,11,19,49,49,56,53,6,12,10,10,0.3,0.3
2026-06-30T1200,2343A,117.2114,29.2931,景德镇市,老干部活动中心,NA,NA,NA,7,11,11,32,32,36,NA,11,7,5,5,NA,0.6
2026-06-30T1200,2344A,117.1893,29.2789,景德镇市,兽医站,,19,19,16,6,6,29,29,41,33,12,6,4,3,0.7,0.5
2026-06-30T1200,2346A,117.246,29.2958,景德镇市,陶研所,,10,6,9,3,5,30,30,38,33,6,3,4,5,0.7,0.6
2026-06-30T1200,4289A,117.154766,29.256967,景德镇市,青少年活动中心,,20,15,14,14,7,20,20,29,20,20,10,21,8,/,/
2026-06-30T1200,1803A,115.9873,29.6816,九江市,十里,,25,NA,15,11,6,80,80,75,75,11,8,3,3,0.5,0.5
2026-06-30T1200,1804A,115.9583,29.7047,九江市,茅山头,,24,8,12,8,7,74,74,76,75,5,3,4,4,0.5,0.5
2026-06-30T1200,1805A,115.9877,29.7295,九江市,西园,,24,NA,17,12,7,75,75,66,66,10,11,3,4,0.3,0.3
2026-06-30T1200,1808A,115.9112,29.6038,九江市,综合工业园,,24,7,13,6,9,74,74,64,64,18,19,3,2,0.3,0.3
2026-06-30T1200,3190A,116.0254,29.6995,九江市,外国语学校,,23,NA,10,10,7,73,73,70,70,9,7,6,7,0.7,0.7
2026-06-30T1200,4253A,116.010205,29.659402,九江市,莲花大道8号,NA,NA,13,7,10,8,71,71,68,67,NA,5,4,4,NA,0.5
2026-06-30T1200,4240A,98.495752,39.733935,酒泉市,玉门东路5号,颗粒物(PM10),95,112,35,35,14,120,120,81,81,6,9,12,8,0.2,0.2
2026-06-30T1200,4241A,98.5099,39.7506,酒泉市,北大街108号,颗粒物(PM10),88,102,39,26,16,121,121,78,78,4,9,10,12,0.3,0.4
2026-06-30T1200,2698A,76.0071,39.466,喀什地区,巡警大队,颗粒物(PM10),89,104,111,21,42,129,129,57,57,14,35,4,4,0.2,0.4
2026-06-30T1200,2699A,75.9756,39.4693,喀什地区,吾办,颗粒物(PM10),76,86,101,24,40,127,127,59,59,9,24,3,3,0.2,0.5
2026-06-30T1200,4027A,75.9485,39.4688,喀什地区,老干局,颗粒物(PM10),81,93,104,20,29,117,117,60,60,10,25,4,4,0.2,0.4
2026-06-30T1200,1824A,114.3389,34.778,开封市,肿瘤医院,细颗粒物(PM2.5),64,66,53,42,36,157,157,115,115,15,14,12,10,0.3,0.3
2026-06-30T1200,1826A,114.2884,34.7966,开封市,世纪星幼儿园,颗粒物(PM10),75,85,48,37,35,144,144,109,109,18,16,14,10,0.6,0.6
2026-06-30T1200,3147A,114.3434,34.8101,开封市,龙亭公园,NA,NA,79,51,32,30,169,169,112,112,12,13,NA,8,0.3,0.6
2026-06-30T1200,3210A,114.3645,34.7955,开封市,汴京公园,颗粒物(PM10),62,66,52,33,35,162,162,110,110,13,11,12,10,0.9,0.7
2026-06-30T1200,3473A,114.2485,34.8306,开封市,技师学院,颗粒物(PM10),67,73,60,34,33,163,163,104,104,16,13,9,10,0.9,0.8
2026-06-30T1200,3592A,114.4518,34.7503,开封市,祥符区生态环境局,细颗粒物(PM2.5),64,54,52,42,39,134,134,96,96,12,18,12,12,0.6,0.6
2026-06-30T1200,1951A,84.886,45.6029,克拉玛依市,长征新村,NA,NA,NA,29,NA,15,NA,NA,129,NA,NA,10,NA,4,NA,0.4
2026-06-30T1200,1952A,84.8894,45.5827,克拉玛依市,南林小区,,37,31,37,3,6,117,117,69,69,7,16,8,6,0.1,0.2
2026-06-30T1200,1954A,84.896,44.3328,克拉玛依市,独山子区,,38,32,28,3,5,119,119,92,90,15,8,9,8,0.5,0.4
2026-06-30T1200,1955A,85.6888,46.0909,克拉玛依市,乌尔禾区商贸楼,,35,35,31,16,20,108,108,78,70,9,11,7,7,0.3,0.3
2026-06-30T1200,3612A,85.1045,45.6895,克拉玛依市,白碱滩区新站,,37,16,24,3,6,116,116,102,98,5,5,10,9,0.1,0.2
2026-06-30T1200,2697A,76.1457,39.7143,克孜勒苏柯尔克孜自治州,市人民政府,颗粒物(PM10),70,78,75,12,25,130,130,90,90,5,10,6,7,0.0,0.1
2026-06-30T1200,3665A,76.1654,39.7157,克孜勒苏柯尔克孜自治州,克州文化中心,颗粒物(PM10),80,92,81,25,30,136,136,106,106,7,13,7,8,0.4,0.2
2026-06-30T1200,1450A,102.8203,24.889,昆明市,呈贡新区,,27,12,13,7,8,86,86,74,74,5,5,5,5,0.7,0.8
2026-06-30T1200,1452A,102.7253,25.0904,昆明市,龙泉镇,,26,10,18,8,9,82,82,59,59,6,8,6,5,0.3,0.4
2026-06-30T1200,1453A,102.7267,25.0378,昆明市,东风东路,NA,NA,NA,12,14,10,88,88,69,69,12,11,2,2,NA,0.3
2026-06-30T1200,1454A,102.6744,25.0671,昆明市,金鼎山,,29,NA,20,15,11,92,92,64,64,7,12,5,4,0.4,0.5
2026-06-30T1200,1455A,102.6643,25.0401,昆明市,碧鸡广场,,26,18,18,14,12,83,83,62,62,10,11,4,3,0.6,0.6
2026-06-30T1200,3179A,102.7491,25.012,昆明市,官渡区博物馆,,28,20,16,14,10,88,88,61,61,10,15,4,3,0.3,0.4
2026-06-30T1200,3375A,102.8016,24.8336,昆明市,青年创业园,,28,13,12,3,8,88,88,74,74,5,7,4,4,0.3,0.3
2026-06-30T1200,3550A,102.8,24.9787,昆明市,昆明学院,,30,16,16,3,8,93,93,63,63,9,15,6,6,0.2,0.3
2026-06-30T1200,3551A,102.5969,24.6738,昆明市,晋宁区生态环境分局,,33,10,13,3,7,104,104,86,86,4,5,5,4,0.5,0.6
2026-06-30T1200,3552A,102.6673,24.9861,昆明市,云天化总部,,28,14,14,3,7,89,89,64,64,9,11,5,5,0.4,0.4
2026-06-30T1200,1456A,91.132,29.6515,拉萨市,八廓街,,42,9,12,8,7,133,133,130,126,7,8,4,5,0.3,0.4
2026-06-30T1200,1457A,91.1221,29.6748,拉萨市,市环保局,,39,11,10,3,6,124,124,127,121,10,9,7,7,0.3,0.2
2026-06-30T1200,1458A,91.0874,29.6476,拉萨市,区监测站,,41,6,8,3,6,131,131,129,122,9,11,5,5,0.3,0.3
2026-06-30T1200,1459A,91.1774,29.6541,拉萨市,西藏大学,,43,7,9,3,6,136,136,129,128,8,10,4,4,0.3,0.3
2026-06-30T1200,1460A,90.9798,29.6586,拉萨市,区辐射站,,39,16,11,3,6,123,123,128,121,14,14,7,7,0.3,0.3
2026-06-30T1200,1461A,91.0831,29.6292,拉萨市,拉萨火车站,,40,7,9,3,5,128,128,126,122,8,9,4,4,0.2,0.2
2026-06-30T1200,2520A,109.2203,23.7252,来宾市,来宾技工学校,,24,24,23,8,11,67,67,47,47,6,9,8,8,0.6,0.6
2026-06-30T1200,3535A,109.1781,23.7293,来宾市,兴宾区政府,,21,21,24,7,12,67,67,39,39,3,8,6,7,0.6,0.6
2026-06-30T1200,4002A,109.2312,23.7428,来宾市,中南小学,,31,31,22,9,10,70,70,47,47,6,8,5,5,0.5,0.6
2026-06-30T1200,1479A,103.8309,36.0467,兰州市,铁路设计院,臭氧1小时(O3_1h),63,46,51,17,25,170,170,79,79,25,32,18,11,1.0,0.8
2026-06-30T1200,3241A,103.7439,36.0841,兰州市,百合公园,臭氧1小时(O3_1h),64,35,52,20,22,171,171,65,65,14,41,18,9,0.8,0.8
2026-06-30T1200,3242A,103.9613,35.9985,兰州市,和平,,47,46,40,17,17,150,150,99,97,13,9,20,16,0.5,0.4
2026-06-30T1200,4236A,103.629272,36.093822,兰州市,庄浪东路808号,,44,41,48,15,22,140,140,82,82,6,17,14,18,0.3,0.3
2026-06-30T1200,4237A,103.7251,36.104344,兰州市,安宁西路88号,臭氧1小时(O3_1h),57,39,61,18,24,165,165,78,78,9,32,18,15,0.3,0.4
2026-06-30T1200,4238A,103.846982,36.067567,兰州市,北滨河东路1号,,50,48,52,18,22,157,157,59,59,26,46,24,16,0.6,0.5
2026-06-30T1200,1067A,116.6712,39.5109,廊坊市,药材公司,,43,35,42,30,29,111,111,136,NA,7,9,3,2,0.7,0.5
2026-06-30T1200,1068A,116.7215,39.5592,廊坊市,开发区,,39,NA,42,27,32,120,120,118,103,9,12,3,3,0.5,0.5
2026-06-30T1200,1070A,116.7246,39.5273,廊坊市,北华航天学院,,45,NA,29,31,27,117,117,124,106,6,9,3,3,0.6,0.5
2026-06-30T1200,2919A,116.7022,39.5454,廊坊市,河北工业大学,,48,NA,28,33,33,123,123,127,110,15,16,3,2,0.6,0.4
2026-06-30T1200,2536A,103.7629,29.5844,乐山市,牛耳桥,,19,19,18,13,10,54,54,37,34,8,7,5,5,0.7,0.6
2026-06-30T1200,2537A,103.7501,29.6002,乐山市,市第三水厂,,35,35,16,21,10,49,49,40,34,13,9,4,4,0.8,0.7
2026-06-30T1200,2538A,103.7571,29.5664,乐山市,市监测站,,25,25,20,15,9,46,46,37,32,8,7,2,2,0.8,0.7
2026-06-30T1200,3361A,103.7313,29.563,乐山市,理工大学,,50,36,18,35,12,49,49,34,30,8,6,4,4,0.8,0.5
2026-06-30T1200,2599A,100.2497,26.8802,丽江市,丽江古城,,25,11,13,3,6,80,80,75,73,7,9,7,8,0.6,0.6
2026-06-30T1200,2600A,100.2203,26.8906,丽江市,市中心,,24,18,10,3,9,75,75,69,68,6,7,8,7,0.7,0.7
2026-06-30T1200,1267A,119.9141,28.4513,丽水市,监测站大楼,,33,32,18,23,8,39,39,22,22,13,10,5,4,0.5,0.5
2026-06-30T1200,1268A,119.93,28.4589,丽水市,莲都小学,,32,32,21,22,8,46,46,18,18,14,12,/,/,/,/
2026-06-30T1200,1269A,119.8794,28.4232,丽水市,余庄前,,37,37,21,25,8,27,27,8,8,21,11,7,14,0.7,0.6
2026-06-30T1200,1173A,119.1759,34.5885,连云港市,市环境监测站,细颗粒物(PM2.5),58,NA,36,39,35,136,136,92,92,6,6,7,7,0.5,0.5
2026-06-30T1200,3000A,119.3577,34.6971,连云港市,德源药业,细颗粒物(PM2.5),76,48,44,48,38,128,128,91,91,6,7,5,5,0.4,0.3
2026-06-30T1200,3007A,119.178,34.8442,连云港市,新城一中,,45,45,38,21,19,129,129,78,78,7,15,3,3,0.5,0.5
2026-06-30T1200,3008A,119.3607,34.7519,连云港市,胡沟管理处,,31,31,36,19,19,91,91,92,89,28,21,9,9,0.5,0.5
2026-06-30T1200,3009A,119.1478,34.5913,连云港市,矿山设计院,细颗粒物(PM2.5),52,44,41,36,30,121,121,83,83,6,8,4,4,0.4,0.4
2026-06-30T1200,3434A,119.2414,34.6539,连云港市,工贸学校,,45,36,38,25,24,142,142,99,99,9,9,4,4,0.5,0.5
2026-06-30T1200,3664A,119.4171,34.734,连云港市,连云街道,,38,38,35,21,20,107,107,95,95,10,9,9,9,0.5,0.5
2026-06-30T1200,2573A,102.2629,27.8981,凉山彝族自治州,西昌市政府,,31,31,19,15,13,79,79,37,37,10,9,6,5,0.4,0.5
2026-06-30T1200,2574A,102.2686,27.885,凉山彝族自治州,凉山州政府,,29,29,19,15,14,74,74,36,36,18,10,7,7,0.5,0.5
2026-06-30T1200,4229A,102.2342,27.8859,凉山彝族自治州,凯乐南路30号,NA,NA,NA,NA,NA,NA,NA,NA,NA,NA,NA,NA,NA,NA,NA,NA
2026-06-30T1200,2212A,123.1978,41.2036,辽阳市,宏伟区,,31,26,18,3,10,98,98,86,86,4,5,9,8,0.6,0.6
2026-06-30T1200,2213A,123.1684,41.2497,辽阳市,新华园,,34,24,22,3,11,106,106,89,89,5,6,8,8,0.4,0.4
2026-06-30T1200,2214A,123.2355,41.2663,辽阳市,滨河路,,30,18,19,3,11,94,94,79,79,4,10,8,8,0.3,0.3
2026-06-30T1200,4083A,123.153,41.2874,辽阳市,铁西路150号,,33,23,23,7,12,104,104,89,89,5,6,7,7,0.4,0.4
2026-06-30T1200,2227A,125.1359,42.8845,辽源市,环保局,,42,12,25,3,10,134,134,81,81,3,25,7,7,0.3,0.4
2026-06-30T1200,4085A,125.0998,42.9134,辽源市,安宁大街333号,,41,17,26,3,11,130,130,76,76,4,24,5,5,0.4,0.5
2026-06-30T1200,1625A,115.9789,36.4372,聊城市,区政府,细颗粒物(PM2.5),102,75,59,62,42,99,99,115,97,14,10,10,11,0.9,0.7
2026-06-30T1200,3200A,115.9772,36.4986,聊城市,监控中心,细颗粒物(PM2.5),117,NA,56,78,47,122,122,136,113,12,13,10,10,0.7,0.6
2026-06-30T1200,3513A,116.0443,36.436,聊城市,九州社区,细颗粒物(PM2.5),117,NA,4,78,57,117,117,128,113,12,10,5,4,NA,0.9
2026-06-30T1200,4018A,116.0564,36.4609,聊城市,星美广场,细颗粒物(PM2.5),122,107,76,84,50,106,106,118,103,12,10,6,7,0.7,0.6
2026-06-30T1200,4113A,116.0091,36.4495,聊城市,利民路,细颗粒物(PM2.5),117,86,63,78,46,110,110,121,103,15,12,13,13,0.6,0.5
2026-06-30T1200,2632A,94.3683,29.6373,林芝市,林芝监测站,,21,6,5,3,4,66,66,57,57,6,5,4,4,0.4,0.4
2026-06-30T1200,2633A,94.3616,29.6634,林芝市,林芝人民医院,,20,6,7,3,4,63,63,57,57,5,6,3,3,0.2,0.2
2026-06-30T1200,2603A,100.0779,23.8981,临沧市,市环保局,,17,17,24,10,12,42,42,18,18,5,7,2,4,0.4,0.4
2026-06-30T1200,2604A,100.0894,23.882,临沧市,市气象局,NA,NA,20,19,NA,13,47,47,25,25,7,8,6,6,NA,0.1
2026-06-30T1200,1733A,111.5552,36.0791,临汾市,临钢医院,,44,20,42,14,20,139,139,64,64,8,18,6,5,0.6,0.6
2026-06-30T1200,1734A,111.4984,36.0734,临汾市,技工学校,,44,31,49,16,34,139,139,69,69,6,17,8,7,0.7,0.7
2026-06-30T1200,1736A,111.5017,36.0857,临汾市,市委,,43,42,61,12,19,137,137,65,65,6,18,6,6,0.7,0.7
2026-06-30T1200,3018A,111.5048,36.1015,临汾市,唐尧大酒店,颗粒物(PM10),52,52,60,17,21,141,141,65,65,7,18,6,6,0.8,0.8
2026-06-30T1200,4244A,111.4879,36.053,临汾市,启星学校,,43,29,43,19,25,137,137,69,69,7,16,7,6,0.9,0.9
2026-06-30T1200,4271A,103.2464,35.6123,临夏回族自治州,滨河东路1号,,48,48,44,11,15,110,110,58,58,8,16,13,13,0.3,0.3
2026-06-30T1200,4310A,103.207136,35.599807,临夏回族自治州,新华街21号,NA,NA,NA,37,NA,15,96,96,55,55,9,12,10,9,0.4,0.4
2026-06-30T1200,1618A,118.3429,35.0532,临沂市,沂河小区,细颗粒物(PM2.5),110,85,62,71,40,132,132,68,68,11,13,8,9,0.5,0.5
2026-06-30T1200,1619A,118.2962,35.0568,临沂市,鲁南制药厂,细颗粒物(PM2.5),82,88,61,51,37,132,132,55,55,13,16,10,11,0.7,0.8
2026-06-30T1200,1620A,118.2793,34.9976,临沂市,新光毛纺厂,细颗粒物(PM2.5),129,NA,53,91,50,120,120,53,53,8,14,5,7,0.4,0.5
2026-06-30T1200,1621A,118.3955,35.0889,临沂市,河东保险公司,细颗粒物(PM2.5),84,66,52,52,36,99,99,44,44,9,14,7,6,0.2,0.3
2026-06-30T1200,3370A,118.3563,35.0215,临沂市,十里堡居委,细颗粒物(PM2.5),68,61,48,44,41,122,122,54,54,15,19,8,10,0.7,0.7
2026-06-30T1200,3496A,118.359,35.1067,临沂市,南坊新区,细颗粒物(PM2.5),129,NA,61,91,50,127,127,62,62,13,15,5,5,0.7,0.7
2026-06-30T1200,3860A,118.3915,35.0297,临沂市,皇山花园小区,细颗粒物(PM2.5),112,80,56,73,38,131,131,62,62,12,13,7,8,0.7,0.7
2026-06-30T1200,1870A,109.4854,24.3898,柳州市,柳东小学,,25,25,25,8,13,75,75,29,29,4,8,4,4,0.5,0.7
2026-06-30T1200,1871A,109.4109,24.3304,柳州市,环保监测站,,20,16,28,10,16,63,63,35,35,10,15,7,7,0.8,0.8
2026-06-30T1200,1872A,109.3886,24.3408,柳州市,河西水厂,,24,24,32,10,18,60,60,26,26,6,13,8,8,0.7,0.8
2026-06-30T1200,1873A,109.4263,24.2951,柳州市,市四中,,28,28,30,10,17,67,67,32,32,9,16,6,6,0.6,0.7
2026-06-30T1200,1874A,109.396,24.3658,柳州市,市九中,,25,25,34,10,19,61,61,21,21,11,16,6,7,0.2,0.4
2026-06-30T1200,1875A,109.4912,24.3164,柳州市,古亭山,,33,33,29,7,12,73,73,24,24,5,13,3,3,0.6,0.7
2026-06-30T1200,3402A,109.5422,24.3994,柳州市,市二中,,25,23,30,8,16,78,78,30,30,3,12,6,6,0.6,0.8
2026-06-30T1200,2307A,116.5078,31.7369,六安市,监测大楼,,30,8,29,3,29,93,93,88,84,5,7,4,3,0.4,0.6
2026-06-30T1200,2308A,116.4738,31.7642,六安市,皖西学院,,34,9,38,3,27,106,106,96,94,5,5,6,6,0.3,0.5
2026-06-30T1200,2309A,116.4997,31.7904,六安市,朝阳厂,,30,6,32,3,29,94,94,86,84,6,9,7,7,0.2,0.4
2026-06-30T1200,2310A,116.5566,31.7885,六安市,开发区,,30,8,37,3,28,95,95,84,84,3,11,5,6,0.1,0.4
2026-06-30T1200,2577A,104.8293,26.592,六盘水市,黄土坡,,24,13,13,13,8,76,76,52,52,9,10,8,5,0.4,0.4
2026-06-30T1200,2579A,104.8481,26.5898,六盘水市,民中,,23,16,10,16,8,67,67,50,50,10,13,5,3,0.4,0.4
2026-06-30T1200,2580A,104.9541,26.5506,六盘水市,双水,,25,12,8,6,4,77,77,69,69,4,6,5,4,0.3,0.3
2026-06-30T1200,4151A,104.8899,26.5685,六盘水市,钟山大道中段564号,,20,18,18,13,11,64,64,47,47,10,12,8,7,0.8,0.8
2026-06-30T1200,2336A,117.022,25.1031,龙岩市,龙岩市监测站,,19,10,13,3,8,60,60,29,29,5,8,4,5,0.3,0.3
2026-06-30T1200,2337A,117.0257,25.0662,龙岩市,闽西职业技术学院,NA,NA,NA,16,6,7,57,57,27,27,2,6,4,4,0.4,0.4
2026-06-30T1200,2338A,117.0195,25.0306,龙岩市,龙岩学院,,19,11,15,6,5,59,59,29,29,5,6,3,3,/,/
2026-06-30T1200,2885A,104.9344,33.3827,陇南市,滨江中学,,31,13,26,3,11,99,99,86,75,5,6,8,8,0.4,0.4
2026-06-30T1200,3247A,104.9551,33.3709,陇南市,市总工会,,31,18,27,9,11,97,97,78,75,6,5,9,9,0.4,0.3
2026-06-30T1200,2488A,111.9984,27.7346,娄底市,市监测站,,35,30,45,24,32,66,66,75,67,16,9,6,3,0.6,0.7
2026-06-30T1200,2491A,111.9888,27.7035,娄底市,市政府,,28,28,38,17,33,78,78,76,73,7,7,8,13,0.6,0.7
2026-06-30T1200,4127A,111.9812,27.7591,娄底市,涟钢职大,,33,33,40,20,32,71,71,81,73,9,7,2,4,0.3,0.5
2026-06-30T1200,4128A,112.0303,27.7457,娄底市,娄底体校,,43,43,47,19,31,84,84,70,70,5,7,2,3,0.4,0.5
2026-06-30T1200,1894A,105.4427,28.9063,泸州市,小市上码头,颗粒物(PM10),54,55,31,32,15,48,48,35,31,12,12,5,6,0.5,0.4
2026-06-30T1200,1895A,105.4241,28.8573,泸州市,兰田宪桥,细颗粒物(PM2.5),74,74,43,47,24,48,48,28,28,16,15,4,3,0.5,0.5
2026-06-30T1200,1896A,105.4378,28.8833,泸州市,市环监站,颗粒物(PM10),51,51,29,26,11,34,34,24,22,18,15,5,5,0.7,0.7
2026-06-30T1200,4272A,105.3689,28.7783,泸州市,纳溪中医医院,细颗粒物(PM2.5),56,NA,18,38,21,54,54,20,20,7,16,2,2,0.8,0.7
2026-06-30T1200,2183A,111.1447,37.5212,吕梁市,环保局,臭氧1小时(O3_1h),67,28,33,8,13,173,173,79,79,9,14,7,5,0.5,0.3
2026-06-30T1200,2185A,111.1285,37.5338,吕梁市,自来水公司,臭氧1小时(O3_1h),68,47,37,3,16,174,174,78,78,10,14,5,3,0.7,0.5
2026-06-30T1200,2867A,111.1225,37.5093,吕梁市,马茂庄小学,臭氧1小时(O3_1h),78,31,38,9,13,182,182,83,83,9,18,4,3,0.4,0.1
2026-06-30T1200,1812A,112.3934,34.6517,洛阳市,市委党校,,38,32,38,16,23,119,119,84,84,8,9,8,8,0.6,0.5
2026-06-30T1200,1815A,112.494,34.6883,洛阳市,河南林校,,46,34,43,14,24,145,145,93,93,10,12,11,11,0.3,0.4
2026-06-30T1200,1816A,112.3843,34.623,洛阳市,开发区管委会,,41,26,34,21,22,131,131,87,87,1,2,13,10,0.7,0.5
2026-06-30T1200,1817A,112.4263,34.6249,洛阳市,市委新办公区,,36,22,31,22,22,113,113,78,78,4,7,13,10,0.5,0.4
2026-06-30T1200,3340A,112.6005,34.6323,洛阳市,伊滨,,40,32,40,20,22,125,125,82,82,9,9,5,5,0.4,0.4
2026-06-30T1200,3341A,112.495,34.6338,洛阳市,中移产业园,,40,30,38,22,23,126,126,84,83,5,8,8,8,0.6,0.7
2026-06-30T1200,3593A,112.5736,34.8993,洛阳市,吉利监测站,,41,36,43,28,21,129,129,73,73,7,9,13,8,0.5,0.3
2026-06-30T1200,3635A,112.3678,34.6623,洛阳市,河科大西苑校区,,42,36,39,29,24,132,132,87,86,8,10,16,11,0.8,0.7
2026-06-30T1200,3636A,112.4387,34.678,洛阳市,英才小学,,38,37,39,24,25,119,119,82,82,12,8,9,9,0.6,0.6
2026-06-30T1200,4214A,112.460027,34.694929,洛阳市,春都路1号院,,44,29,38,26,25,140,140,85,85,8,9,6,5,0.3,0.4
2026-06-30T1200,2399A,114.051,33.5721,漯河市,三五一五工厂,NA,NA,NA,47,28,34,127,127,56,56,21,34,NA,7,0.2,0.3
2026-06-30T1200,2400A,114.0055,33.5698,漯河市,漯河大学,细颗粒物(PM2.5),54,40,39,37,33,114,114,62,62,27,32,7,8,0.7,0.8
2026-06-30T1200,2401A,114.0134,33.5826,漯河市,市水利局,,48,48,46,32,32,117,117,69,69,27,27,6,8,0.4,0.4
2026-06-30T1200,2402A,114.0261,33.5697,漯河市,市广电局,,42,42,43,23,27,120,120,60,60,24,29,5,7,0.5,0.5
2026-06-30T1200,3478A,113.9691,33.568,漯河市,市图书馆,颗粒物(PM10),53,54,52,32,31,114,114,54,54,23,35,8,9,0.6,0.7
2026-06-30T1200,4250A,114.089259,33.588274,漯河市,韶山路11号,,48,47,55,33,32,133,133,59,59,14,28,7,8,0.5,0.4
2026-06-30T1200,1798A,118.5084,31.6838,马鞍山市,湖东路四小,,27,7,34,3,20,86,86,83,83,5,9,6,8,0.5,0.6
2026-06-30T1200,1799A,118.5019,31.6449,马鞍山市,开发区,,30,8,34,3,24,95,95,90,90,1,7,5,6,0.5,0.6
2026-06-30T1200,3633A,118.4914,31.681,马鞍山市,雨山,NA,NA,13,31,3,20,94,94,88,88,4,9,3,5,NA,0.7
2026-06-30T1200,4191A,118.527362,31.722269,马鞍山市,慈湖高新区,,29,6,37,3,23,91,91,83,83,5,12,6,7,0.4,0.5
2026-06-30T1200,1686A,111.0285,21.469,茂名市,电白南海,,20,12,18,3,3,64,64,66,66,3,4,6,6,0.6,0.6
2026-06-30T1200,1687A,110.9294,21.6533,茂名市,茂石化七小,,19,9,20,3,9,60,60,46,46,7,8,6,9,0.5,0.5
2026-06-30T1200,1688A,110.9108,21.6688,茂名市,健康路,,20,NA,11,8,8,61,61,50,50,5,6,5,8,0.4,0.5
2026-06-30T1200,1689A,110.8592,21.6826,茂名市,高岭,,18,12,24,3,7,56,56,50,50,7,7,4,7,/,/
2026-06-30T1200,3450A,111.0101,21.5165,茂名市,电白水东,NA,NA,7,12,NA,7,64,64,64,64,4,5,2,2,/,/
2026-06-30T1200,2540A,103.8414,30.0871,眉山市,气象局,,25,22,16,10,5,79,79,60,58,14,11,7,7,0.8,0.7
2026-06-30T1200,3148A,103.829,30.0563,眉山市,区人社局,,28,28,29,3,4,78,78,58,52,15,13,7,7,0.7,0.6
2026-06-30T1200,4148A,103.8836,30.0695,眉山市,眉职院,,27,27,18,12,5,70,70,47,45,10,13,7,7,0.8,0.8
2026-06-30T1200,1690A,116.1248,24.3307,梅州市,梅江月梅,,19,8,15,6,6,59,59,25,25,5,10,/,/,/,/
2026-06-30T1200,1691A,116.0798,24.2719,梅州市,梅县新城,,22,17,13,10,6,70,70,39,39,7,11,8,8,0.4,0.4
2026-06-30T1200,3315A,116.1234,24.2994,梅州市,梅龙,,19,9,12,8,7,58,58,28,28,4,8,7,6,0.6,0.6
2026-06-30T1200,1878A,104.7775,31.4741,绵阳市,富乐山,,40,25,26,20,13,127,127,78,78,12,7,11,11,0.8,0.7
2026-06-30T1200,1880A,104.6698,31.4668,绵阳市,高新区自来水公司,,43,43,23,22,13,122,122,69,69,12,8,12,11,0.5,0.5
2026-06-30T1200,3491A,104.6899,31.5324,绵阳市,西科大附属小学,,38,34,24,26,15,109,109,70,70,11,10,6,6,0.2,0.2
2026-06-30T1200,3492A,104.5647,31.5343,绵阳市,安州区旅游局,,40,38,26,28,15,109,109,70,70,4,5,6,6,0.5,0.5
2026-06-30T1200,4146A,104.7092,31.4972,绵阳市,科技城新区公安局,,36,34,26,18,12,115,115,73,73,15,8,11,11,0.8,0.7
2026-06-30T1200,4226A,104.765114,31.453094,绵阳市,绵阳市气象局,,35,32,25,20,13,111,111,70,67,15,9,9,8,0.7,0.6
2026-06-30T1200,1784A,129.61,44.561,牡丹江市,环保大楼,,38,NA,16,19,14,120,120,56,56,7,13,6,5,0.4,0.4
2026-06-30T1200,1787A,129.6364,44.6075,牡丹江市,机车工厂,细颗粒物(PM2.5),52,44,28,36,18,109,109,57,57,16,14,12,7,0.4,0.4
2026-06-30T1200,1788A,129.6386,44.5462,牡丹江市,第一中学,,38,25,25,22,12,121,121,53,53,8,15,10,8,0.5,0.4
2026-06-30T1200,4287A,129.5992,44.5964,牡丹江市,东晓云街98号,,35,33,25,22,16,110,110,57,57,9,10,6,5,0.3,0.3
2026-06-30T1200,2531A,105.0703,29.61,内江市,市监测站,,23,NA,15,16,13,51,51,30,30,15,13,9,9,0.6,0.5
2026-06-30T1200,2533A,105.0657,29.5807,内江市,内江二中,,26,23,19,18,12,60,60,33,33,11,11,9,8,0.5,0.4
2026-06-30T1200,2534A,105.0407,29.5828,内江市,内江日报社,,25,NA,11,17,14,63,63,35,35,9,13,5,6,0.4,0.4
2026-06-30T1200,4147A,105.0433,29.6105,内江市,玉峰路西段888号,,26,25,18,18,14,44,44,NA,NA,15,14,5,7,0.6,0.5
2026-06-30T1200,2628A,92.0653,31.4846,那曲市,那曲监测站,,36,19,18,6,8,115,115,96,96,7,9,4,4,0.2,0.3
2026-06-30T1200,4243A,92.0515,31.4787,那曲市,那曲市委宣传部,,36,8,9,3,7,113,113,97,97,5,7,4,4,0.2,0.3
2026-06-30T1200,1291A,115.8887,28.7006,南昌市,省林业公司,NA,NA,NA,6,3,5,51,51,44,44,9,7,4,4,0.6,0.6
2026-06-30T1200,1292A,115.813,28.7443,南昌市,林科所,,12,NA,4,3,5,37,37,36,36,4,8,6,6,0.8,0.8
2026-06-30T1200,1294A,115.8518,28.687,南昌市,建工学校,,15,NA,6,3,5,47,47,36,36,10,7,4,5,0.8,0.8
2026-06-30T1200,1295A,115.8926,28.6425,南昌市,象湖,,13,NA,2,7,6,41,41,33,33,12,12,8,8,0.5,0.5
2026-06-30T1200,3046A,115.9084,28.6062,南昌市,机电学校,,20,20,14,7,4,38,38,27,27,10,10,6,6,0.6,0.6
2026-06-30T1200,3690A,115.9718,28.7032,南昌市,外国语学校,,17,6,8,3,4,53,53,42,42,3,5,12,11,0.8,0.7
2026-06-30T1200,4106A,115.7923,28.6873,南昌市,工业二路,,13,13,10,3,3,36,36,36,33,10,4,5,5,0.6,0.6
2026-06-30T1200,4192A,115.931587,28.686774,南昌市,南京东路235号,,16,7,9,3,5,51,51,50,44,9,8,4,4,0.6,0.6
2026-06-30T1200,1906A,106.0791,30.8022,南充市,南充市委,,34,34,22,20,13,41,41,39,28,19,10,6,6,0.4,0.3
2026-06-30T1200,1907A,106.1038,30.8215,南充市,南充炼油厂,,29,25,22,20,12,47,47,55,40,18,11,7,6,0.3,0.2
2026-06-30T1200,4227A,106.108336,30.788436,南充市,梨树横街98号,,31,31,21,20,13,55,55,58,50,20,10,7,7,0.4,0.3
2026-06-30T1200,4304A,106.1172,30.843,南充市,清泉寺北路188号,,33,33,25,19,13,40,40,48,36,14,9,7,7,0.5,0.4
2026-06-30T1200,4305A,106.067,30.7616,南充市,同庆路1号,,27,27,21,17,13,53,53,53,45,18,11,8,7,0.5,0.4
2026-06-30T1200,1151A,118.8033,32.1085,南京市,迈皋桥,,30,6,30,3,22,95,95,80,72,5,11,4,5,0.3,0.5
2026-06-30T1200,1152A,118.7487,32.057,南京市,草场门,,28,14,29,3,20,88,88,79,73,10,12,4,5,0.5,0.6
2026-06-30T1200,1154A,118.770105,32.004342,南京市,中华门,,26,6,26,3,19,81,81,72,67,9,8,6,6,0.2,0.3
2026-06-30T1200,1155A,118.8059,32.0329,南京市,瑞金路,,25,6,29,3,19,80,80,70,66,9,12,4,4,0.2,0.3
2026-06-30T1200,1156A,118.7946,32.0774,南京市,玄武湖,,24,12,38,3,18,76,76,69,62,7,9,6,7,0.3,0.5
2026-06-30T1200,1157A,118.6415,32.0964,南京市,浦口,,31,6,29,3,18,98,98,74,74,9,16,3,4,0.1,0.3
2026-06-30T1200,1158A,118.730129,32.000956,南京市,奥体中心,,24,8,33,3,16,76,76,68,66,11,12,7,8,0.8,1
2026-06-30T1200,1159A,118.9072,32.1047,南京市,仙林大学城,,33,7,39,3,23,103,103,84,77,2,8,6,7,0.5,0.7
2026-06-30T1200,3422A,118.8443,31.919,南京市,江宁彩虹桥,NA,NA,7,30,NA,19,98,98,80,80,2,8,3,4,0.4,0.5
2026-06-30T1200,3427A,118.8497,32.3599,南京市,六合雄州,,27,10,46,3,28,85,85,73,71,12,21,3,4,0.4,0.6
2026-06-30T1200,4086A,118.7641,32.0841,南京市,新模范马路66号,,31,6,34,3,17,98,98,83,80,3,7,5,4,0.3,0.5
2026-06-30T1200,4249A,118.8707617,31.34017673,南京市,汶溪路181号,,24,7,30,3,21,74,74,91,84,16,12,7,7,0.7,0.8
2026-06-30T1200,4312A,119.019,31.6512,南京市,中山西路1号,NA,NA,7,28,3,20,75,75,76,76,NA,11,NA,4,0.5,0.6
2026-06-30T1200,1401A,108.3098,22.788,南宁市,二十一中,NA,NA,23,16,10,8,61,61,42,42,7,7,NA,1,NA,0.7
2026-06-30T1200,1402A,108.3135,22.8529,南宁市,北湖,,23,23,18,15,11,54,54,40,40,14,8,2,2,0.6,0.6
2026-06-30T1200,1403A,108.3205,22.8222,南宁市,市监测站,,34,34,15,13,8,71,71,52,52,5,5,3,3,0.6,0.6
2026-06-30T1200,1404A,108.3828,22.8038,南宁市,大自然花园,NA,NA,24,16,8,9,65,65,49,49,5,6,NA,4,0.8,0.7
2026-06-30T1200,1406A,108.2397,22.8462,南宁市,区农职院,,26,26,17,14,12,66,66,44,44,8,8,2,2,0.9,0.9
2026-06-30T1200,1407A,108.3285,22.7356,南宁市,英华嘉园,,22,22,18,11,8,66,66,45,45,5,8,4,4,0.5,0.5
2026-06-30T1200,3401A,108.4829,22.762,南宁市,红星社区,,24,24,17,12,7,66,66,48,48,4,5,4,5,0.5,0.5
2026-06-30T1200,4132A,108.2927,23.1477,南宁市,起凤路9号,,22,19,19,10,10,68,68,47,47,6,7,5,5,0.5,0.5
2026-06-30T1200,4221A,108.2177,22.7774,南宁市,乐贤路16号,,21,17,19,7,8,65,65,43,43,6,12,3,4,0.5,0.6
2026-06-30T1200,2332A,118.1682,26.6371,南平市,南平市监测站,,19,15,15,6,5,59,59,24,24,4,7,7,4,0.4,0.4
2026-06-30T1200,2334A,118.1757,26.6276,南平市,南平七中,,17,13,17,6,5,53,53,22,22,3,5,3,3,0.3,0.3
2026-06-30T1200,1168A,120.9056,31.9669,南通市,狼山街道,,26,6,10,3,11,82,82,49,49,8,12,4,4,0.8,0.8
2026-06-30T1200,1170A,120.8635,32.0231,南通市,城中,,23,19,22,8,14,73,73,54,54,9,10,2,2,0.5,0.4
2026-06-30T1200,1171A,120.9376,31.9301,南通市,星湖花园,,23,8,15,6,12,72,72,51,51,10,13,3,4,0.4,0.4
2026-06-30T1200,1172A,120.8053,32.046,南通市,紫琅学院,,22,8,17,8,12,69,69,48,48,15,17,5,5,0.8,0.7
2026-06-30T1200,3291A,121.0631,32.0644,南通市,通州监测站,,25,9,17,3,9,79,79,61,61,3,5,5,6,0.5,0.4
2026-06-30T1200,3432A,120.9348,31.9874,南通市,环境教育馆,,22,17,20,6,12,69,69,42,42,13,15,5,5,0.5,0.5
2026-06-30T1200,4091A,120.8692,31.9885,南通市,洪江路,,24,8,15,6,12,76,76,55,55,9,10,3,3,0.8,0.8
2026-06-30T1200,2404A,112.5338,33.0086,南阳市,瓦房庄,,39,36,40,14,24,122,122,89,89,9,7,6,6,0.5,0.5
2026-06-30T1200,2405A,112.5002,32.9734,南阳市,汉画馆,,42,42,46,14,27,122,122,88,88,18,15,7,6,0.6,0.6
2026-06-30T1200,2406A,112.5778,33.0144,南阳市,气象站,,36,36,44,20,26,115,115,83,83,13,12,7,6,0.4,0.5
2026-06-30T1200,2407A,112.548,32.9687,南阳市,理工学院,,40,36,42,21,30,128,128,77,77,10,18,7,7,0.5,0.6
2026-06-30T1200,4008A,112.5233,32.9921,南阳市,卧龙区政府,,41,33,40,14,26,129,129,93,93,10,10,6,5,0.7,0.7
2026-06-30T1200,1234A,121.8352,29.9111,宁波市,区环保大楼,NA,NA,9,20,3,9,60,60,38,33,10,25,4,4,NA,1
2026-06-30T1200,1235A,121.5595,29.8208,宁波市,万里学院,,21,21,20,11,14,58,58,39,38,10,13,8,8,0.8,0.7
2026-06-30T1200,1236A,121.713,29.9564,宁波市,龙赛医院,,21,14,25,8,14,67,67,35,35,10,19,6,5,0.3,0.4
2026-06-30T1200,1240A,121.5855,29.8635,宁波市,太古小学,,19,14,20,8,12,59,59,45,40,8,13,5,4,0.7,0.6
2026-06-30T1200,1241A,121.5239,29.8673,宁波市,市环境监测中心,,30,30,20,13,14,48,48,34,34,14,17,6,6,0.4,0.4
2026-06-30T1200,2871A,121.6156,29.9015,宁波市,万里国际学校,,21,14,22,7,12,66,66,55,51,4,9,6,6,0.5,0.5
2026-06-30T1200,3710A,121.5593,29.8976,宁波市,白沙活动中心,,25,NA,14,17,15,58,58,37,37,14,14,7,6,0.7,0.7
2026-06-30T1200,4095A,121.8962,29.7529,宁波市,中科路88号,,17,13,8,10,3,52,52,72,61,6,10,6,6,0.3,0.4
2026-06-30T1200,2341A,119.5387,26.6611,宁德市,宁德市监测站,,46,46,27,11,13,91,91,37,37,10,14,4,4,0.7,0.9
2026-06-30T1200,3209A,119.5231,26.6562,宁德市,宁德一中,,29,29,26,14,15,88,88,36,36,8,8,10,9,0.3,0.4
2026-06-30T1200,2618A,98.859,25.8541,怒江傈僳族自治州,州监测站,,23,23,23,14,12,42,42,16,16,6,11,6,6,0.5,0.5
2026-06-30T1200,2619A,98.8607,25.8168,怒江傈僳族自治州,泸水一中,,17,17,23,3,11,35,35,11,11,7,11,4,4,0.6,0.7
2026-06-30T1200,1888A,101.6891,26.571,攀枝花市,弄弄坪,颗粒物(PM10),83,96,40,15,11,56,56,42,37,20,16,6,5,0.9,0.8
2026-06-30T1200,1889A,101.577,26.5914,攀枝花市,河门口,,23,23,36,7,13,58,58,42,42,7,14,6,16,0.6,1
2026-06-30T1200,1891A,101.7365,26.4986,攀枝花市,仁和,,40,33,18,28,10,60,60,35,35,15,9,9,5,1.4,0.7
2026-06-30T1200,2835A,101.7222,26.567,攀枝花市,四十中小,,29,23,18,20,9,58,58,37,35,22,14,24,11,2.7,1.1
2026-06-30T1200,1604A,122.0303,41.1489,盘锦市,开发区,,38,31,21,17,18,119,119,91,91,6,7,10,9,0.3,0.3
2026-06-30T1200,1605A,122.0486,41.0883,盘锦市,兴隆台,,35,30,23,24,15,104,104,76,76,9,10,6,5,0.5,0.5
2026-06-30T1200,1606A,121.8297,41.1026,盘锦市,新生街道,,33,NA,21,15,15,105,105,83,83,8,10,7,7,0.4,0.4
2026-06-30T1200,1832A,113.3257,33.7423,平顶山市,新华旅馆,颗粒物(PM10),69,76,62,35,29,167,167,100,100,18,20,5,4,0.8,0.7
2026-06-30T1200,1833A,113.2917,33.737,平顶山市,规划设计院,NA,NA,80,47,33,28,152,152,102,102,18,17,8,7,NA,0.6
2026-06-30T1200,1834A,113.182,33.7738,平顶山市,平顶山工学院,,50,NA,38,35,28,138,138,101,101,9,14,7,7,0.4,0.4
2026-06-30T1200,3594A,112.8736,33.9068,平顶山市,石龙区,细颗粒物(PM2.5),60,61,53,40,32,146,146,86,86,13,19,12,8,0.9,0.6
2026-06-30T1200,4116A,113.284,33.7139,平顶山市,姚电大道23号,颗粒物(PM10),64,69,53,38,31,153,153,95,95,16,25,10,9,0.7,0.7
2026-06-30T1200,2656A,106.6633,35.5338,平凉市,聚贤嘉苑,颗粒物(PM10),55,56,45,18,17,135,135,63,63,13,22,9,8,0.7,0.6
2026-06-30T1200,2657A,106.7021,35.5307,平凉市,博物馆,颗粒物(PM10),57,59,45,17,15,137,137,62,62,13,22,8,8,0.5,0.5
2026-06-30T1200,2348A,113.8384,27.6436,萍乡市,中医院,,33,28,33,23,22,58,58,27,25,12,12,10,9,1.1,1
2026-06-30T1200,2350A,113.8677,27.6438,萍乡市,市环保局,NA,NA,49,29,32,24,61,61,30,30,NA,11,32,13,NA,0.7
2026-06-30T1200,2351A,113.8663,27.6202,萍乡市,安源区政府,,40,38,32,28,25,55,55,23,23,11,12,16,16,0.8,0.6
2026-06-30T1200,4107A,113.8686,27.6668,萍乡市,联洪村委会,,38,38,35,22,24,59,59,31,31,9,8,10,8,0.8,0.4
2026-06-30T1200,2319A,119.0142,25.4324,莆田市,荔城区仓后路,,23,15,23,3,4,73,73,38,38,5,12,/,/,/,/
2026-06-30T1200,2320A,119.0016,25.4553,莆田市,莆田市监测站,,23,19,21,3,3,73,73,39,39,3,4,3,4,0.3,0.3
2026-06-30T1200,2321A,119.112,25.4561,莆田市,涵江区六中,,29,14,21,3,7,90,90,45,45,7,13,/,/,0.3,0.4
2026-06-30T1200,2322A,119.1014,25.3215,莆田市,秀屿区政府,,27,25,20,3,4,86,86,50,50,5,8,5,5,0.5,0.5
2026-06-30T1200,2392A,115.0312,35.7636,濮阳市,环保局,颗粒物(PM10),85,98,73,41,44,114,114,88,78,16,15,4,5,0.8,0.7
2026-06-30T1200,3021A,115,35.7667,濮阳市,濮水河管理处,颗粒物(PM10),85,99,76,50,45,114,114,64,64,11,14,6,5,0.7,0.6
2026-06-30T1200,4118A,115.0552,35.7816,濮阳市,中原东路68号,颗粒物(PM10),104,130,99,43,43,115,115,89,87,16,17,7,7,0.7,0.5
2026-06-30T1200,4216A,115.0923632,35.76857718,濮阳市,任丘路479号,颗粒物(PM10),88,103,94,49,48,124,124,106,90,15,15,5,5,0.9,0.8
2026-06-30T1200,2601A,100.9801,22.7634,普洱市,市环保局,,23,19,27,8,10,72,72,56,56,8,5,5,5,0.8,0.7
2026-06-30T1200,2602A,100.9763,22.8237,普洱市,普洱第二中学,,24,17,24,10,10,76,76,54,54,5,6,8,8,0.8,0.8
2026-06-30T1200,3345A,131.0413,45.7795,七台河市,中波台,,36,NA,15,15,12,115,115,69,69,4,16,4,5,0.4,0.4
2026-06-30T1200,3637A,131.0136,45.7688,七台河市,人民广场,,35,15,26,3,9,112,112,36,NA,4,12,8,8,0.4,0.4
2026-06-30T1200,3684A,130.8639,45.8144,七台河市,新建矿广场,,37,24,28,10,12,116,116,62,62,7,20,4,5,0,0.1
2026-06-30T1200,1779A,123.9307,47.3641,齐齐哈尔市,安居小区,,49,19,29,19,16,154,154,107,107,8,14,4,4,0.5,0.5
2026-06-30T1200,1780A,123.9497,47.3389,齐齐哈尔市,中心广场,,45,28,36,17,15,143,143,101,101,11,14,4,4,0.4,0.4
2026-06-30T1200,1781A,123.9483,47.3229,齐齐哈尔市,农牧车辆厂,,48,31,42,19,20,153,153,106,106,5,13,4,4,0.2,0.3
2026-06-30T1200,1783A,123.9442,47.2994,齐齐哈尔市,市环境监测站,,39,25,27,3,24,123,123,88,88,47,13,3,3,0.4,0.4
2026-06-30T1200,3662A,123.6341,47.2079,齐齐哈尔市,富区青少年活动中心,,47,29,43,16,22,148,148,107,107,6,16,4,5,0.3,0.3
2026-06-30T1200,2591A,107.9765,26.5724,黔东南苗族侗族自治州,市环境监测站,,28,NA,24,19,21,58,58,57,55,10,6,2,3,0.6,0.6
2026-06-30T1200,2881A,107.8909,26.531,黔东南苗族侗族自治州,凯里学院,,26,NA,14,18,18,68,68,60,60,8,6,3,3,0.5,0.5
2026-06-30T1200,2593A,107.5223,26.2371,黔南布依族苗族自治州,小围寨,,23,22,16,16,14,18,18,28,25,11,11,3,3,0.7,0.6
2026-06-30T1200,3538A,107.5175,26.2977,黔南布依族苗族自治州,沙坝,NA,NA,29,20,23,13,9,9,23,16,10,7,NA,3,0.5,0.5
2026-06-30T1200,2589A,104.9022,25.0943,黔西南布依族苗族自治州,场坝街,,25,14,12,7,6,80,80,54,54,5,7,5,8,0.3,0.3
2026-06-30T1200,2590A,104.8812,25.0994,黔西南布依族苗族自治州,坪东大道,,24,14,16,11,7,74,74,41,41,6,9,9,7,0.3,0.3
2026-06-30T1200,2502A,108.6238,21.9667,钦州市,市环保站,NA,NA,NA,13,3,6,54,54,39,39,NA,9,4,5,NA,0.7
2026-06-30T1200,2503A,108.655,21.9481,钦州市,沙埠小学,,18,8,23,8,12,55,55,40,40,6,9,4,6,0.5,0.6
2026-06-30T1200,2504A,108.5989,21.7435,钦州市,港区一小,,15,NA,26,6,15,47,47,36,35,16,15,3,5,0.4,0.5
2026-06-30T1200,3404A,108.5959,21.9634,钦州市,北职校,,20,8,17,3,9,61,61,48,48,6,8,2,4,0.4,0.5
2026-06-30T1200,1046A,119.5247,39.9346,秦皇岛市,建设大厦,,39,NA,45,27,19,105,105,60,60,6,20,5,6,0.3,0.3
2026-06-30T1200,3132A,119.5979,39.938,秦皇岛市,文明里,,45,45,44,18,17,101,101,65,65,5,15,6,6,0.2,0.2
2026-06-30T1200,4066A,119.7458,39.9952,秦皇岛市,南园路157号,,33,30,35,23,17,94,94,66,57,2,15,8,8,0.2,0.2
2026-06-30T1200,4067A,119.5131,39.8858,秦皇岛市,翠岛大街1号,,31,31,32,17,17,91,91,71,68,8,13,4,4,0.3,0.3
2026-06-30T1200,4198A,119.509013,39.825305,秦皇岛市,北戴河轮滑馆,,43,42,37,30,17,95,95,74,73,8,10,9,10,0.3,0.3
2026-06-30T1200,1310A,120.404,36.0625,青岛市,市南区东部子站,,22,17,21,9,14,69,69,71,68,10,7,6,6,0.2,0.2
2026-06-30T1200,1311A,120.362344,36.10282,青岛市,四方区子站,,25,14,21,9,13,80,80,89,81,7,6,8,8,0.6,0.6
2026-06-30T1200,1312A,120.294373,36.054183,青岛市,市南区西部子站,,23,12,18,8,10,72,72,84,79,20,16,4,5,0.4,0.5
2026-06-30T1200,1313A,120.4581,36.0858,青岛市,崂山区子站,,26,9,24,8,13,83,83,86,80,4,6,7,6,0.2,0.3
2026-06-30T1200,1315A,120.3945,36.3083,青岛市,城阳区子站,,32,24,24,18,16,100,100,95,94,2,3,7,7,0.3,0.3
2026-06-30T1200,3642A,120.3454,36.0735,青岛市,市北区南部,,24,18,26,7,11,75,75,88,80,13,10,2,2,0.6,0.7
2026-06-30T1200,3643A,120.3897,36.18,青岛市,李沧区北部,,20,14,16,9,14,62,62,76,66,12,10,6,6,0.4,0.4
2026-06-30T1200,4110A,120.5222,36.4089,青岛市,盟旺路653号,,32,22,24,12,15,100,100,89,89,4,5,6,6,0.7,0.7
2026-06-30T1200,4290A,120.196923,35.954556,青岛市,珠江路669号,,22,22,21,7,11,70,70,86,75,20,8,4,4,0.3,0.3
2026-06-30T1200,4291A,120.0424,35.8656,青岛市,黄岛区人民政府广场,,25,14,20,8,9,79,79,86,80,10,7,5,5,0.5,0.5
2026-06-30T1200,1703A,113.0218,23.7086,清远市,凤城街办,,18,12,21,9,14,56,56,34,34,13,17,/,/,/,/
2026-06-30T1200,3025A,113.0479,23.6343,清远市,技师学院,,24,19,21,12,12,74,74,40,40,15,19,5,5,0.4,0.4
2026-06-30T1200,3318A,112.9898,23.7403,清远市,清新太和,,22,13,22,8,14,69,69,46,46,8,12,6,7,0.4,0.5
2026-06-30T1200,3455A,113.076,23.72,清远市,清城东城,,21,21,24,11,12,63,63,38,38,10,13,/,/,/,/
2026-06-30T1200,2661A,107.6325,35.7357,庆阳市,庆阳五中,颗粒物(PM10),60,63,40,29,15,142,142,115,115,11,8,6,5,0.4,0.4
2026-06-30T1200,2662A,107.6361,35.7067,庆阳市,市环保局,颗粒物(PM10),52,52,39,17,15,136,136,110,110,12,10,6,6,0.5,0.4
2026-06-30T1200,1916A,103.7897,25.5036,曲靖市,环境监测站,,34,34,19,16,9,74,74,53,53,12,10,12,6,0.7,0.6
2026-06-30T1200,1917A,103.8013,25.5357,曲靖市,烟厂办公区,,24,23,15,12,8,74,74,55,55,9,8,9,7,0.8,0.8
2026-06-30T1200,3376A,103.7926,25.4651,曲靖市,南苑二区,NA,NA,NA,16,NA,10,NA,NA,66,54,NA,11,NA,5,NA,0.6
2026-06-30T1200,3377A,103.7442,25.5259,曲靖市,曲靖师范学院,NA,NA,36,18,28,10,80,80,60,60,NA,12,3,5,NA,0.6
2026-06-30T1200,1264A,118.8694,28.94,衢州市,环保大楼,,18,18,21,11,13,21,21,20,15,19,15,/,/,/,/
2026-06-30T1200,1266A,118.8622,28.9809,衢州市,衢州学院,,15,15,17,9,13,28,28,21,21,17,17,2,2,0.6,0.5
2026-06-30T1200,4097A,118.9646,28.9832,衢州市,衢州三中,,22,17,19,15,16,24,24,15,15,22,22,3,3,0.8,0.7
2026-06-30T1200,1611A,118.5818,24.9116,泉州市,涂山街,NA,NA,NA,24,9,8,67,67,44,44,3,16,3,3,0.5,0.6
2026-06-30T1200,1612A,118.597,24.8976,泉州市,津头埔,,22,16,20,7,9,69,69,46,46,6,17,2,2,0.1,0.2
2026-06-30T1200,1613A,118.6669,24.9422,泉州市,万安,,22,17,25,6,8,70,70,38,38,6,17,3,3,0.3,0.3
2026-06-30T1200,4105A,118.6355,24.9148,泉州市,霞新路6号,,24,11,21,3,8,74,74,46,46,6,14,/,/,0.3,0.3
2026-06-30T1200,2626A,88.8873,29.2723,日喀则市,日喀则监测站,,43,7,4,3,2,137,137,140,132,5,4,8,7,0.4,0.4
2026-06-30T1200,3726A,88.8775,29.2425,日喀则市,林业技术推广中心,,45,6,3,3,1,142,142,141,134,2,2,8,8,0.3,0.3
2026-06-30T1200,1659A,119.4711,35.421,日照市,监测站,,24,24,28,12,22,74,74,72,68,18,11,8,8,0.3,0.3
2026-06-30T1200,1660A,119.523,35.4216,日照市,市政府广场,NA,NA,17,26,7,19,80,80,70,68,NA,4,8,8,NA,0.4
2026-06-30T1200,1661A,119.5511,35.4113,日照市,港务局,,24,17,22,3,12,76,76,80,74,13,6,6,5,0.7,0.8
2026-06-30T1200,3507A,119.5326,35.4627,日照市,职业技术学院,,27,14,28,3,13,84,84,84,78,6,4,8,7,0.4,0.4
2026-06-30T1200,3604A,119.3267,35.1043,日照市,岚山环保分局,,29,27,34,14,19,90,90,71,71,7,7,10,9,0.6,0.7
2026-06-30T1200,1835A,111.1922,34.7752,三门峡市,市政府,NA,NA,NA,36,7,18,120,120,71,71,NA,7,11,8,1.1,0.7
2026-06-30T1200,1836A,111.1588,34.794,三门峡市,开发区,,39,15,33,14,20,123,123,80,80,6,9,7,6,0.4,0.5
2026-06-30T1200,3039A,111.1911,34.7829,三门峡市,三门峡市第一小学,,39,27,33,9,18,124,124,80,80,4,6,11,8,0.6,0.6
2026-06-30T1200,3598A,111.1031,34.719,三门峡市,富达温泉假日酒店,,35,28,42,15,22,110,110,75,75,12,11,10,8,0.9,0.9
2026-06-30T1200,2324A,117.621,26.2626,三明市,三钢,,25,19,18,17,9,68,68,28,28,18,9,17,6,2.2,0.6
2026-06-30T1200,2325A,117.6352,26.2714,三明市,三明二中,,27,27,20,14,9,66,66,27,27,16,8,13,4,2.0,0.7
2026-06-30T1200,2326A,117.6028,26.2377,三明市,三元区政府,,23,14,20,8,10,71,71,22,22,12,8,13,8,1.7,0.9
2026-06-30T1200,1877A,109.4962,18.2682,三亚市,河西子站,,21,13,16,9,9,65,65,54,54,4,7,3,3,0.2,0.2
2026-06-30T1200,3540A,109.7348,18.3443,三亚市,君悦子站,,23,23,19,11,6,50,50,49,49,9,7,2,2,0.3,0.3
2026-06-30T1200,4135A,109.1714,18.3739,三亚市,城东小学站,,24,17,16,11,10,76,76,56,56,4,5,/,/,/,/
2026-06-30T1200,2624A,91.7592,29.234,山南市,山南监测站,,39,7,4,3,2,124,124,113,109,7,5,8,7,0.3,0.2
2026-06-30T1200,2625A,91.7701,29.2436,山南市,山南人民医院,,40,11,9,8,3,127,127,121,117,3,2,5,5,0.2,0.2
2026-06-30T1200,1674A,116.6795,23.3666,汕头市,金平子站,NA,NA,21,11,3,5,61,61,54,54,3,8,2,3,NA,0.5
2026-06-30T1200,1675A,116.7248,23.3632,汕头市,龙湖子站,,19,19,12,3,6,59,59,48,48,2,5,7,6,/,/
2026-06-30T1200,1676A,116.7257,23.2774,汕头市,濠江子站,,23,23,16,3,7,60,60,42,42,6,11,8,8,/,/
2026-06-30T1200,1677A,116.7518,23.4712,汕头市,澄海子站,,18,14,16,3,6,57,57,45,45,3,7,4,4,0.4,0.5
2026-06-30T1200,1678A,116.6088,23.2539,汕头市,潮阳子站,,17,15,9,6,7,54,54,43,43,4,7,7,6,0.7,0.8
2026-06-30T1200,3444A,116.4539,23.2684,汕头市,潮南峡山,,20,7,14,3,8,64,64,43,43,3,8,8,7,0.5,0.6
2026-06-30T1200,3624A,116.4069,23.2533,汕头市,潮南子站,,18,8,17,3,8,56,56,37,37,2,10,5,6,/,/
2026-06-30T1200,1693A,115.3653,22.7751,汕尾市,市环保局,,20,19,14,6,5,63,63,50,50,6,6,5,5,0.6,0.6
2026-06-30T1200,1695A,115.362,22.7926,汕尾市,新城中学,,21,17,11,3,4,67,67,48,48,3,5,6,6,0.5,0.5
2026-06-30T1200,2645A,109.9155,33.8714,商洛市,监测站,,43,21,21,10,12,137,137,97,90,7,6,7,6,1.0,0.9
2026-06-30T1200,3045A,109.9647,33.8486,商洛市,商州区中学,,40,25,25,12,11,127,127,94,86,8,7,8,6,0.8,0.8
2026-06-30T1200,2408A,115.6701,34.4283,商丘市,环境监测站,细颗粒物(PM2.5),78,62,72,49,42,173,173,132,132,5,9,5,5,0.7,0.6
2026-06-30T1200,2409A,115.6458,34.4047,商丘市,粮食局,细颗粒物(PM2.5),66,43,67,43,41,168,168,131,131,5,9,3,4,0.6,0.6
2026-06-30T1200,3171A,115.6069,34.4465,商丘市,梁园区档案局,"颗粒物(PM10),细颗粒物(PM2.5)",58,61,61,39,39,158,158,132,132,6,7,3,3,0.8,0.8
2026-06-30T1200,4119A,115.6701,34.3767,商丘市,北海东路185号,细颗粒物(PM2.5),56,49,56,38,38,162,162,121,121,7,14,4,4,0.7,0.6
2026-06-30T1200,4120A,115.6172,34.3704,商丘市,中山大街3号,细颗粒物(PM2.5),52,44,67,36,33,160,160,124,124,5,10,7,7,0.7,0.6
2026-06-30T1200,1141A,121.401,31.2382,上海市,普陀,,20,NA,20,6,14,64,64,47,47,23,18,5,5,0.3,0.2
2026-06-30T1200,1142A,121.4774,31.2043,上海市,十五厂,,20,NA,22,8,18,64,64,47,47,18,15,5,6,0.6,0.5
2026-06-30T1200,1143A,121.4673,31.3011,上海市,虹口,,18,NA,21,7,15,55,55,42,41,26,14,3,3,0.9,0.9
2026-06-30T1200,1147A,121.4253,31.226,上海市,静安监测站,,22,6,17,6,16,68,68,48,48,20,17,8,8,0.6,0.6
2026-06-30T1200,1148A,121.7029,31.1905,上海市,浦东川沙,,24,NA,22,3,16,75,75,63,63,12,16,9,9,0.8,0.8
2026-06-30T1200,1149A,121.5339,31.229,上海市,浦东新区监测站,,20,NA,18,3,14,62,62,45,45,15,11,6,6,0.5,0.5
2026-06-30T1200,1150A,121.5776,31.2038,上海市,浦东张江,,26,6,20,3,14,81,81,61,61,13,12,6,6,0.3,0.3
2026-06-30T1200,3265A,121.4242,31.3303,上海市,宝山庙行,,17,9,24,7,15,54,54,46,44,30,16,10,10,0.3,0.3
2026-06-30T1200,3266A,121.8789,31.4662,上海市,崇明上实东滩,,31,NA,17,6,16,98,98,66,66,3,11,9,9,0.2,0.2
2026-06-30T1200,3268A,121.316,31.2839,上海市,嘉定南翔,,17,6,17,3,12,54,54,48,48,25,20,5,5,0.2,0.2
2026-06-30T1200,3269A,121.3357,30.7455,上海市,金山新城,,15,6,18,3,13,46,46,41,41,21,12,4,4,0.9,0.7
2026-06-30T1200,3270A,121.4996,31.0741,上海市,闵行浦江,,18,NA,20,3,16,57,57,46,46,22,14,6,6,0.4,0.3
2026-06-30T1200,3271A,121.2886,31.1663,上海市,青浦徐泾,,21,6,23,3,15,65,65,43,43,9,13,4,5,0.5,0.5
2026-06-30T1200,3272A,121.2193,31.0382,上海市,松江图书馆,,17,7,24,6,18,53,53,49,49,20,10,7,7,0.5,0.4
2026-06-30T1200,3273A,121.3904,31.206,上海市,长宁仙霞,,19,NA,19,3,14,60,60,43,43,19,15,7,8,0.4,0.3
2026-06-30T1200,3274A,121.7964,31.0507,上海市,浦东惠南,,23,NA,17,3,15,71,71,60,60,15,15,8,8,0.8,0.7
2026-06-30T1200,3544A,121.4891,30.925,上海市,奉贤南桥新城,,21,NA,21,6,17,66,66,50,50,19,18,6,6,0.6,0.5
2026-06-30T1200,4183A,121.417401,31.16637,上海市,冠生园路458号,,20,6,20,3,14,63,63,44,44,19,18,5,5,0.6,0.6
2026-06-30T1200,4205A,121.541914,31.268301,上海市,宁武路151号,,19,6,31,6,16,59,59,49,42,34,27,7,7,0.5,0.4
2026-06-30T1200,2382A,117.9758,28.4439,上饶市,市监测站,,34,34,32,17,20,37,37,42,36,20,10,18,10,/,/
2026-06-30T1200,2383A,117.9521,28.4637,上饶市,凤凰光学,,26,26,28,12,19,44,44,44,39,10,11,12,9,0.7,0.7
2026-06-30T1200,3685A,117.897,28.4316,上饶市,双创科技城,,24,24,32,12,19,41,41,40,36,13,14,8,8,0.6,0.7
2026-06-30T1200,4211A,118.190438,28.444845,上饶市,裕丰大道,,29,29,27,12,11,32,32,24,22,10,10,10,10,0.6,0.7
2026-06-30T1200,1669A,113.5821,24.7733,韶关市,市八中,,35,14,23,8,13,110,110,56,56,7,13,10,13,0.5,0.7
2026-06-30T1200,1671A,113.5916,24.7973,韶关市,园林处,,31,10,19,8,13,99,99,48,48,9,15,14,11,/,/
2026-06-30T1200,1673A,113.5971,24.6864,韶关市,曲江监测站,,30,10,25,8,16,96,96,50,50,11,17,9,11,0.9,1.1
2026-06-30T1200,2809A,113.6668,24.7756,韶关市,大学路288号,,26,23,26,12,14,81,81,11,NA,6,9,10,14,/,/
2026-06-30T1200,3622A,113.5556,24.8082,韶关市,碧湖山庄,,31,20,23,10,10,97,97,54,54,8,12,2,3,0.5,0.7
2026-06-30T1200,2464A,111.5277,27.2442,邵阳市,市化工厂,,23,21,41,16,42,70,70,63,63,5,4,3,4,0.5,0.6
2026-06-30T1200,2466A,111.4327,27.2276,邵阳市,市环保局,,25,25,41,17,41,64,64,65,56,6,6,3,3,0.7,0.9
2026-06-30T1200,4218A,111.446,27.2472,邵阳市,北塔二期4-26地块,颗粒物(PM10),61,65,46,12,32,64,64,53,53,5,9,4,5,0.8,1
2026-06-30T1200,4219A,111.4739,27.2282,邵阳市,邵水西路287号,,32,NA,42,22,40,74,74,62,60,2,5,2,2,0.4,0.6
2026-06-30T1200,1247A,120.6053,29.9927,绍兴市,城东开发委,,12,12,12,7,5,33,33,29,25,10,9,8,8,0.4,0.3
2026-06-30T1200,2921A,120.5482,30.0003,绍兴市,树下王站,,13,10,13,9,8,31,31,30,24,12,10,8,8,0.5,0.4
2026-06-30T1200,3408A,120.5685,29.936,绍兴市,绍兴中专,,13,13,13,8,5,30,30,20,20,10,10,5,5,0.6,0.5
2026-06-30T1200,3409A,120.4905,30.086,绍兴市,柯桥区政府,,15,10,16,10,12,34,34,33,27,10,10,4,5,0.5,0.5
2026-06-30T1200,3410A,120.8751,30.0249,绍兴市,重华小学,,22,19,14,15,9,35,35,24,23,16,11,9,9,0.7,0.7
2026-06-30T1200,3411A,120.837,30.0137,绍兴市,上虞中学,,25,20,14,17,9,45,45,26,23,8,8,8,7,0.6,0.5
2026-06-30T1200,3560A,120.4715,30.0414,绍兴市,柯桥妇保,,18,18,16,10,9,30,30,23,23,16,12,6,5,0.5,0.5
2026-06-30T1200,3658A,120.6156,30.0762,绍兴市,袍江中学,,26,NA,13,18,11,35,35,31,26,13,12,5,6,0.5,0.5
2026-06-30T1200,1356A,114.0948,22.5506,深圳市,通心岭子站,,22,6,7,3,4,68,68,42,42,7,9,3,3,0.7,0.7
2026-06-30T1200,1357A,114.1153,22.5713,深圳市,洪湖,,20,8,14,3,7,63,63,39,38,9,9,6,6,0.3,0.3
2026-06-30T1200,1358A,113.9823,22.5398,深圳市,华侨城,,20,9,14,3,6,63,63,45,45,10,15,/,/,/,/
2026-06-30T1200,1359A,113.9181,22.517,深圳市,南海子站,,20,10,14,3,7,63,63,49,49,9,11,5,5,0.8,0.8
2026-06-30T1200,1360A,114.2345,22.565,深圳市,盐田,,17,NA,12,3,3,52,52,22,18,12,17,6,6,0.2,0.2
2026-06-30T1200,1363A,114.4911,22.5381,深圳市,南澳,,23,8,13,3,3,71,71,47,47,6,4,/,/,/,/
2026-06-30T1200,1364A,114.41,22.6346,深圳市,葵涌,,23,7,13,3,5,71,71,44,44,5,9,6,6,0.6,0.6
2026-06-30T1200,1365A,114.2967,22.5978,深圳市,梅沙,,25,7,11,3,4,77,77,49,49,2,4,/,/,/,/
2026-06-30T1200,1366A,114.0563,22.7353,深圳市,观澜,,33,14,21,7,12,103,103,52,52,13,21,5,6,0.6,0.6
2026-06-30T1200,3305A,114.0614,22.556,深圳市,莲花,,16,9,14,3,7,51,51,24,24,7,10,/,/,/,/
2026-06-30T1200,3306A,114.0144,22.6163,深圳市,民治,,22,8,17,3,8,69,69,40,40,4,14,/,/,/,/
2026-06-30T1200,3307A,114.1756,22.6421,深圳市,横岗,,23,16,11,7,8,71,71,40,40,13,14,/,/,/,/
2026-06-30T1200,3447A,114.344,22.7115,深圳市,坪山,,22,9,11,8,7,68,68,42,42,5,7,6,6,0.7,0.7
2026-06-30T1200,3623A,113.8952,22.586,深圳市,西乡,,19,11,14,3,6,60,60,41,41,10,20,2,4,0.6,0.6
2026-06-30T1200,4220A,114.214113,22.713717,深圳市,黄阁路,,24,19,19,3,3,76,76,43,43,5,4,6,6,0.7,0.7
2026-06-30T1200,1099A,123.5058,41.7084,沈阳市,浑南东路,,34,23,29,8,14,106,106,60,60,8,35,9,8,0.5,0.6
