timepoint,stationcode,longitude,latitude,area,positionname,primarypollutant,aqi,pm10,pm10_24h,pm2_5,pm2_5_24h,o3,o3_24h,o3_8h,o3_8h_24h,no2,no2_24h,so2,so2_24h,co,co_24h
2026-03-12T0300,1937A,107.2396,34.3626,宝鸡市,三迪小学,细颗粒物(PM2.5),140,129,95,103,82,37,37,NA,NA,43,34,NA,9,0.8,0.8
2026-03-12T0300,4155A,107.1721,34.3558,宝鸡市,滨河北路,细颗粒物(PM2.5),140,140,110,103,78,57,57,NA,NA,20,27,7,8,0.8,0.8
2026-03-12T0300,4308A,107.3898,34.3601,宝鸡市,陈仓区北开路21号,细颗粒物(PM2.5),119,123,105,80,80,39,39,NA,NA,68,38,8,17,0.6,0.7
2026-03-12T0300,1051A,115.4803,38.8568,保定市,游泳馆,细颗粒物(PM2.5),123,95,87,85,71,74,74,NA,NA,26,27,2,3,0.4,0.5
2026-03-12T0300,1052A,115.509,38.8895,保定市,华电二区,细颗粒物(PM2.5),109,90,80,69,64,52,52,NA,NA,36,24,2,3,0.7,0.7
2026-03-12T0300,1053A,115.4588,38.9037,保定市,接待中心,细颗粒物(PM2.5),113,81,88,74,68,67,67,NA,NA,24,22,4,4,0.5,0.5
2026-03-12T0300,1054A,115.4484,38.8344,保定市,地表水厂,细颗粒物(PM2.5),116,105,97,77,61,70,70,NA,NA,22,27,5,6,0.4,0.4
2026-03-12T0300,3581A,115.3136,38.9511,保定市,满城区生态环境分局,细颗粒物(PM2.5),110,119,99,70,64,55,55,NA,NA,34,30,5,6,0.5,0.4
2026-03-12T0300,3582A,115.4709,38.7628,保定市,清苑区第二中学,细颗粒物(PM2.5),120,122,108,81,73,62,62,NA,NA,36,30,3,5,0.4,0.5
2026-03-12T0300,3583A,115.6231,39.0223,保定市,徐水物探局,细颗粒物(PM2.5),118,114,105,79,69,18,18,NA,NA,61,26,3,3,0.6,0.5
2026-03-12T0300,4004A,115.4199,38.8665,保定市,双鹰农机,细颗粒物(PM2.5),124,105,106,86,70,64,64,NA,NA,27,25,3,5,0.5,0.5
2026-03-12T0300,4034A,115.515,38.8589,保定市,植保所站,细颗粒物(PM2.5),113,96,95,74,63,70,70,NA,NA,33,30,2,3,0.5,0.5
2026-03-12T0300,2595A,99.1616,25.1381,保山市,市环保局,细颗粒物(PM2.5),64,58,58,42,38,107,107,NA,NA,6,8,5,5,0.5,0.5
2026-03-12T0300,1867A,109.1435,21.4085,北海市,海滩公园,细颗粒物(PM2.5),64,44,30,42,23,57,57,NA,NA,18,13,3,4,1.0,0.8
2026-03-12T0300,1868A,109.0983,21.466,北海市,新市环保局,细颗粒物(PM2.5),68,NA,29,44,24,62,62,NA,NA,18,15,6,7,0.9,0.7
2026-03-12T0300,1869A,109.1775,21.5232,北海市,北海工业园,细颗粒物(PM2.5),119,90,32,80,26,42,42,NA,NA,23,15,8,7,1.2,0.9
2026-03-12T0300,3400A,109.1844,21.4396,北海市,龙潭自来水厂,细颗粒物(PM2.5),122,NA,31,84,31,18,18,NA,NA,26,12,6,7,1.6,1.2
2026-03-12T0300,1001A,116.3611,39.8786,北京市,万寿西宫,细颗粒物(PM2.5),100,95,56,60,38,66,66,NA,NA,32,28,4,3,0.6,0.5
2026-03-12T0300,1003A,116.4174,39.9289,北京市,东四,细颗粒物(PM2.5),108,104,58,68,38,65,65,NA,NA,29,23,9,6,0.7,0.5
2026-03-12T0300,1004A,116.4073,39.8858,北京市,天坛,细颗粒物(PM2.5),105,90,53,65,36,27,27,NA,NA,30,22,2,3,0.8,0.5
2026-03-12T0300,1005A,116.4622,39.9364,北京市,农展馆,细颗粒物(PM2.5),111,110,58,72,39,29,29,NA,NA,48,23,6,5,1.0,0.7
2026-03-12T0300,1006A,116.3399,39.9293,北京市,官园,细颗粒物(PM2.5),100,98,50,60,32,65,65,NA,NA,31,29,4,3,0.6,0.4
2026-03-12T0300,1007A,116.2879,39.9613,北京市,海淀万柳,细颗粒物(PM2.5),101,91,50,61,30,55,55,NA,NA,30,30,5,4,0.7,0.5
2026-03-12T0300,1008A,116.6635,40.1349,北京市,顺义新城,细颗粒物(PM2.5),96,96,48,58,30,36,36,NA,NA,32,15,4,4,0.7,0.4
2026-03-12T0300,1009A,116.6275,40.327,北京市,怀柔镇,细颗粒物(PM2.5),105,91,46,65,32,48,48,NA,NA,20,17,5,5,0.7,0.5
2026-03-12T0300,3445A,113.786,23.7479,广州市,从化良口,,17,17,16,11,14,28,28,NA,NA,18,10,4,4,/,/
2026-03-12T0300,3446A,113.805,23.2614,广州市,增城荔城,,35,31,28,24,22,24,24,NA,NA,28,21,7,8,0.6,0.6
2026-03-12T0300,2506A,109.604387,23.066791,贵港市,江南子站,细颗粒物(PM2.5),88,92,48,54,28,22,22,NA,NA,35,20,6,7,1.0,0.7
2026-03-12T0300,3405A,109.5886,23.1172,贵港市,新世纪学校,,45,44,37,31,26,41,41,NA,NA,27,20,/,/,0.6,0.6
2026-03-12T0300,4260A,109.5933,23.095,贵港市,中山路155-3号,,48,48,37,27,26,38,38,NA,NA,32,17,/,/,0.6,0.6
2026-03-12T0300,1439A,106.6863,26.6035,贵阳市,马鞍山,,46,46,34,31,25,16,16,NA,NA,17,16,4,6,/,/
2026-03-12T0300,1442A,106.7468,26.6344,贵阳市,燕子冲,,46,44,40,32,25,34,34,NA,NA,16,18,3,6,0.6,0.6
2026-03-12T0300,1443A,106.6556,26.4362,贵阳市,碧云窝,颗粒物(PM10),58,61,45,30,26,10,10,NA,NA,23,18,9,10,/,/
2026-03-12T0300,4230A,106.688212,26.56952,贵阳市,花果园大街66号,细颗粒物(PM2.5),64,51,40,42,29,51,51,NA,NA,23,25,9,8,/,/
2026-03-12T0300,4231A,106.687268,26.516892,贵阳市,漓江路57号,,46,39,35,32,26,24,24,NA,NA,47,29,15,12,0.8,0.8
2026-03-12T0300,1864A,110.3091,25.2705,桂林市,龙隐路小学,,47,47,40,29,28,22,22,NA,NA,24,20,7,10,0.8,0.8
2026-03-12T0300,1865A,110.2849361,25.22909545,桂林市,八中,,45,45,43,25,18,15,15,NA,NA,30,25,5,8,0.8,0.7
2026-03-12T0300,3531A,110.296,25.1254,桂林市,旅游学院,细颗粒物(PM2.5),62,60,49,41,33,7,7,NA,NA,33,23,5,7,0.6,0.6
2026-03-12T0300,4301A,110.2803,25.2773,桂林市,信义路13号,细颗粒物(PM2.5),70,61,47,45,32,8,8,NA,NA,36,30,11,14,0.9,0.8
2026-03-12T0300,2674A,100.2262,34.4854,果洛藏族自治州,玛沁县大武镇,,42,42,44,13,13,44,44,NA,NA,5,4,21,18,0.4,0.4
2026-03-12T0300,1130A,126.5557,45.8109,哈尔滨市,松北商大,细颗粒物(PM2.5),82,79,45,51,34,2,2,NA,NA,73,25,9,9,0.7,0.6
2026-03-12T0300,1132A,126.6162,45.719,哈尔滨市,南岗学府路,NA,NA,36,44,19,25,NA,NA,NA,NA,27,15,24,12,0.4,0.3
2026-03-12T0300,1133A,126.6894,45.7733,哈尔滨市,太平宏伟公园,,39,31,37,27,27,51,51,NA,NA,30,20,8,10,0.6,0.5
2026-03-12T0300,1134A,126.6361,45.7672,哈尔滨市,道外承德广场,,47,47,54,21,26,62,62,NA,NA,22,17,9,10,0.8,0.7
2026-03-12T0300,1136A,126.644,45.7261,哈尔滨市,动力和平路,NA,NA,33,43,15,25,NA,NA,NA,NA,21,16,13,15,0.7,0.7
2026-03-12T0300,1137A,126.5933,45.7479,哈尔滨市,道里建国路,,28,24,34,19,27,43,43,NA,NA,43,21,8,11,0.6,0.5
2026-03-12T0300,1138A,126.6127,45.6119,哈尔滨市,平房东轻厂,二氧化氮(NO2),60,55,45,34,38,3,3,NA,NA,120,84,10,12,1.0,0.7
2026-03-12T0300,1139A,126.5875,45.9827,哈尔滨市,呼兰师专,细颗粒物(PM2.5),90,63,43,55,28,31,31,NA,NA,34,20,8,10,0.4,0.3
2026-03-12T0300,1140A,126.6299,45.6799,哈尔滨市,省农科院,,40,40,45,28,28,18,18,NA,NA,64,22,14,13,1.0,0.7
2026-03-12T0300,4283A,126.9717,45.5356,哈尔滨市,解放大街52号,,50,50,52,25,28,21,21,NA,NA,39,21,8,12,0.9,0.9
2026-03-12T0300,2688A,93.5124,42.8176,哈密市,地区监测站,颗粒物(PM10),157,264,319,26,45,78,78,NA,NA,1,8,4,5,0.0,0.1
2026-03-12T0300,2671A,100.9016,36.9464,海北藏族自治州,海晏县西海镇,,32,32,28,22,19,60,60,NA,NA,5,7,10,10,0.5,0.5
2026-03-12T0300,3867A,102.074,36.5056,海东市,平安区公安局北苑,,46,46,42,32,28,56,56,NA,NA,8,15,10,15,0.5,0.9
2026-03-12T0300,4163A,102.0984,36.5119,海东市,滨河路,颗粒物(PM10),66,72,50,34,30,4,4,NA,NA,41,38,7,15,0.5,0.6
2026-03-12T0300,1410A,110.3189,20.0596,海口市,海南大学,,38,25,38,18,27,119,119,NA,NA,10,10,6,6,0.5,0.6
2026-03-12T0300,1411A,110.2827,20.0051,海口市,秀英海南医院,,37,37,32,25,27,104,104,NA,NA,12,12,8,8,0.5,0.5
2026-03-12T0300,1412A,110.3391,19.9979,海口市,海南师范大学,,38,38,38,22,28,114,114,NA,NA,10,11,6,6,0.2,0.4
2026-03-12T0300,2568A,102.2503,31.8896,阿坝藏族羌族自治州,马师校,,22,17,21,9,11,70,70,NA,NA,2,6,4,4,0.4,0.4
2026-03-12T0300,3994A,102.2174,31.9016,阿坝藏族羌族自治州,马尔康中学西区,,22,14,13,6,9,68,68,NA,NA,4,6,6,5,0.3,0.3
2026-03-12T0300,2696A,80.2592,41.1541,阿克苏地区,艺术中心,颗粒物(PM10),115,158,428,28,76,98,98,NA,NA,2,18,4,4,0.3,0.4
2026-03-12T0300,2205A,105.699,38.8409,阿拉善盟,蒙二幼,颗粒物(PM10),58,61,81,24,16,109,109,NA,NA,3,6,9,9,0.5,0.5
2026-03-12T0300,2206A,105.7198,38.8508,阿拉善盟,环保局新楼,颗粒物(PM10),80,91,59,16,10,108,108,NA,NA,6,5,8,8,0.5,0.4
2026-03-12T0300,2708A,88.1266,47.8515,阿勒泰地区,市站,,27,13,10,3,2,86,86,NA,NA,4,3,4,3,0.1,0.2
2026-03-12T0300,4166A,88.1198,47.7931,阿勒泰地区,阿勒泰路33号,,27,22,13,6,3,85,85,NA,NA,3,3,5,5,0.3,0.3
2026-03-12T0300,2630A,80.1171,32.4999,阿里地区,阿里监测站,,29,17,25,3,5,91,91,NA,NA,1,2,8,8,0.3,0.3
2026-03-12T0300,3192A,80.0906,32.5029,阿里地区,阿里藏医院,,31,16,27,3,4,98,98,NA,NA,2,4,9,9,0.3,0.3
2026-03-12T0300,2644A,109.0088,32.6974,安康市,汉滨区检察院,细颗粒物(PM2.5),106,96,42,66,25,125,125,NA,NA,9,16,4,19,0.5,0.5
2026-03-12T0300,4054A,109.0324,32.6913,安康市,市邮政管理局,细颗粒物(PM2.5),113,109,49,74,29,117,117,NA,NA,10,22,4,9,0.6,0.8
2026-03-12T0300,2291A,117.0806,30.5181,安庆市,环科院,细颗粒物(PM2.5),72,62,60,46,39,76,76,NA,NA,7,28,10,9,0.7,0.6
2026-03-12T0300,2292A,117.0331,30.5118,安庆市,马山宾馆,细颗粒物(PM2.5),68,62,65,44,41,82,82,NA,NA,16,34,8,8,0.9,0.8
2026-03-12T0300,2294A,116.9897,30.6146,安庆市,安庆大学,细颗粒物(PM2.5),74,64,56,47,34,64,64,NA,NA,12,19,4,7,0.6,0.5
2026-03-12T0300,3173A,117.0598,30.5351,安庆市,市人大,细颗粒物(PM2.5),70,61,63,45,39,79,79,NA,NA,13,24,8,9,0.6,0.6
2026-03-12T0300,3123A,105.9408,26.2431,安顺市,凤凰山,细颗粒物(PM2.5),106,95,56,66,41,1,1,NA,NA,54,34,78,41,1.5,1.1
2026-03-12T0300,3124A,105.9443,26.2567,安顺市,金钟山,细颗粒物(PM2.5),84,59,37,52,34,20,20,NA,NA,32,16,42,28,1.3,0.9
2026-03-12T0300,3125A,105.8983,26.248,安顺市,娄家坡,细颗粒物(PM2.5),108,90,47,68,35,8,8,NA,NA,40,17,68,19,1.6,0.8
2026-03-12T0300,1820A,114.361,36.0681,安阳市,银杏小区,细颗粒物(PM2.5),172,146,111,130,105,73,73,NA,NA,29,21,4,4,0.7,0.6
2026-03-12T0300,3141A,114.3921,36.0879,安阳市,信访局,细颗粒物(PM2.5),165,143,121,125,106,68,68,NA,NA,35,23,4,4,0.6,0.7
2026-03-12T0300,3669A,114.4706,36.0634,安阳市,左辅环卫站,细颗粒物(PM2.5),182,186,154,137,103,61,61,NA,NA,34,19,8,4,0.7,0.6
2026-03-12T0300,1749A,123.011,41.0931,鞍山市,太阳城,细颗粒物(PM2.5),116,92,96,77,66,43,43,NA,NA,37,28,16,15,0.8,0.8
2026-03-12T0300,1750A,123.0483,41.1445,鞍山市,太平,细颗粒物(PM2.5),126,125,109,88,71,32,32,NA,NA,42,34,20,16,1.0,0.9
2026-03-12T0300,1751A,122.964,41.0968,鞍山市,铁西三道街,细颗粒物(PM2.5),120,110,121,82,83,41,41,NA,NA,40,52,13,28,0.9,1.8
2026-03-12T0300,1753A,123.0219,41.0822,鞍山市,明达新区,细颗粒物(PM2.5),104,81,81,64,59,47,47,NA,NA,31,24,15,15,0.7,0.7
2026-03-12T0300,4201A,122.944647,41.082639,鞍山市,兴盛南路290号,细颗粒物(PM2.5),140,132,131,103,90,20,20,NA,NA,61,56,30,30,2.1,2.1
2026-03-12T0300,2195A,107.4206,40.7609,巴彦淖尔市,附二中,细颗粒物(PM2.5),105,105,75,65,36,58,58,NA,NA,14,12,9,16,0.5,0.4
2026-03-12T0300,2196A,107.37,40.7372,巴彦淖尔市,市环保大楼,"颗粒物(PM10),细颗粒物(PM2.5)",94,111,69,57,29,59,59,NA,NA,15,12,7,7,0.4,0.3
2026-03-12T0300,1956A,86.1476,41.7529,巴音郭楞蒙古自治州,孔雀公园,颗粒物(PM10),339,451,442,51,60,83,83,NA,NA,1,12,8,9,0.2,0.3
2026-03-12T0300,1957A,86.1971,41.7166,巴音郭楞蒙古自治州,棉纺厂,颗粒物(PM10),500,1272,472,68,62,82,82,NA,NA,1,14,/,/,/,/
2026-03-12T0300,1958A,86.236,41.7172,巴音郭楞蒙古自治州,经济开发区,颗粒物(PM10),500,1211,571,85,70,76,76,NA,NA,2,10,6,7,0.2,0.4
2026-03-12T0300,3181A,106.776805,31.852614,巴中市,市五中,,42,38,29,29,21,30,30,NA,NA,18,19,8,8,0.8,0.8
2026-03-12T0300,3183A,106.7419,31.8654,巴中市,圣泉水务公司,,33,30,28,23,20,33,33,NA,NA,18,21,9,9,1.0,1
2026-03-12T0300,3616A,106.7617,31.8343,巴中市,市中心医院,NA,NA,45,33,35,23,7,7,NA,NA,27,20,NA,9,0.8,0.8
2026-03-12T0300,2235A,122.7909,45.608,白城市,洮北区环保局,,29,29,39,20,25,41,41,NA,NA,38,17,2,5,0.3,0.3
2026-03-12T0300,2231A,126.4219,41.9172,白山市,喜丰,细颗粒物(PM2.5),64,66,62,42,33,56,56,NA,NA,19,27,11,11,0.7,0.8
2026-03-12T0300,2232A,126.4082,41.9416,白山市,环保局,细颗粒物(PM2.5),74,NA,50,47,33,54,54,NA,NA,17,15,8,10,0.7,0.8
2026-03-12T0300,2647A,104.1727,36.5448,白银市,第三小学,,42,42,51,19,26,64,64,NA,NA,22,33,3,30,0.4,0.5
2026-03-12T0300,2648A,104.1467,36.5482,白银市,动力公司,,40,40,54,15,24,64,64,NA,NA,29,24,5,20,0.5,0.5
2026-03-12T0300,2512A,106.6102,23.901,百色市,市监测站,,26,26,26,16,14,26,26,NA,NA,16,18,9,12,0.6,0.6
2026-03-12T0300,2513A,106.6524,23.8842,百色市,市中心血站,,32,24,32,22,21,8,8,NA,NA,42,23,8,12,0.7,0.7
2026-03-12T0300,4133A,106.6273,23.8798,百色市,龙景西路,,36,36,33,20,21,19,19,NA,NA,17,15,10,14,0.6,0.6
2026-03-12T0300,2270A,117.396,32.9389,蚌埠市,工人疗养院,细颗粒物(PM2.5),113,94,101,74,70,32,32,NA,NA,49,43,6,7,0.7,0.9
2026-03-12T0300,2271A,117.3606,32.9428,蚌埠市,百货大楼,细颗粒物(PM2.5),106,87,97,66,62,19,19,NA,NA,61,44,5,8,0.7,0.9
2026-03-12T0300,2273A,117.4183,32.8909,蚌埠市,蚌埠学院,细颗粒物(PM2.5),120,90,82,82,66,50,50,NA,NA,28,46,4,8,0.6,0.7
2026-03-12T0300,2274A,117.3534,32.9672,蚌埠市,淮上区政府,细颗粒物(PM2.5),110,83,91,71,72,57,57,NA,NA,26,42,6,7,0.6,0.8
2026-03-12T0300,2275A,117.3143,32.8977,蚌埠市,高新区,细颗粒物(PM2.5),112,75,91,73,72,56,56,NA,NA,25,44,7,9,0.7,0.8
2026-03-12T0300,1585A,109.8761,40.6533,包头市,市环境监测站,细颗粒物(PM2.5),76,79,41,48,32,47,47,NA,NA,37,31,20,11,0.8,0.6
2026-03-12T0300,1589A,109.8641,40.6288,包头市,惠龙物流,细颗粒物(PM2.5),86,69,37,53,31,57,57,NA,NA,33,30,36,12,1.0,0.6
2026-03-12T0300,1590A,110.0376,40.5546,包头市,东河鸿龙湾,颗粒物(PM10),83,95,67,43,51,42,42,NA,NA,45,47,65,19,0.7,0.8
2026-03-12T0300,3283A,109.9154,40.5684,包头市,滨河大厦,细颗粒物(PM2.5),92,75,51,56,34,54,54,NA,NA,32,35,13,12,0.6,0.7
2026-03-12T0300,3419A,109.9449,40.6259,包头市,包头市委党校,颗粒物(PM10),74,83,41,42,25,63,63,NA,NA,29,35,18,20,0.5,0.6
2026-03-12T0300,3683A,109.8332,40.6577,包头市,昆区政府,细颗粒物(PM2.5),90,75,33,55,28,49,49,NA,NA,42,34,26,13,0.9,0.6
2026-03-12T0300,1931A,107.0802,34.3129,宝鸡市,竹园沟,细颗粒物(PM2.5),137,112,74,100,64,51,51,NA,NA,20,22,6,8,0.6,0.6
2026-03-12T0300,1933A,107.1429,34.3549,宝鸡市,监测站,细颗粒物(PM2.5),150,129,93,114,77,NA,NA,NA,NA,29,26,5,7,0.7,0.7
2026-03-12T0300,1934A,107.1172,34.3759,宝鸡市,技工学校,细颗粒物(PM2.5),127,106,97,89,71,61,61,NA,NA,23,29,NA,7,0.8,0.9
2026-03-12T0300,1936A,107.2025,34.3518,宝鸡市,文理学院,细颗粒物(PM2.5),149,126,90,113,79,51,51,NA,NA,26,26,5,7,0.8,0.7
2026-03-12T0300,1010A,116.2295,40.217,北京市,昌平镇,细颗粒物(PM2.5),114,116,34,75,21,37,37,NA,NA,42,24,3,3,0.9,0.5
2026-03-12T0300,1011A,116.3968,39.982,北京市,奥体中心,细颗粒物(PM2.5),108,102,58,68,39,52,52,NA,NA,37,30,5,5,0.9,0.6
2026-03-12T0300,3418A,116.8336,40.4095,北京市,密云新城,细颗粒物(PM2.5),96,95,36,58,21,56,56,NA,NA,20,11,4,3,0.8,0.4
2026-03-12T0300,3671A,116.0879,39.9725,北京市,门头沟三家店,细颗粒物(PM2.5),110,104,54,71,34,55,55,NA,NA,39,23,5,4,0.6,0.5
2026-03-12T0300,3672A,116.1507,39.8246,北京市,丰台云岗,细颗粒物(PM2.5),96,98,54,58,32,81,81,NA,NA,18,21,4,3,0.7,0.5
2026-03-12T0300,3674A,115.9578,39.7602,北京市,房山燕山,细颗粒物(PM2.5),111,97,37,72,24,65,65,NA,NA,17,17,4,4,0.6,0.3
2026-03-12T0300,3675A,116.4669,39.7734,北京市,大兴旧宫,细颗粒物(PM2.5),110,112,64,70,40,41,41,NA,NA,27,28,3,4,0.7,0.6
2026-03-12T0300,3694A,115.9859,40.4562,北京市,延庆石河营,细颗粒物(PM2.5),111,105,31,72,18,68,68,NA,NA,22,16,3,2,0.9,0.5
2026-03-12T0300,3695A,116.6151,40.3052,北京市,怀柔新城,细颗粒物(PM2.5),115,88,42,76,35,44,44,NA,NA,19,14,3,3,0.7,0.6
2026-03-12T0300,3696A,116.2542,39.8764,北京市,丰台小屯,细颗粒物(PM2.5),103,101,51,63,32,46,46,NA,NA,48,31,4,4,0.6,0.4
2026-03-12T0300,3697A,116.8399,40.3843,北京市,密云镇,细颗粒物(PM2.5),104,91,37,64,24,47,47,NA,NA,28,11,5,5,0.8,0.4
2026-03-12T0300,4057A,115.9423,40.4431,北京市,延庆百泉,细颗粒物(PM2.5),110,107,28,71,16,68,68,NA,NA,23,21,3,2,0.7,0.4
2026-03-12T0300,4058A,116.6598,39.9164,北京市,通州新华,细颗粒物(PM2.5),110,113,57,70,37,26,26,NA,NA,61,27,4,4,0.8,0.5
2026-03-12T0300,4182A,116.1942,39.9158,北京市,石景山八角,颗粒物(PM10),80,91,50,48,27,62,62,NA,NA,29,30,10,5,0.4,0.3
2026-03-12T0300,4194A,117.078628,40.151726,北京市,平谷新城,细颗粒物(PM2.5),110,101,78,71,58,46,46,NA,NA,32,26,1,3,0.8,0.6
2026-03-12T0300,1761A,123.8274146,41.31234549,本溪市,大峪,颗粒物(PM10),52,52,62,29,36,51,51,NA,NA,20,20,9,11,0.7,0.7
2026-03-12T0300,1763A,123.7169,41.3094,本溪市,彩屯,颗粒物(PM10),58,61,71,37,46,47,47,NA,NA,29,26,8,11,0.7,0.9
2026-03-12T0300,1764A,123.7672166,41.28649327,本溪市,东明,颗粒物(PM10),58,61,64,28,48,60,60,NA,NA,19,21,10,11,0.6,0.7
2026-03-12T0300,1765A,123.799345,41.266614,本溪市,新立屯,,43,43,53,21,32,16,16,NA,NA,43,20,5,8,0.7,0.6
2026-03-12T0300,1766A,123.829144,41.336777,本溪市,威宁,颗粒物(PM10),63,67,77,34,42,14,14,NA,NA,36,24,4,7,0.8,0.8
2026-03-12T0300,2587A,105.287,27.3133,毕节市,八中,细颗粒物(PM2.5),82,81,45,51,33,14,14,NA,NA,10,10,9,11,0.8,0.7
2026-03-12T0300,2588A,105.3079,27.2987,毕节市,师专,颗粒物(PM10),53,53,43,34,28,17,17,NA,NA,12,14,8,9,0.7,0.7
2026-03-12T0300,4263A,105.3688,27.3598,毕节市,工业大道,颗粒物(PM10),52,52,47,32,30,16,16,NA,NA,13,16,10,11,/,/
2026-03-12T0300,1629A,117.9961,37.3604,滨州市,第二水厂,细颗粒物(PM2.5),105,75,128,65,100,85,85,NA,NA,11,36,NA,12,0.3,0.5
2026-03-12T0300,3514A,117.9379,37.3959,滨州市,中海酒店,细颗粒物(PM2.5),100,70,127,60,100,92,92,NA,NA,15,34,6,10,0.4,0.7
2026-03-12T0300,3516A,118.0914,37.6938,滨州市,金海六路,细颗粒物(PM2.5),102,71,113,62,100,92,92,NA,NA,10,25,NA,6,0.4,0.6
2026-03-12T0300,2311A,115.8071,33.8399,亳州市,污水处理厂,细颗粒物(PM2.5),230,190,118,180,91,71,71,NA,NA,25,26,6,6,0.4,0.3
2026-03-12T0300,2312A,115.7789,33.8519,亳州市,三国揽胜宫,细颗粒物(PM2.5),230,190,128,180,91,68,68,NA,NA,25,27,6,7,0.7,0.5
2026-03-12T0300,3332A,115.7631,33.803,亳州市,亳州学院,细颗粒物(PM2.5),202,214,122,152,85,78,78,NA,NA,21,22,7,7,0.6,0.5
2026-03-12T0300,2693A,82.0482,44.8553,博尔塔拉蒙古自治州,市党校,颗粒物(PM10),98,117,86,13,15,79,79,NA,NA,2,7,1,1,0.5,0.2
2026-03-12T0300,2694A,82.0805,44.8966,博尔塔拉蒙古自治州,市环保局,颗粒物(PM10),105,133,74,12,7,68,68,NA,NA,8,11,1,1,0.5,0.6
2026-03-12T0300,3324A,116.8011,38.294,沧州市,河北水利电力学院,细颗粒物(PM2.5),108,90,125,68,103,47,47,NA,NA,28,32,5,8,0.6,0.8
2026-03-12T0300,3719A,97.1707,31.1428,昌都市,昌都会议中心,,19,16,17,8,12,59,59,NA,NA,5,7,6,7,0.5,0.5
2026-03-12T0300,2692A,87.2722,44.0298,昌吉回族自治州,新区政务中心,,25,24,101,14,20,80,80,NA,NA,11,12,5,6,0.2,0.2
2026-03-12T0300,4164A,87.2057,43.9289,昌吉回族自治州,财政所,,29,29,119,3,16,79,79,NA,NA,6,6,6,6,0.3,0.3
2026-03-12T0300,1121A,125.2943,43.8508,长春市,邮电学院,细颗粒物(PM2.5),94,62,55,57,44,51,51,NA,NA,27,19,9,10,0.5,0.4
2026-03-12T0300,1122A,125.3648,43.8745,长春市,劳动公园,细颗粒物(PM2.5),116,100,72,77,46,40,40,NA,NA,45,26,13,9,0.7,0.6
2026-03-12T0300,1123A,125.3233,43.8781,长春市,园林处,细颗粒物(PM2.5),106,68,51,66,44,48,48,NA,NA,30,21,11,8,0.6,0.5
2026-03-12T0300,1124A,125.4604,43.7904,长春市,净月潭,细颗粒物(PM2.5),92,NA,54,56,44,48,48,NA,NA,18,17,6,7,0.5,0.4
2026-03-12T0300,1126A,125.38,43.8422,长春市,经开区环卫处,细颗粒物(PM2.5),117,97,59,78,46,2,2,NA,NA,76,28,6,6,0.7,0.5
2026-03-12T0300,1127A,125.234,43.7761,长春市,高新区管委会,细颗粒物(PM2.5),94,63,51,57,39,4,4,NA,NA,71,31,7,10,0.7,0.5
2026-03-12T0300,1128A,125.1695,43.83,长春市,岱山公园,细颗粒物(PM2.5),112,102,57,73,43,2,2,NA,NA,79,42,9,7,1.0,0.6
2026-03-12T0300,4281A,125.334645,43.916281,长春市,北亚泰大街1068号,细颗粒物(PM2.5),92,76,61,56,47,17,17,NA,NA,57,31,10,9,0.5,0.4
2026-03-12T0300,1335A,113.082,28.2421,长沙市,经开区环保局,颗粒物(PM10),55,56,47,34,25,46,46,NA,NA,39,27,4,4,0.5,0.5
2026-03-12T0300,1336A,112.8873,28.2202,长沙市,高开区环保局,颗粒物(PM10),51,51,44,35,27,30,30,NA,NA,35,17,7,7,0.7,0.8
2026-03-12T0300,1337A,113.0785,28.2012,长沙市,马坡岭,细颗粒物(PM2.5),56,56,50,38,31,24,24,NA,NA,57,38,6,5,0.7,0.8
2026-03-12T0300,1338A,112.9448,28.1894,长沙市,湖南师范大学,NA,NA,51,49,30,29,35,35,NA,NA,40,25,NA,6,0.7,0.8
2026-03-12T0300,1339A,113.0177,28.1322,长沙市,雨花区环保局,颗粒物(PM10),52,52,44,32,26,47,47,NA,NA,42,24,5,5,0.6,0.5
2026-03-12T0300,1340A,112.9795,28.2593,长沙市,伍家岭,细颗粒物(PM2.5),72,63,60,46,34,22,22,NA,NA,47,37,5,5,0.7,0.9
2026-03-12T0300,1342A,112.9846,28.1177,长沙市,天心区环保局,细颗粒物(PM2.5),54,51,49,37,32,17,17,NA,NA,78,27,6,8,0.6,0.6
2026-03-12T0300,1343A,112.8906,28.1307,长沙市,湖南中医药大学,NA,NA,56,50,42,26,48,48,NA,NA,22,31,NA,7,0.6,0.7
2026-03-12T0300,1727A,113.1146,36.1547,长治市,清华站,NA,NA,48,68,42,54,95,95,NA,NA,14,23,NA,9,0.8,0.9
2026-03-12T0300,3568A,113.0603,36.0464,长治市,向阳小学,颗粒物(PM10),85,98,114,45,70,82,82,NA,NA,20,27,13,14,2.0,1
2026-03-12T0300,3569A,112.8788,36.315,长治市,屯留一中,细颗粒物(PM2.5),98,74,66,59,54,34,34,NA,NA,64,30,8,10,0.9,0.9
2026-03-12T0300,4189A,113.113092,36.199482,长治市,英华南巷50号,细颗粒物(PM2.5),82,56,69,51,61,80,80,NA,NA,17,22,7,10,0.6,0.7
2026-03-12T0300,1854A,111.696,28.9725,常德市,市二中,细颗粒物(PM2.5),113,100,40,74,27,77,77,NA,NA,8,9,8,7,1.0,0.9
2026-03-12T0300,3138A,111.7152,29.0288,常德市,武陵区永安,细颗粒物(PM2.5),130,98,41,92,28,75,75,NA,NA,12,11,6,5,0.8,0.7
2026-03-12T0300,3139A,111.6891,28.9881,常德市,鼎城区玉霞,细颗粒物(PM2.5),114,90,37,75,26,79,79,NA,NA,14,12,8,7,0.8,0.6
2026-03-12T0300,3140A,111.6651,29.0526,常德市,武陵区长庚,细颗粒物(PM2.5),123,NA,38,85,29,72,72,NA,NA,11,10,8,7,0.9,0.8
2026-03-12T0300,1196A,119.9524,31.7586,常州市,市监测站,颗粒物(PM10),58,61,66,29,30,53,53,NA,NA,27,44,8,8,0.6,0.7
2026-03-12T0300,1200A,119.9351,31.703,常州市,武进监测站,细颗粒物(PM2.5),64,65,61,42,36,46,46,NA,NA,30,37,7,8,0.2,0.4
2026-03-12T0300,3002A,119.9701,31.813,常州市,行政中心,细颗粒物(PM2.5),70,68,76,45,41,29,29,NA,NA,43,54,6,9,0.5,0.7
2026-03-12T0300,3003A,120.0434,31.7726,常州市,经开区,颗粒物(PM10),72,80,82,39,39,25,25,NA,NA,60,52,12,14,0.9,0.8
2026-03-12T0300,3010A,119.8919,31.7892,常州市,钟楼,颗粒物(PM10),60,63,67,33,31,49,49,NA,NA,37,44,9,9,0.3,0.3
2026-03-12T0300,3429A,119.8595,31.706,常州市,武进经发区,NA,NA,65,65,40,41,32,32,NA,NA,48,47,NA,10,0.5,0.6
2026-03-12T0300,3430A,119.5812,31.7256,常州市,金坛城区,NA,NA,76,79,55,54,NA,NA,NA,NA,63,36,8,9,0.6,0.8
2026-03-12T0300,4089A,119.9551,31.863,常州市,崇义南街5-H号,细颗粒物(PM2.5),70,66,69,45,43,31,31,NA,NA,36,46,8,8,0.5,0.6
2026-03-12T0300,2220A,120.4318,41.588,朝阳市,西梁,颗粒物(PM10),80,91,85,41,50,5,5,NA,NA,58,35,11,12,1.4,0.8
2026-03-12T0300,2221A,120.452,41.565,朝阳市,河畔小区,颗粒物(PM10),53,54,56,34,39,2,2,NA,NA,56,33,7,10,1.0,0.8
2026-03-12T0300,2222A,120.4176,41.5648,朝阳市,八里堡,细颗粒物(PM2.5),72,58,75,46,50,2,2,NA,NA,57,37,9,12,0.7,0.8
2026-03-12T0300,3026A,116.6179,23.6608,潮州市,市政府,细颗粒物(PM2.5),70,65,48,45,33,49,49,NA,NA,21,14,12,11,0.5,0.4
2026-03-12T0300,4036A,116.646,23.676,潮州市,金山,,48,43,60,33,31,52,52,NA,NA,12,14,4,5,0.5,0.5
2026-03-12T0300,2473A,113.0116,25.8228,郴州市,市职中,NA,NA,26,27,19,16,3,3,NA,NA,26,17,NA,4,0.6,0.7
2026-03-12T0300,2475A,113.0381,25.8074,郴州市,市审计局,,33,33,28,22,16,0,0,NA,NA,26,18,4,4,/,/
2026-03-12T0300,2476A,113.0348,25.7757,郴州市,市环保局,NA,NA,47,37,22,16,4,4,NA,NA,34,21,6,5,NA,0.4
2026-03-12T0300,4252A,113.0138,25.8011,郴州市,好美居路49号,,39,39,28,14,16,0,0,NA,NA,32,21,5,5,/,/
2026-03-12T0300,1431A,103.9727,30.7242,成都市,金泉两河,NA,NA,65,47,46,35,2,2,NA,NA,61,30,NA,3,0.7,0.6
2026-03-12T0300,1432A,104.1423,30.6765,成都市,十里店,,39,39,52,27,36,50,50,NA,NA,22,25,4,6,0.5,0.5
2026-03-12T0300,1433A,104.0594,30.5765,成都市,三瓦窑,,42,42,46,27,34,40,40,NA,NA,39,22,2,3,0.6,0.6
2026-03-12T0300,1434A,104.1122,30.6306,成都市,沙河铺,,38,NA,52,26,36,53,53,NA,NA,24,30,5,6,0.4,0.5
2026-03-12T0300,2880A,104.0219,30.6561,成都市,大石西路,,43,43,49,29,38,32,32,NA,NA,37,27,5,6,0.7,0.6
2026-03-12T0300,3136A,104.2724,30.559,成都市,龙泉驿区区政府,,31,31,43,20,29,76,76,NA,NA,16,16,6,6,0.5,0.6
2026-03-12T0300,3357A,104.0028,30.6891,成都市,金博路,细颗粒物(PM2.5),52,41,42,36,36,0,0,NA,NA,72,36,6,7,1.1,0.8
2026-03-12T0300,3359A,104.056,30.5228,成都市,华阳,NA,NA,36,48,25,38,NA,NA,NA,NA,30,24,3,4,0.9,0.6
2026-03-12T0300,3488A,104.387954,30.746684,成都市,青石路225号,,36,35,47,25,35,73,73,NA,NA,21,20,7,8,0.6,0.7
2026-03-12T0300,3489A,104.0788,30.4054,成都市,科学城,,28,28,43,19,34,61,61,NA,NA,18,17,8,8,0.8,0.7
2026-03-12T0300,4011A,103.8505,30.6946,成都市,光华大道三段,NA,NA,42,50,30,31,NA,NA,NA,NA,20,33,5,4,0.5,0.7
2026-03-12T0300,4144A,104.3257,30.6406,成都市,八角井街185号,,33,33,57,22,36,85,85,NA,NA,14,19,4,5,0.5,0.6
2026-03-12T0300,4224A,104.2433276,30.53529463,成都市,鲸龙路1057号,,30,30,44,21,30,96,96,NA,NA,13,19,7,6,0.5,0.6
2026-03-12T0300,1062A,117.9531,40.908,承德市,铁路,,32,30,39,22,19,47,47,NA,NA,14,18,2,2,0.5,0.4
2026-03-12T0300,1063A,117.9397,40.9763,承德市,中国银行,颗粒物(PM10),55,56,38,25,16,39,39,NA,NA,15,15,3,2,0.5,0.4
2026-03-12T0300,4274A,117.7994,40.9605,承德市,滨河大街98号,,36,36,30,23,14,43,43,NA,NA,17,16,2,3,0.4,0.3
2026-03-12T0300,2314A,117.4698,30.6617,池州市,池州学院,细颗粒物(PM2.5),78,83,57,49,40,30,30,NA,NA,52,28,9,6,0.7,1
2026-03-12T0300,3237A,117.4918,30.6617,池州市,展览馆,NA,NA,70,60,50,39,NA,NA,NA,NA,46,26,3,4,0.7,0.9
2026-03-12T0300,3333A,117.5626,30.695,池州市,第八中学,细颗粒物(PM2.5),64,68,61,42,39,24,24,NA,NA,50,31,5,6,0.7,0.8
2026-03-12T0300,3334A,117.5037,30.6242,池州市,第十二中学,细颗粒物(PM2.5),62,50,60,41,37,54,54,NA,NA,30,29,4,6,0.9,1
2026-03-12T0300,1744A,118.9229,42.2816,赤峰市,松山一中,,42,35,24,29,19,14,14,NA,NA,39,28,6,7,0.7,0.5
2026-03-12T0300,1745A,118.9588,42.2733,赤峰市,哈达街,,39,39,28,18,17,36,36,NA,NA,19,23,16,17,0.8,0.7
2026-03-12T0300,1746A,118.8792,42.2551,赤峰市,天义路,,38,29,20,26,15,28,28,NA,NA,18,21,10,9,0.4,0.4
2026-03-12T0300,3058A,119.2656,42.0356,赤峰市,银河街,NA,NA,55,39,35,20,NA,NA,NA,NA,22,11,13,9,1.0,0.5
2026-03-12T0300,3286A,118.9359,42.3146,赤峰市,桥北物流园区,,36,36,23,20,16,23,23,NA,NA,40,28,3,4,0.8,0.6
2026-03-12T0300,2521A,107.3473,22.4137,崇左市,市环保局江州分局,细颗粒物(PM2.5),110,82,57,71,43,18,18,NA,NA,28,21,4,6,1.1,1
2026-03-12T0300,4256A,107.375,22.3736,崇左市,石景林东路7号,细颗粒物(PM2.5),92,64,49,56,38,23,23,NA,NA,30,23,3,4,1.2,1.1
2026-03-12T0300,3207A,118.31131,32.3033,滁州市,市政府原办公楼,NA,NA,62,73,59,71,NA,NA,NA,NA,34,49,8,7,0.7,1
2026-03-12T0300,3331A,118.3268,32.2633,滁州市,图书馆,细颗粒物(PM2.5),80,72,76,50,51,35,35,NA,NA,35,47,11,11,0.4,0.7
2026-03-12T0300,4102A,118.3426,32.2979,滁州市,黄山路555号,细颗粒物(PM2.5),86,72,89,53,60,26,26,NA,NA,52,58,8,9,0.5,0.8
2026-03-12T0300,2606A,101.5379,25.0492,楚雄彝族自治州,市经济开发区,细颗粒物(PM2.5),66,52,44,43,33,38,38,NA,NA,38,14,4,4,0.9,0.8
2026-03-12T0300,2549A,107.5087,31.2186,达州市,市环境监测站,,41,41,46,26,22,19,19,NA,NA,31,37,5,6,0.2,0.3
2026-03-12T0300,2550A,107.4988,31.2132,达州市,凤凰小区,,48,48,47,26,23,23,23,NA,NA,32,37,4,6,0.3,0.5
2026-03-12T0300,2551A,107.5081,31.1987,达州市,达县机关宾馆,,46,46,53,27,26,5,5,NA,NA,44,46,3,5,0.5,0.6
2026-03-12T0300,2552A,107.4644,31.2124,达州市,市政中心,,50,50,50,24,21,4,4,NA,NA,49,42,4,5,0.5,0.6
2026-03-12T0300,2614A,100.2168,25.5818,大理白族自治州,大理市环境监测站,细颗粒物(PM2.5),82,57,44,51,34,123,123,NA,NA,8,11,8,7,0.5,0.4
2026-03-12T0300,1109A,121.6119,38.974,大连市,甘井子,细颗粒物(PM2.5),130,120,66,92,45,73,73,NA,NA,29,21,9,7,0.6,0.6
2026-03-12T0300,1110A,121.565,38.9509,大连市,周水子,细颗粒物(PM2.5),128,101,55,90,47,76,76,NA,NA,23,23,9,7,0.9,0.6
2026-03-12T0300,1111A,121.5637,38.8849,大连市,星海三站,细颗粒物(PM2.5),170,NA,55,129,65,68,68,NA,NA,18,16,5,6,0.9,0.6
2026-03-12T0300,1112A,121.6301,38.9117,大连市,青泥洼桥,细颗粒物(PM2.5),133,128,66,96,45,75,75,NA,NA,25,19,7,4,0.9,0.6
2026-03-12T0300,1113A,121.6248,38.8643,大连市,傅家庄,细颗粒物(PM2.5),127,116,59,89,40,67,67,NA,NA,28,19,10,6,0.9,0.6
2026-03-12T0300,1114A,121.5117,38.8636,大连市,七贤岭,细颗粒物(PM2.5),126,99,57,88,47,NA,NA,NA,NA,22,21,8,7,0.7,0.6
2026-03-12T0300,1116A,121.7507,39.1339,大连市,金州,细颗粒物(PM2.5),140,119,62,103,46,62,62,NA,NA,31,18,6,6,0.9,0.7
2026-03-12T0300,1117A,121.7811,39.0495,大连市,开发区,细颗粒物(PM2.5),128,92,49,90,47,81,81,NA,NA,25,29,6,6,0.8,0.6
2026-03-12T0300,1118A,121.9762,39.0631,大连市,双D港,细颗粒物(PM2.5),120,117,52,81,35,94,94,NA,NA,19,15,9,5,0.8,0.4
2026-03-12T0300,4082A,121.2548,38.8188,大连市,旅顺,细颗粒物(PM2.5),119,99,63,80,50,71,71,NA,NA,17,36,6,7,0.6,0.3
2026-03-12T0300,1790A,125.1166,46.5255,大庆市,龙凤区,细颗粒物(PM2.5),58,45,32,39,18,53,53,NA,NA,27,20,6,4,0.4,0.2
2026-03-12T0300,1791A,124.8894,46.4007,大庆市,红岗区,NA,NA,41,30,24,18,NA,NA,NA,NA,30,16,12,12,0.6,0.5
2026-03-12T0300,1792A,125.1391,46.578,大庆市,萨尔图区,,33,33,28,14,13,74,74,NA,NA,14,13,5,5,0.5,0.5
2026-03-12T0300,1723A,113.2926,40.0759,大同市,云冈宾馆,颗粒物(PM10),76,86,47,46,24,11,11,NA,NA,52,31,6,10,1.1,1
2026-03-12T0300,1724A,113.3437,40.0921,大同市,大同大学,细颗粒物(PM2.5),80,83,43,50,22,35,35,NA,NA,42,26,7,8,1.4,0.8
2026-03-12T0300,3565A,113.1371,40.1122,大同市,云冈站,细颗粒物(PM2.5),111,141,61,72,28,5,5,NA,NA,55,33,NA,14,0.9,0.6
2026-03-12T0300,4199A,113.2798248,40.09972476,大同市,魏都大道141号,NA,NA,116,63,51,28,9,9,NA,NA,66,32,NA,15,1.7,1.2
2026-03-12T0300,2269A,124.1068,50.4091,大兴安岭地区,科技局,,38,33,23,26,13,38,38,NA,NA,44,11,8,8,0.5,0.4
2026-03-12T0300,3663A,124.117,50.4279,大兴安岭地区,红旗社区,,24,24,16,16,16,45,45,NA,NA,30,15,8,8,0.3,0.3
2026-03-12T0300,1600A,124.33,40.0625,丹东市,江湾东路,,43,43,63,24,45,87,87,NA,NA,12,24,11,13,0.5,0.9
2026-03-12T0300,1601A,124.4242,40.1513,丹东市,临江后街,细颗粒物(PM2.5),100,79,67,60,49,48,48,NA,NA,22,24,9,11,0.9,0.7
2026-03-12T0300,1602A,124.3935,40.1461,丹东市,元宝山,,40,40,53,28,40,76,76,NA,NA,17,21,7,8,0.6,0.7
2026-03-12T0300,1603A,124.3634,40.1093,丹东市,民主桥,,40,40,68,27,46,82,82,NA,NA,13,27,6,9,0.3,0.7
2026-03-12T0300,3541A,109.5726195,19.51688767,儋州市,第一中学子站,,42,42,30,28,18,74,74,NA,NA,6,6,6,6,0.6,0.6
2026-03-12T0300,3542A,109.5567,19.5187,儋州市,东坡学校子站,颗粒物(PM10),55,56,32,35,21,81,81,NA,NA,6,7,3,3,0.8,0.8
2026-03-12T0300,2616A,98.5611,24.4273,德宏傣族景颇族自治州,德宏州监测站,细颗粒物(PM2.5),109,70,74,69,61,49,49,NA,NA,25,28,8,6,0.9,0.8
2026-03-12T0300,3677A,98.5887,24.4366,德宏傣族景颇族自治州,芒市人民政府综合楼,细颗粒物(PM2.5),98,96,91,59,54,55,55,NA,NA,12,17,5,5,0.7,0.7
2026-03-12T0300,1901A,104.424,31.1209,德阳市,东山公园,,35,32,42,24,32,83,83,NA,NA,13,17,3,5,0.6,0.6
2026-03-12T0300,1902A,104.3827,31.1318,德阳市,西小区,细颗粒物(PM2.5),131,119,72,94,49,22,22,NA,NA,51,37,6,24,0.9,0.8
2026-03-12T0300,4145A,104.4144,31.1495,德阳市,市林业局,颗粒物(PM10),51,51,55,34,36,16,16,NA,NA,52,36,5,7,0.7,0.7
2026-03-12T0300,1622A,116.3034,37.4675,德州市,儿童乐园,细颗粒物(PM2.5),120,105,158,82,115,38,38,NA,NA,33,38,14,14,0.7,0.9
2026-03-12T0300,1624A,116.2992,37.4449,德州市,监理站,细颗粒物(PM2.5),118,107,160,79,114,49,49,NA,NA,29,38,6,10,0.6,0.9
2026-03-12T0300,3371A,116.3693,37.44,德州市,开发区人民医院,细颗粒物(PM2.5),121,102,160,83,118,36,36,NA,NA,37,40,NA,14,0.6,0.8
2026-03-12T0300,3511A,116.5687,37.3331,德州市,陵城艺术中心,细颗粒物(PM2.5),110,88,142,70,116,39,39,NA,NA,20,27,3,7,0.7,0.9
2026-03-12T0300,2621A,99.7054,27.8319,迪庆藏族自治州,迪庆州站,,41,41,32,24,21,72,72,NA,NA,10,9,6,6,0.6,0.6
2026-03-12T0300,3180A,99.7122,27.8129,迪庆藏族自治州,质量技术监督局,,36,NA,30,25,20,77,77,NA,NA,7,9,6,6,0.6,0.6
2026-03-12T0300,4257A,104.6092,35.5962,定西市,将台街,,36,36,43,17,22,86,86,NA,NA,6,14,9,10,0.3,0.5
2026-03-12T0300,4072A,115.0045,38.5136,定州市,第五中学,细颗粒物(PM2.5),126,131,121,88,73,54,54,NA,NA,28,37,7,9,0.6,0.7
2026-03-12T0300,1390A,113.7943,23.0132,东莞市,东城石井,细颗粒物(PM2.5),80,68,32,50,22,16,16,NA,NA,56,24,9,6,0.8,0.7
2026-03-12T0300,1391A,113.7384,22.9659,东莞市,南城西平,细颗粒物(PM2.5),88,80,36,54,25,1,1,NA,NA,93,38,10,8,1.1,0.7
2026-03-12T0300,3319A,113.7283,23.041,东莞市,万江金泰,细颗粒物(PM2.5),80,71,39,50,27,3,3,NA,NA,74,32,7,7,1.0,0.8
2026-03-12T0300,4129A,113.8666,23.1062,东莞市,裕兴路,细颗粒物(PM2.5),68,72,42,44,24,5,5,NA,NA,64,29,13,9,1.0,0.7
2026-03-12T0300,4130A,114.0076,22.9739,东莞市,教育路1号,细颗粒物(PM2.5),64,68,43,42,27,34,34,NA,NA,54,32,6,6,0.6,0.6
2026-03-12T0300,4131A,113.7981,22.8124,东莞市,长怡路1号,细颗粒物(PM2.5),94,97,55,57,33,1,1,NA,NA,80,41,5,5,0.9,0.8
2026-03-12T0300,3036A,118.6903,37.4337,东营市,开发区管委会,细颗粒物(PM2.5),76,58,96,48,83,109,109,NA,NA,13,30,5,13,0.3,0.6
2026-03-12T0300,3365A,118.5721,37.5654,东营市,垦利区民丰路,细颗粒物(PM2.5),76,48,88,48,83,104,104,NA,NA,10,26,9,11,0.7,0.9
2026-03-12T0300,3498A,118.5063,37.8606,东营市,河口城区,细颗粒物(PM2.5),78,73,100,49,76,71,71,NA,NA,18,25,4,6,0.5,0.6
2026-03-12T0300,3646A,118.4979,37.4623,东营市,胜利站,细颗粒物(PM2.5),72,68,116,46,83,95,95,NA,NA,9,29,7,8,0.6,1
2026-03-12T0300,1591A,110.0024,39.8127,鄂尔多斯市,综合楼,细颗粒物(PM2.5),98,95,39,59,14,54,54,NA,NA,38,28,21,9,0.5,0.4
2026-03-12T0300,1592A,109.9485,39.8259,鄂尔多斯市,巴音孟克林场办事处,颗粒物(PM10),84,97,40,20,12,61,61,NA,NA,30,22,22,7,0.6,0.4
2026-03-12T0300,1595A,109.9734,39.7884,鄂尔多斯市,奥林花园,颗粒物(PM10),80,92,44,32,13,50,50,NA,NA,42,31,24,6,0.6,0.4
2026-03-12T0300,2436A,114.894,30.3989,鄂州市,市政府,细颗粒物(PM2.5),62,62,58,41,43,38,38,NA,NA,37,30,9,15,0.5,0.6
2026-03-12T0300,2437A,114.8986,30.3714,鄂州市,赵家坝,颗粒物(PM10),51,51,57,34,39,53,53,NA,NA,25,19,38,15,0.6,0.7
2026-03-12T0300,3654A,114.8093,30.4091,鄂州市,精准医疗中心,细颗粒物(PM2.5),92,74,72,56,49,55,55,NA,NA,30,29,25,27,0.7,0.9
2026-03-12T0300,2454A,109.4978,30.2979,恩施土家族苗族自治州,湖北民院,,44,44,35,30,24,18,18,NA,NA,21,16,6,6,0.5,0.5
2026-03-12T0300,3549A,109.5061,30.3771,恩施土家族苗族自治州,龙凤新区,,39,39,34,25,20,2,2,NA,NA,20,11,7,7,0.4,0.4
2026-03-12T0300,2499A,108.3411,21.6159,防城港市,沙万,,46,41,44,32,25,67,67,NA,NA,16,20,9,8,0.9,0.8
2026-03-12T0300,2500A,108.3515,21.7733,防城港市,防城档案局,,43,43,41,29,27,24,24,NA,NA,17,14,6,7,0.8,0.7
2026-03-12T0300,2501A,108.3506,21.6414,防城港市,大海花园,细颗粒物(PM2.5),54,NA,34,37,27,81,81,NA,NA,18,19,10,9,0.8,0.6
2026-03-12T0300,1371A,113.1293,23.0065,佛山市,湾梁,细颗粒物(PM2.5),80,56,35,50,31,2,2,NA,NA,70,32,/,/,/,/
2026-03-12T0300,1372A,113.1082,23.0477,佛山市,华材职中,细颗粒物(PM2.5),70,73,51,45,33,3,3,NA,NA,76,51,8,6,0.9,0.6
2026-03-12T0300,1373A,113.1439,23.045,佛山市,南海气象局,细颗粒物(PM2.5),78,76,38,49,29,2,2,NA,NA,84,39,/,/,/,/
2026-03-12T0300,1374A,113.2879,22.8094,佛山市,顺德苏岗,细颗粒物(PM2.5),103,NA,37,63,30,16,16,NA,NA,51,43,/,/,0.9,0.8
2026-03-12T0300,1376A,112.8384,22.8678,佛山市,高明孔堂,,39,38,37,27,28,35,35,NA,NA,11,18,/,/,/,/
2026-03-12T0300,1377A,112.8835,23.1584,佛山市,三水监测站,,29,27,41,20,29,3,3,NA,NA,52,41,4,5,0.6,0.6
2026-03-12T0300,1378A,112.8668,23.185,佛山市,三水云东海,,49,49,44,22,29,1,1,NA,NA,60,40,/,/,/,/
2026-03-12T0300,3625A,113.2568,22.7629,佛山市,容桂街道办,细颗粒物(PM2.5),76,63,37,48,30,8,8,NA,NA,79,44,/,/,/,/
2026-03-12T0300,1282A,119.2681,26.0506,福州市,师大,NA,NA,30,41,18,22,NA,NA,NA,NA,18,18,3,4,0.2,0.3
2026-03-12T0300,1283A,119.2983,26.1028,福州市,五四北路,,32,30,37,22,22,63,63,NA,NA,22,19,4,5,0.4,0.4
2026-03-12T0300,1284A,119.2648,26.0769,福州市,杨桥西路,,38,38,39,20,21,52,52,NA,NA,27,18,4,4,/,/
2026-03-12T0300,3048A,119.5799,26.0937,福州市,九龙,,26,26,29,15,16,51,51,NA,NA,19,14,4,5,0.4,0.4
2026-03-12T0300,3526A,119.5188,25.9666,福州市,吴航,,30,30,31,21,18,68,68,NA,NA,22,19,6,6,0.5,0.5
2026-03-12T0300,4104A,119.3106,26.0648,福州市,路通桥巷6号,,43,34,44,30,27,62,62,NA,NA,18,16,/,/,/,/
2026-03-12T0300,1755A,123.7974,41.8494,抚顺市,望花区,,49,49,82,28,46,50,50,NA,NA,26,31,8,9,0.6,0.8
2026-03-12T0300,1756A,123.9161,41.8827,抚顺市,顺城区,,48,48,66,28,47,17,17,NA,NA,53,35,9,10,0.7,0.8
2026-03-12T0300,1757A,124.0437,41.8615,抚顺市,东洲区,细颗粒物(PM2.5),64,60,68,42,40,56,56,NA,NA,15,22,6,8,0.6,0.6
2026-03-12T0300,1758A,123.9246,41.8638,抚顺市,新抚区,NA,NA,68,82,32,44,NA,NA,NA,NA,28,31,8,9,0.6,0.7
2026-03-12T0300,1759A,124.0972,41.8961,抚顺市,大伙房水库,颗粒物(PM10),53,53,64,34,39,57,57,NA,NA,12,19,9,11,0.5,0.6
2026-03-12T0300,1760A,123.708,41.8386,抚顺市,沈抚新城,颗粒物(PM10),58,60,83,35,49,44,44,NA,NA,37,34,7,10,0.6,0.7
2026-03-12T0300,2379A,116.3561,28.0007,抚州市,采茶剧团,细颗粒物(PM2.5),60,58,47,40,29,77,77,NA,NA,21,13,7,10,1.1,1.1
2026-03-12T0300,2380A,116.3854,27.9648,抚州市,医学分院,NA,NA,65,53,46,27,NA,NA,NA,NA,21,15,10,9,1.0,1
2026-03-12T0300,2207A,121.6095,41.9978,阜新市,工业园区,颗粒物(PM10),88,102,70,43,35,19,19,NA,NA,33,28,34,12,0.7,0.6
2026-03-12T0300,2208A,121.6567,42.0188,阜新市,长青街,颗粒物(PM10),57,59,54,38,33,34,34,NA,NA,27,24,10,8,0.7,0.7
2026-03-12T0300,2209A,121.6672,42.07,阜新市,农业园区,,38,38,51,14,26,66,66,NA,NA,16,14,5,5,0.6,0.6
2026-03-12T0300,2211A,121.6343,42.0455,阜新市,玉龙新城,颗粒物(PM10),59,62,54,26,28,9,9,NA,NA,53,31,6,7,0.9,0.7
2026-03-12T0300,2301A,115.8276,32.8929,阜阳市,市监测站,细颗粒物(PM2.5),136,140,103,99,70,36,36,NA,NA,45,33,5,6,0.6,0.6
2026-03-12T0300,2303A,115.8551,32.8606,阜阳市,开发区,细颗粒物(PM2.5),137,146,113,100,69,43,43,NA,NA,25,26,NA,5,0.7,0.6
2026-03-12T0300,2875A,115.783962,32.889217,阜阳市,阜阳职业技术学院,细颗粒物(PM2.5),127,127,86,89,61,48,48,NA,NA,28,24,6,7,0.7,0.6
2026-03-12T0300,3468A,115.79,32.8614,阜阳市,市规划展馆,细颗粒物(PM2.5),135,135,99,98,67,59,59,NA,NA,22,19,9,8,0.8,0.7
2026-03-12T0300,3469A,115.835101,32.918568,阜阳市,枣园社区,细颗粒物(PM2.5),142,140,109,106,73,36,36,NA,NA,38,34,9,9,0.8,0.7
2026-03-12T0300,2669A,102.9097,34.9841,甘南藏族自治州,州政府,,37,37,41,22,31,10,10,NA,NA,32,24,5,4,0.6,0.5
2026-03-12T0300,2364A,114.946,25.8483,赣州市,气象台,NA,NA,51,49,21,29,NA,NA,NA,NA,48,35,6,6,0.3,0.4
2026-03-12T0300,2366A,114.8905,25.8472,赣州市,华坚鞋城,颗粒物(PM10),51,51,45,15,28,42,42,NA,NA,22,27,6,7,0.2,0.3
2026-03-12T0300,3109A,115.0094,25.8614,赣州市,赣县区卫计委,,29,24,42,20,25,7,7,NA,NA,31,30,3,4,0.7,0.8
2026-03-12T0300,2684A,106.2753,36.0057,固原市,监测站,细颗粒物(PM2.5),82,53,47,51,25,131,131,NA,NA,11,14,9,10,0.5,0.5
2026-03-12T0300,2685A,106.2384,36.0189,固原市,新区,细颗粒物(PM2.5),70,48,53,45,26,123,123,NA,NA,9,17,8,9,0.5,0.5
2026-03-12T0300,2544A,106.6307,30.4577,广安市,市委,细颗粒物(PM2.5),60,47,44,40,32,17,17,NA,NA,30,32,6,6,0.8,0.8
2026-03-12T0300,2545A,106.6266,30.4662,广安市,友谊中学,,40,37,37,28,22,39,39,NA,NA,13,23,6,7,0.6,0.7
2026-03-12T0300,2547A,106.6386,30.4551,广安市,广电花园,NA,NA,54,51,40,32,20,20,NA,NA,19,29,NA,8,0.7,0.8
2026-03-12T0300,2902A,106.6347,30.4868,广安市,北辰小学,细颗粒物(PM2.5),64,NA,34,42,28,37,37,NA,NA,12,17,4,4,0.7,0.7
2026-03-12T0300,2524A,105.8211,32.4444,广元市,老城,,40,40,36,14,21,4,4,NA,NA,58,34,4,7,0.4,1
2026-03-12T0300,2526A,105.8629,32.429,广元市,监测站,,37,37,38,18,19,44,44,NA,NA,22,18,13,12,0.6,0.6
2026-03-12T0300,3617A,105.8047,32.4167,广元市,经开区,,29,29,38,20,25,27,27,NA,NA,31,27,5,12,1.2,1
2026-03-12T0300,1345A,113.2346,23.1423,广州市,广雅中学,颗粒物(PM10),75,84,43,47,26,1,1,NA,NA,82,48,5,3,0.8,0.6
2026-03-12T0300,1346A,113.2611,23.105,广州市,市五中,细颗粒物(PM2.5),76,63,34,48,26,3,3,NA,NA,85,42,10,7,/,/
2026-03-12T0300,1348A,113.3477,23.0916,广州市,广东商学院,细颗粒物(PM2.5),80,66,36,50,27,2,2,NA,NA,80,43,6,5,1.1,0.8
2026-03-12T0300,1349A,113.4332,23.105,广州市,市八十六中,NA,NA,48,37,31,26,1,1,NA,NA,77,49,NA,5,/,/
2026-03-12T0300,1350A,113.3506,22.9488,广州市,番禺中学,细颗粒物(PM2.5),100,102,54,60,31,6,6,NA,NA,68,37,3,3,1.2,0.9
2026-03-12T0300,1351A,113.2147,23.3918,广州市,花都师范,颗粒物(PM10),57,59,40,36,26,19,19,NA,NA,48,31,6,7,0.9,0.8
2026-03-12T0300,1352A,113.2599,23.1329,广州市,市监测站,NA,NA,84,42,50,26,2,2,NA,NA,97,48,NA,2,/,/
2026-03-12T0300,1353A,113.5618,23.3119,广州市,九龙镇镇龙,,49,49,33,32,23,0,0,NA,NA,40,28,5,5,0.6,0.5
2026-03-12T0300,1354A,113.2764,23.1544,广州市,麓湖,细颗粒物(PM2.5),72,64,31,46,24,2,2,NA,NA,67,36,6,3,0.9,0.5
2026-03-12T0300,2846A,113.3209,23.1323,广州市,体育西,NA,NA,63,37,39,24,2,2,NA,NA,85,42,NA,5,1.2,0.9
2026-03-12T0300,3298A,113.5718,23.5493,广州市,从化街口,,32,29,34,22,26,20,20,NA,NA,29,23,8,9,0.7,0.7
2026-03-12T0300,3299A,113.3463,23.369,广州市,白云竹料,颗粒物(PM10),58,60,47,38,32,2,2,NA,NA,53,34,4,4,0.9,0.8
2026-03-12T0300,3300A,113.2981,23.2365,广州市,白云嘉禾,颗粒物(PM10),68,74,43,43,26,10,10,NA,NA,62,47,6,6,/,/
2026-03-12T0300,3301A,113.4256,23.1716,广州市,黄埔科学城,,46,43,29,32,23,7,7,NA,NA,44,23,8,7,0.7,0.7
2026-03-12T0300,3302A,113.3942,23.0485,广州市,番禺大学城,细颗粒物(PM2.5),72,78,38,46,23,0,0,NA,NA,74,36,6,5,0.9,0.6
2026-03-12T0300,3303A,113.4923,22.8169,广州市,南沙黄阁,细颗粒物(PM2.5),68,68,46,44,28,24,24,NA,NA,57,39,7,8,/,/
2026-03-12T0300,3304A,113.534,22.7893,广州市,南沙街,细颗粒物(PM2.5),70,57,39,45,28,36,36,NA,NA,33,26,8,8,0.7,0.7
2026-03-12T0300,3443A,113.2905,23.5541,广州市,花都梯面,,22,17,22,15,17,0,0,NA,NA,37,23,5,6,/,/
2026-03-12T0300,1413A,110.3303,20.0359,海口市,龙华路环保局宿舍,,42,42,37,21,27,113,113,NA,NA,14,13,/,/,0.4,0.5
2026-03-12T0300,3539A,110.5111,19.9737,海口市,桂林洋子站,,32,26,43,19,28,102,102,NA,NA,9,12,/,/,/,/
2026-03-12T0300,4134A,110.1952,20.0451,海口市,长滨二路9号,,38,23,29,19,27,121,121,NA,NA,9,9,/,/,/,/
2026-03-12T0300,2673A,100.6158,36.2985,海南藏族自治州,共和县恰卜恰镇,,38,38,39,17,17,63,63,NA,NA,3,13,12,12,0.3,0.3
2026-03-12T0300,2676A,97.373,37.376,海西蒙古族藏族自治州,德令哈市,,28,26,28,15,10,88,88,NA,NA,1,3,16,14,0.3,0.4
2026-03-12T0300,1049A,114.492,36.5712,邯郸市,矿院,细颗粒物(PM2.5),139,133,111,102,75,71,71,NA,NA,24,21,2,4,0.7,0.7
2026-03-12T0300,1050A,114.4839,36.6136,邯郸市,丛台公园,细颗粒物(PM2.5),183,163,127,138,105,58,58,NA,NA,33,20,2,4,0.8,0.7
2026-03-12T0300,3580A,114.1998,36.4439,邯郸市,峰峰矿区临水派出所,细颗粒物(PM2.5),116,113,87,77,57,101,101,NA,NA,17,8,6,6,0.8,0.8
2026-03-12T0300,4068A,114.5209,36.7697,邯郸市,建安街268号,细颗粒物(PM2.5),144,139,115,108,84,44,44,NA,NA,48,31,3,3,0.6,0.6
2026-03-12T0300,4069A,114.5488,36.6177,邯郸市,丛台东路558号,细颗粒物(PM2.5),186,142,116,140,104,31,31,NA,NA,50,26,1,3,0.7,0.7
2026-03-12T0300,2635A,107.0155,33.0707,汉中市,市监测站,细颗粒物(PM2.5),74,61,43,47,30,20,20,NA,NA,28,20,5,6,0.8,0.7
2026-03-12T0300,2636A,107.0083,33.114,汉中市,鑫源开发区,,44,44,40,30,25,23,23,NA,NA,37,26,9,6,1.0,0.9
2026-03-12T0300,2637A,107.0072,33.0323,汉中市,南郑大河坎水厂,颗粒物(PM10),51,51,44,32,27,31,31,NA,NA,14,21,2,4,0.7,0.7
2026-03-12T0300,1223A,120.2073,30.2111,杭州市,滨江,NA,NA,49,67,32,44,70,70,NA,NA,24,38,NA,8,0.6,0.7
2026-03-12T0300,1224A,120.0625,30.2737,杭州市,西溪,NA,NA,49,63,22,36,31,31,NA,NA,14,30,NA,9,0.4,0.4
2026-03-12T0300,1226A,120.3417,30.315,杭州市,下沙,,34,34,63,17,39,60,60,NA,NA,24,36,7,9,0.3,0.5
2026-03-12T0300,1227A,120.1252,30.2465,杭州市,卧龙桥,,43,43,53,26,36,29,29,NA,NA,18,26,6,8,0.3,0.4
2026-03-12T0300,1228A,120.1902,30.2691,杭州市,浙江农大,,50,50,56,24,36,42,42,NA,NA,23,34,7,7,0.4,0.5
2026-03-12T0300,1230A,120.1195,30.3121,杭州市,和睦小学,颗粒物(PM10),56,58,66,30,41,65,65,NA,NA,21,33,7,7,0.5,0.6
2026-03-12T0300,1231A,120.3076,30.4146,杭州市,临平镇,,36,36,59,19,35,41,41,NA,NA,44,35,6,8,0.4,0.5
2026-03-12T0300,1232A,120.2753,30.1839,杭州市,城厢镇,颗粒物(PM10),63,67,67,30,35,55,55,NA,NA,21,28,10,10,0.6,0.7
2026-03-12T0300,1233A,120.0883,30.1808,杭州市,云栖,,48,48,54,24,32,20,20,NA,NA,28,32,4,5,0.5,0.6
2026-03-12T0300,3557A,119.9463,30.0496,杭州市,镇二中,,43,42,43,30,33,48,48,NA,NA,25,29,5,6,0.5,0.6
2026-03-12T0300,3558A,119.7184,30.2367,杭州市,市府大楼,颗粒物(PM10),55,56,50,36,36,42,42,NA,NA,20,21,7,7,0.3,0.4
2026-03-12T0300,3656A,120.1554,30.2863,杭州市,消防大队,NA,NA,55,62,36,41,48,48,NA,NA,26,30,NA,8,0.5,0.6
2026-03-12T0300,1270A,117.1957,31.7845,合肥市,明珠广场,细颗粒物(PM2.5),131,107,72,94,54,5,5,NA,NA,54,43,6,7,1.0,0.9
2026-03-12T0300,1272A,117.2587,31.8703,合肥市,琥珀山庄,细颗粒物(PM2.5),130,110,70,93,52,15,15,NA,NA,56,43,7,7,0.8,0.7
2026-03-12T0300,1275A,117.2593,31.9376,合肥市,庐阳区,细颗粒物(PM2.5),128,122,80,90,50,17,17,NA,NA,52,41,5,5,1.1,0.9
2026-03-12T0300,1276A,117.345251,31.861615,合肥市,瑶海区,细颗粒物(PM2.5),119,112,73,80,44,14,14,NA,NA,51,42,5,6,0.9,0.8
2026-03-12T0300,1278A,117.278,31.7392,合肥市,滨湖新区,细颗粒物(PM2.5),110,110,69,70,45,0,0,NA,NA,65,34,4,4,0.8,0.8
2026-03-12T0300,1279A,117.1324,31.8395,合肥市,高新区,细颗粒物(PM2.5),123,107,70,85,49,4,4,NA,NA,39,31,5,4,1.0,0.8
2026-03-12T0300,4098A,117.2518,31.8404,合肥市,中国科学技术大学,细颗粒物(PM2.5),124,122,70,86,46,13,13,NA,NA,51,32,9,9,1.0,0.8
2026-03-12T0300,3614A,79.9241,37.0878,和田地区,地区环保局,颗粒物(PM10),500,769,701,158,121,74,74,NA,NA,2,10,2,2,0.7,0.8
2026-03-12T0300,3615A,79.9132,37.1137,和田地区,市环保局,颗粒物(PM10),500,832,603,162,125,76,76,NA,NA,6,17,1,2,0.6,0.7
2026-03-12T0300,2517A,108.0496,24.6957,河池市,市环保站,,33,33,25,23,12,5,5,NA,NA,20,13,4,4,0.6,0.6
2026-03-12T0300,4302A,108.0901,24.6945,河池市,上任中路54号,,40,40,34,26,15,0,0,NA,NA,27,20,5,6,0.6,0.6
2026-03-12T0300,1697A,114.6962,23.7538,河源市,东埔,NA,NA,24,22,17,20,6,6,NA,NA,44,23,NA,6,0.7,0.8
2026-03-12T0300,1698A,114.6895,23.7232,河源市,老城,,29,22,22,20,17,10,10,NA,NA,38,18,6,6,0.7,0.7
2026-03-12T0300,3374A,115.5562,35.089,菏泽市,定陶老年大学,细颗粒物(PM2.5),182,175,169,137,130,NA,NA,NA,NA,19,21,8,7,0.8,0.8
2026-03-12T0300,4114A,115.4239,35.2593,菏泽市,黄河路600号,细颗粒物(PM2.5),186,170,192,140,145,56,56,NA,NA,21,25,3,5,0.7,0.8
2026-03-12T0300,4115A,115.5025,35.2727,菏泽市,菏泽市人社局,细颗粒物(PM2.5),176,161,177,133,141,53,53,NA,NA,25,29,5,7,0.8,0.8
2026-03-12T0300,4184A,115.479691,35.244011,菏泽市,永昌路1号,细颗粒物(PM2.5),183,172,184,138,143,66,66,NA,NA,24,27,3,6,0.8,0.9
2026-03-12T0300,4193A,115.471542,35.280012,菏泽市,长城路999号,细颗粒物(PM2.5),173,161,181,131,140,60,60,NA,NA,24,28,3,10,0.7,0.7
2026-03-12T0300,2514A,111.5264,24.4178,贺州市,环保小区,,35,31,37,24,26,15,15,NA,NA,20,15,3,4,0.7,0.6
2026-03-12T0300,2515A,111.561,24.4074,贺州市,政协大楼,,29,28,35,20,23,28,28,NA,NA,51,27,5,5,0.5,0.5
2026-03-12T0300,3534A,111.4744,24.455,贺州市,西湾,,50,50,44,22,24,9,9,NA,NA,30,18,6,6,0.9,0.8
2026-03-12T0300,2385A,114.17,35.9019,鹤壁市,市监测站,细颗粒物(PM2.5),152,148,115,116,90,88,88,NA,NA,17,14,10,9,1.3,0.8
2026-03-12T0300,2386A,114.2953,35.7512,鹤壁市,市交警支队,细颗粒物(PM2.5),176,156,128,133,101,77,77,NA,NA,28,23,12,9,0.9,0.8
2026-03-12T0300,2387A,114.2877,35.7302,鹤壁市,迎宾馆,细颗粒物(PM2.5),150,160,133,115,96,83,83,NA,NA,28,24,12,10,1.0,0.9
2026-03-12T0300,3474A,114.2616,35.6824,鹤壁市,大新区,细颗粒物(PM2.5),170,129,113,129,104,88,88,NA,NA,29,24,6,6,1.0,0.9
2026-03-12T0300,2245A,130.2683,47.3087,鹤岗市,斯达机电,,28,22,27,11,12,87,87,NA,NA,5,7,6,8,0.4,0.4
2026-03-12T0300,2263A,127.4832,50.2524,黑河市,交通局,颗粒物(PM10),58,61,37,38,23,36,36,NA,NA,45,27,8,8,0.9,0.6
2026-03-12T0300,2264A,127.5146,50.2339,黑河市,环保局,细颗粒物(PM2.5),84,NA,27,52,26,36,36,NA,NA,38,28,14,13,0.8,0.6
2026-03-12T0300,1074A,115.6839,37.754,衡水市,电机北厂,细颗粒物(PM2.5),128,97,144,90,115,55,55,NA,NA,29,33,4,7,0.7,0.8
2026-03-12T0300,1075A,115.6303,37.7318,衡水市,市监测站,细颗粒物(PM2.5),105,79,130,65,102,66,66,NA,NA,24,30,4,8,0.5,0.7
2026-03-12T0300,3188A,115.6684,37.7216,衡水市,市城管局,细颗粒物(PM2.5),104,84,141,64,103,65,65,NA,NA,27,33,6,11,0.6,0.7
2026-03-12T0300,3459A,115.599,37.5491,衡水市,地表水厂,细颗粒物(PM2.5),106,74,133,66,121,53,53,NA,NA,25,31,4,8,0.5,0.8
2026-03-12T0300,2457A,112.6209,26.9268,衡阳市,衡阳化工总厂,,41,41,47,26,31,10,10,NA,NA,35,23,5,7,0.9,1.1
2026-03-12T0300,2458A,112.621,26.8957,衡阳市,珠晖区环保局,NA,NA,64,51,38,32,2,2,NA,NA,50,33,NA,6,1.2,0.9
2026-03-12T0300,2459A,112.628,26.8654,衡阳市,市委党校,"颗粒物(PM10),细颗粒物(PM2.5)",62,66,59,41,38,2,2,NA,NA,41,22,7,10,1.8,1.1
2026-03-12T0300,2460A,112.6007,26.8977,衡阳市,市监测站,颗粒物(PM10),76,86,68,47,39,0,0,NA,NA,47,34,8,9,1.3,1
2026-03-12T0300,2461A,112.5658,26.9013,衡阳市,真空机电公司,细颗粒物(PM2.5),56,53,51,38,32,2,2,NA,NA,47,33,7,9,1.0,1.5
2026-03-12T0300,3399A,112.6703,26.8817,衡阳市,师范学院,细颗粒物(PM2.5),58,57,49,39,33,7,7,NA,NA,30,15,4,6,1.0,1
2026-03-12T0300,3038A,103.3757,23.3679,红河哈尼族彝族自治州,州图书馆,,28,23,31,19,25,63,63,NA,NA,5,6,4,4,0.6,0.6
2026-03-12T0300,4154A,103.401,23.3561,红河哈尼族彝族自治州,蒙自市朝阳路,,32,NA,24,22,23,65,65,NA,NA,5,6,7,7,0.5,0.4
2026-03-12T0300,1090A,111.6506,40.7517,呼和浩特市,呼市一监,,24,24,28,14,16,44,44,NA,NA,31,22,8,7,0.7,0.5
2026-03-12T0300,1094A,111.7516,40.8369,呼和浩特市,如意水处理厂,,39,39,24,11,12,1,1,NA,NA,75,34,10,10,0.6,0.5
2026-03-12T0300,1095A,111.727798,40.806187,呼和浩特市,二十九中,,29,29,26,7,12,36,36,NA,NA,37,24,12,11,0.5,0.5
2026-03-12T0300,1097A,111.717,40.7617,呼和浩特市,化肥厂生活区,NA,NA,24,31,21,21,NA,NA,NA,NA,26,24,7,6,0.6,0.5
2026-03-12T0300,3699A,111.6519,40.8389,呼和浩特市,海东办,,34,24,26,13,12,9,9,NA,NA,68,38,4,4,0.5,0.5
2026-03-12T0300,4275A,111.591512,40.827312,呼和浩特市,成吉思汗西街8号,,29,29,26,13,12,50,50,NA,NA,29,32,7,7,0.4,0.4
2026-03-12T0300,4276A,111.6597,40.8077,呼和浩特市,公园东路75号,NA,NA,29,26,18,12,NA,NA,NA,NA,54,27,8,8,0.7,0.6
2026-03-12T0300,4277A,111.5427,40.7846,呼和浩特市,金海路35号,,30,30,26,15,14,68,68,NA,NA,16,25,9,9,0.4,0.4
2026-03-12T0300,4279A,119.7569,49.2222,呼伦贝尔市,伊敏大街东7号,,31,31,33,16,23,78,78,NA,NA,10,24,6,8,0.3,0.4
2026-03-12T0300,1250A,120.075,30.867,湖州市,城西水厂,NA,NA,37,59,25,41,62,62,NA,NA,26,33,NA,7,0.3,0.4
2026-03-12T0300,2873A,120.083,30.8929,湖州市,仁皇山新区,NA,NA,41,62,28,44,38,38,NA,NA,30,37,NA,7,0.5,0.5
2026-03-12T0300,2907A,120.1846,30.8592,湖州市,吴兴区站,,47,47,65,24,42,57,57,NA,NA,18,30,7,6,0.2,0.3
2026-03-12T0300,3562A,120.4146,30.8538,湖州市,南浔区站,,38,38,49,24,34,64,64,NA,NA,19,26,8,9,0.5,0.5
2026-03-12T0300,1607A,120.904878,40.721091,葫芦岛市,龙港区,颗粒物(PM10),69,76,106,39,68,16,16,NA,NA,58,56,14,45,1.1,0.9
2026-03-12T0300,1608A,120.8382,40.7521,葫芦岛市,化工街,细颗粒物(PM2.5),96,78,109,58,64,13,13,NA,NA,69,50,70,33,0.8,0.8
2026-03-12T0300,1609A,120.8339,40.7078,葫芦岛市,新区,颗粒物(PM10),60,64,88,38,64,31,31,NA,NA,47,47,19,26,0.7,0.9
2026-03-12T0300,1610A,120.8697,40.7679,葫芦岛市,东城区,细颗粒物(PM2.5),104,82,85,64,64,17,17,NA,NA,55,48,58,19,0.9,0.8
2026-03-12T0300,2483A,109.9297,27.5383,怀化市,河西地税局,,35,27,26,24,19,31,31,NA,NA,13,15,3,3,/,/
2026-03-12T0300,2484A,109.9783,27.5342,怀化市,市四医院,,47,47,31,14,11,25,25,NA,NA,25,17,10,7,0.5,0.5
2026-03-12T0300,2485A,109.9971,27.5579,怀化市,监测楼,,48,48,34,19,22,4,4,NA,NA,22,15,3,3,0.3,0.3
2026-03-12T0300,1210A,119.0566,33.5991,淮安市,钵池山,细颗粒物(PM2.5),60,44,58,40,54,30,30,NA,NA,38,34,8,10,0.2,0.4
2026-03-12T0300,3426A,118.8757,33.2897,淮安市,新华书店,细颗粒物(PM2.5),54,42,68,37,53,36,36,NA,NA,34,40,6,9,0.3,0.6
2026-03-12T0300,4092A,119.119691,33.550006,淮安市,枚皋中路89号,细颗粒物(PM2.5),52,42,64,36,46,16,16,NA,NA,39,35,8,10,0.3,0.5
2026-03-12T0300,4206A,119.028838,33.631911,淮安市,承德北路606号,颗粒物(PM10),56,58,70,36,46,21,21,NA,NA,42,36,7,8,0.4,0.5
2026-03-12T0300,2282A,116.8005,33.9749,淮北市,监测站,细颗粒物(PM2.5),121,115,112,83,77,60,60,NA,NA,24,31,6,8,1.2,0.8
2026-03-12T0300,2283A,116.8094,33.9008,淮北市,烈山区政府,细颗粒物(PM2.5),134,111,100,97,72,53,53,NA,NA,27,24,5,7,0.5,0.6
2026-03-12T0300,4017A,116.7926,33.9534,淮北市,市博物馆,细颗粒物(PM2.5),133,120,107,96,78,58,58,NA,NA,28,28,NA,6,0.7,0.7
2026-03-12T0300,4100A,116.8322,33.9884,淮北市,杜集区第一实验学校,细颗粒物(PM2.5),130,113,109,92,76,47,47,NA,NA,24,27,5,9,0.6,0.7
2026-03-12T0300,2277A,116.8304,32.7726,淮南市,潘集区政府,细颗粒物(PM2.5),128,121,107,90,69,15,15,NA,NA,48,41,6,8,0.7,0.6
2026-03-12T0300,2279A,116.8569,32.5949,淮南市,谢家集区政府,细颗粒物(PM2.5),133,110,86,96,62,37,37,NA,NA,37,38,11,9,0.8,0.7
2026-03-12T0300,2280A,116.8279,32.6333,淮南市,八公山区政府,细颗粒物(PM2.5),140,127,93,104,69,15,15,NA,NA,43,32,NA,8,0.8,0.7
2026-03-12T0300,2894A,117.0561,32.6536,淮南市,经济技术开发区消防队,细颗粒物(PM2.5),133,126,101,96,62,10,10,NA,NA,54,45,7,8,0.8,0.6
2026-03-12T0300,3329A,117.011,32.5891,淮南市,山南新区,细颗粒物(PM2.5),140,129,92,104,62,43,43,NA,NA,34,35,8,8,0.7,0.6
2026-03-12T0300,4209A,117.003137,32.644456,淮南市,国庆中路369号,细颗粒物(PM2.5),140,121,96,103,67,4,4,NA,NA,45,36,7,8,0.9,0.7
2026-03-12T0300,2446A,114.9021,30.474,黄冈市,职工中心,细颗粒物(PM2.5),90,70,59,55,49,62,62,NA,NA,12,17,6,8,0.9,1
2026-03-12T0300,2929A,114.8858,30.4519,黄冈市,红卫路,细颗粒物(PM2.5),94,73,58,57,50,65,65,NA,NA,11,16,4,6,0.6,0.5
2026-03-12T0300,3398A,114.9134,30.4446,黄冈市,市林业局,细颗粒物(PM2.5),96,77,68,58,51,69,69,NA,NA,11,15,4,4,0.5,0.5
2026-03-12T0300,2672A,102.02,35.5101,黄南藏族自治州,同仁县隆务镇,,21,21,33,12,18,59,59,NA,NA,1,5,8,10,0.3,0.4
2026-03-12T0300,2295A,118.2905,29.6965,黄山市,延安路89号,,50,49,38,35,27,109,109,NA,NA,12,14,5,5,0.6,0.5
2026-03-12T0300,2297A,118.1369,30.2755,黄山市,黄山区政府5号楼,,36,36,46,23,28,42,42,NA,NA,11,10,3,3,0.5,0.4
2026-03-12T0300,4210A,118.335445,29.720283,黄山市,滨江东路7-2号,细颗粒物(PM2.5),64,52,57,42,30,103,103,NA,NA,12,13,/,/,/,/
2026-03-12T0300,2423A,115.0547,30.2332,黄石市,沈家营,细颗粒物(PM2.5),60,59,60,40,43,88,88,NA,NA,4,26,14,9,0.6,0.9
2026-03-12T0300,2426A,114.899,30.211,黄石市,铁山,细颗粒物(PM2.5),56,47,50,38,39,63,63,NA,NA,16,13,7,9,0.6,1
2026-03-12T0300,2427A,115.0259,30.2108,黄石市,团城山,NA,NA,42,62,28,44,NA,NA,NA,NA,14,29,7,8,0.6,0.9
2026-03-12T0300,3149A,115.0174,30.1591,黄石市,笔架山北路,颗粒物(PM10),55,56,83,25,44,96,96,NA,NA,7,19,6,11,0.7,1
2026-03-12T0300,1392A,114.4181,23.0528,惠州市,河南岸金山湖子站,NA,NA,52,32,28,21,50,50,NA,NA,18,15,NA,7,0.7,0.7
2026-03-12T0300,1393A,114.4055,23.0824,惠州市,下埔横江三路子站,,50,50,35,27,21,85,85,NA,NA,13,14,12,9,0.7,0.7
2026-03-12T0300,1395A,114.4645,22.7832,惠州市,惠阳区承修路船湖子站,颗粒物(PM10),58,61,34,36,20,15,15,NA,NA,49,18,9,7,0.6,0.8
2026-03-12T0300,1396A,114.5316,22.7423,惠州市,大亚湾管委会子站,NA,NA,31,31,20,19,25,25,NA,NA,35,19,NA,3,0.6,0.6
2026-03-12T0300,3314A,114.4334,22.8134,惠州市,惠阳秋长,,44,44,32,30,20,27,27,NA,NA,39,21,/,/,/,/
2026-03-12T0300,3452A,114.6521,22.7755,惠州市,大亚湾霞涌,,29,29,24,20,19,58,58,NA,NA,14,13,/,/,/,/
2026-03-12T0300,4300A,114.4089,23.1147,惠州市,文华一路1号,,38,38,29,25,20,71,71,NA,NA,22,15,/,/,/,/
2026-03-12T0300,2240A,130.9618,45.2926,鸡西市,环保局,细颗粒物(PM2.5),70,47,65,45,37,40,40,NA,NA,25,21,8,9,0.6,0.4
2026-03-12T0300,2243A,130.9294,45.2959,鸡西市,第一中学,,46,46,53,32,34,68,68,NA,NA,12,18,4,7,0.4,0.4
2026-03-12T0300,3707A,131.0069,45.2988,鸡西市,欧美日汽修厂,NA,NA,76,77,51,40,NA,NA,NA,NA,25,23,9,12,0.6,0.5
2026-03-12T0300,2367A,114.9753,27.0803,吉安市,红声器材厂,颗粒物(PM10),58,61,52,29,31,3,3,NA,NA,42,27,3,4,0.7,0.7
2026-03-12T0300,2369A,114.9903,27.1313,吉安市,市环境监测站,,49,46,49,34,32,25,25,NA,NA,31,27,6,7,/,/
2026-03-12T0300,2370A,115.009527,27.096792,吉安市,青原区法院,颗粒物(PM10),54,55,52,20,29,2,2,NA,NA,58,35,3,4,0.6,0.3
2026-03-12T0300,1772A,126.54,43.8622,吉林市,哈达湾,细颗粒物(PM2.5),127,105,73,89,58,40,40,NA,NA,44,29,19,15,1.3,1.1
2026-03-12T0300,1773A,126.5843,43.8358,吉林市,东局子,细颗粒物(PM2.5),126,91,78,88,65,32,32,NA,NA,30,20,4,7,0.9,0.9
2026-03-12T0300,1774A,126.5051,43.8243,吉林市,电力学院,细颗粒物(PM2.5),115,104,80,76,59,30,30,NA,NA,35,27,16,21,1.2,1.1
2026-03-12T0300,1775A,126.6133,43.8971,吉林市,江北,细颗粒物(PM2.5),119,92,73,80,54,34,34,NA,NA,22,16,6,8,0.9,0.9
2026-03-12T0300,1776A,126.5549,43.8304,吉林市,江南公园,细颗粒物(PM2.5),108,87,71,68,56,16,16,NA,NA,41,25,9,13,0.9,0.8
2026-03-12T0300,2868A,126.4737,43.953,吉林市,九站,细颗粒物(PM2.5),110,87,83,71,62,21,21,NA,NA,51,26,96,26,0.7,0.6
2026-03-12T0300,1299A,116.9866,36.6118,济南市,科干所,细颗粒物(PM2.5),145,129,142,109,109,29,29,NA,NA,44,36,6,8,0.8,0.8
2026-03-12T0300,1300A,116.9379,36.6652,济南市,农科所,细颗粒物(PM2.5),152,129,153,116,117,29,29,NA,NA,42,46,4,7,0.7,0.7
2026-03-12T0300,1303A,117.0616,36.6865,济南市,省种子仓库,细颗粒物(PM2.5),148,139,162,112,113,30,30,NA,NA,40,50,6,8,0.7,0.9
2026-03-12T0300,1305A,117.0496,36.6629,济南市,市监测站,细颗粒物(PM2.5),148,139,154,112,107,27,27,NA,NA,41,44,5,6,0.8,0.8
2026-03-12T0300,1961A,117.5323,36.6865,济南市,东山小学,细颗粒物(PM2.5),168,166,153,127,107,54,54,NA,NA,32,33,2,6,0.7,0.8
2026-03-12T0300,3064A,117.6861,36.2172,济南市,莱芜战役纪念馆,细颗粒物(PM2.5),188,171,163,141,111,62,62,NA,NA,32,35,5,9,0.6,0.7
2026-03-12T0300,3494A,117.1673,36.9782,济南市,济阳区政府,细颗粒物(PM2.5),132,117,142,95,113,66,66,NA,NA,14,31,4,7,0.5,0.7
2026-03-12T0300,3495A,117.1168,36.6299,济南市,锦屏中学,细颗粒物(PM2.5),166,151,127,126,109,23,23,NA,NA,33,25,7,9,0.5,0.5
2026-03-12T0300,4108A,117.7107,36.2385,济南市,山财大街5号,细颗粒物(PM2.5),198,168,151,148,115,56,56,NA,NA,50,45,9,12,0.8,0.9
2026-03-12T0300,1653A,116.6229,35.4288,济宁市,火炬城,细颗粒物(PM2.5),199,179,123,149,103,40,40,NA,NA,30,26,4,5,0.9,0.8
2026-03-12T0300,3500A,116.5808,35.3703,济宁市,北湖一中,细颗粒物(PM2.5),202,172,114,152,97,45,45,NA,NA,30,24,5,7,0.8,0.7
2026-03-12T0300,3501A,116.8251,35.5592,济宁市,服务中心,细颗粒物(PM2.5),214,214,150,164,112,46,46,NA,NA,40,29,4,3,0.8,0.6
2026-03-12T0300,3678A,116.5907,35.4054,济宁市,市第七中学,细颗粒物(PM2.5),207,161,110,157,101,46,46,NA,NA,32,26,4,6,0.9,0.9
2026-03-12T0300,4111A,116.6075,35.4566,济宁市,任和路,细颗粒物(PM2.5),192,203,147,144,100,33,33,NA,NA,36,27,5,6,0.9,0.8
2026-03-12T0300,4112A,116.5648,35.3921,济宁市,文体南路1号,细颗粒物(PM2.5),201,196,142,151,102,41,41,NA,NA,30,27,3,4,0.8,0.7
2026-03-12T0300,4122A,112.6071,35.1015,济源市,市委党校,细颗粒物(PM2.5),107,120,190,67,116,39,39,NA,NA,32,35,9,8,0.7,0.9
2026-03-12T0300,4123A,112.596,35.0702,济源市,沁园中路1号,细颗粒物(PM2.5),111,113,166,72,117,27,27,NA,NA,39,32,4,6,0.8,1
2026-03-12T0300,2255A,130.2749,46.8028,佳木斯市,佳纺,颗粒物(PM10),92,108,78,36,37,5,5,NA,NA,45,37,5,7,0.7,0.6
2026-03-12T0300,2257A,130.3258,46.7975,佳木斯市,环保局,颗粒物(PM10),58,60,37,29,23,21,21,NA,NA,27,21,2,3,0.4,0.3
2026-03-12T0300,4286A,130.3952,46.8268,佳木斯市,长安路196号,,45,NA,29,31,16,2,2,NA,NA,55,13,5,5,0.8,0.4
2026-03-12T0300,1252A,120.7439,30.778,嘉兴市,清河小学,,44,44,46,17,23,64,64,NA,NA,20,26,6,7,0.3,0.3
2026-03-12T0300,1253A,120.7261,30.7477,嘉兴市,嘉兴学院,,39,39,42,26,24,62,62,NA,NA,22,25,6,7,0.3,0.4
2026-03-12T0300,2872A,120.7845,30.7524,嘉兴市,南湖区残联,,40,40,45,25,26,63,63,NA,NA,19,23,5,6,0.4,0.5
2026-03-12T0300,3407A,120.6915,30.7741,嘉兴市,秀洲住建,,42,42,34,18,22,59,59,NA,NA,30,26,8,9,0.4,0.3
2026-03-12T0300,1945A,98.291,39.7705,嘉峪关市,气象局,颗粒物(PM10),303,422,196,88,42,72,72,NA,NA,15,30,46,39,0.5,1.4
2026-03-12T0300,2884A,98.2672,39.7978,嘉峪关市,酒钢宾馆,颗粒物(PM10),352,461,217,96,50,72,72,NA,NA,20,23,38,69,0.5,1.2
2026-03-12T0300,3248A,98.2644,39.7723,嘉峪关市,雄关区,颗粒物(PM10),197,344,154,91,44,71,71,NA,NA,19,29,35,40,0.5,1.1
2026-03-12T0300,1383A,113.1063,22.6058,江门市,北街,细颗粒物(PM2.5),76,56,43,48,32,25,25,NA,NA,47,36,/,/,/,/
2026-03-12T0300,1384A,113.073,22.5835,江门市,西区,细颗粒物(PM2.5),72,70,48,46,35,18,18,NA,NA,59,37,/,/,/,/
2026-03-12T0300,1385A,113.0218,22.531,江门市,圭峰西,细颗粒物(PM2.5),56,48,42,38,32,55,55,NA,NA,18,29,/,/,/,/
2026-03-12T0300,1386A,113.0826,22.5947,江门市,东湖,细颗粒物(PM2.5),82,62,47,51,34,11,11,NA,NA,49,32,7,7,0.7,0.6
2026-03-12T0300,3449A,113.0496,22.4669,江门市,新会银湖,NA,NA,46,41,43,34,3,3,NA,NA,59,36,NA,8,0.5,0.6
2026-03-12T0300,3336A,113.2464,35.2374,焦作市,焦作技师学院,细颗粒物(PM2.5),80,83,119,50,89,63,63,NA,NA,23,22,7,9,0.7,0.8
2026-03-12T0300,3477A,113.1656,35.2536,焦作市,中站许衡医院,细颗粒物(PM2.5),108,80,118,68,85,101,101,NA,NA,18,22,9,10,0.7,0.9
2026-03-12T0300,3981A,113.2456,35.18,焦作市,原李万街道办,细颗粒物(PM2.5),110,87,120,71,92,58,58,NA,NA,21,19,11,12,0.5,0.7
2026-03-12T0300,4264A,113.234,35.219,焦作市,新安路1731号,NA,NA,72,117,56,91,NA,NA,NA,NA,26,25,9,11,0.6,0.8
2026-03-12T0300,4295A,113.2722,35.2121,焦作市,人民路3066号,NA,NA,70,120,58,81,74,74,NA,NA,26,27,NA,9,0.6,0.7
2026-03-12T0300,1708A,116.3701,23.5345,揭阳市,新兴,颗粒物(PM10),51,51,46,31,29,61,61,NA,NA,34,21,9,10,0.6,0.6
2026-03-12T0300,1709A,116.3261,23.5442,揭阳市,西马,,50,50,49,31,29,58,58,NA,NA,28,17,7,8,0.5,0.5
2026-03-12T0300,1710A,116.361,23.5627,揭阳市,东兴,细颗粒物(PM2.5),62,52,53,41,40,73,73,NA,NA,27,20,10,9,/,/
2026-03-12T0300,1711A,116.4151,23.5295,揭阳市,渔湖,细颗粒物(PM2.5),86,63,48,53,31,56,56,NA,NA,48,23,10,8,/,/
2026-03-12T0300,3320A,116.4028,23.5699,揭阳市,曲溪,颗粒物(PM10),58,60,53,36,31,66,66,NA,NA,24,20,7,11,0.6,0.7
2026-03-12T0300,1944A,102.1691,38.5166,金昌市,天庆家园,颗粒物(PM10),500,666,456,195,126,80,80,NA,NA,9,13,5,22,0.7,0.7
2026-03-12T0300,4022A,102.1648,38.5369,金昌市,金川区人防中心,颗粒物(PM10),500,673,383,199,124,76,76,NA,NA,4,12,7,19,0.5,0.5
2026-03-12T0300,4239A,102.193042,38.531887,金昌市,长春路96号,颗粒物(PM10),500,628,347,162,120,84,84,NA,NA,16,20,7,32,0.5,0.5
2026-03-12T0300,1262A,119.6478,29.0773,金华市,十五中,颗粒物(PM10),56,58,60,29,39,114,114,NA,NA,16,25,5,4,0.2,0.2
2026-03-12T0300,1263A,119.6859,29.1032,金华市,监测站,颗粒物(PM10),57,59,57,33,37,86,86,NA,NA,22,28,5,4,0.3,0.4
2026-03-12T0300,3659A,119.656,29.1132,金华市,气象局,颗粒物(PM10),58,60,63,34,39,95,95,NA,NA,25,35,5,3,0.5,0.5
2026-03-12T0300,1767A,121.1114,41.0879,锦州市,南山,细颗粒物(PM2.5),82,73,73,51,54,31,31,NA,NA,36,32,8,9,0.9,0.8
2026-03-12T0300,1768A,121.060361,40.842794,锦州市,开发区,颗粒物(PM10),71,79,85,44,62,42,42,NA,NA,39,36,13,12,0.8,0.8
2026-03-12T0300,1769A,121.1836,41.1118,锦州市,百股街道,细颗粒物(PM2.5),80,65,79,50,62,28,28,NA,NA,47,29,17,13,1.8,1
2026-03-12T0300,1770A,121.1176,41.1224,锦州市,天安街道,细颗粒物(PM2.5),74,68,69,47,49,9,9,NA,NA,63,32,18,10,1.2,0.7
2026-03-12T0300,1771A,121.1303,41.1385,锦州市,北湖公园,细颗粒物(PM2.5),80,70,67,50,51,39,39,NA,NA,27,22,14,10,1.0,0.7
2026-03-12T0300,3620A,112.8258,35.4804,晋城市,泽州一中,细颗粒物(PM2.5),127,NA,123,89,79,56,56,NA,NA,18,23,4,7,0.3,0.9
2026-03-12T0300,4078A,112.8246,35.5152,晋城市,前书院路,颗粒物(PM10),68,74,134,29,70,55,55,NA,NA,15,25,4,8,0.3,1.1
2026-03-12T0300,2174A,112.6992,37.6984,晋中市,榆次区政府,颗粒物(PM10),62,66,65,38,40,74,74,NA,NA,27,26,12,10,0.5,0.5
2026-03-12T0300,2439A,112.2012,31.048,荆门市,竹园小学,细颗粒物(PM2.5),133,138,115,96,77,100,100,NA,NA,NA,22,1,2,0.9,0.8
2026-03-12T0300,2440A,112.1968,30.9892,荆门市,掇刀,细颗粒物(PM2.5),141,133,105,105,80,108,108,NA,NA,NA,17,4,7,0.6,0.7
2026-03-12T0300,3547A,112.1631,31.0134,荆门市,龙泉中学南校,细颗粒物(PM2.5),140,146,141,104,103,108,108,NA,NA,13,13,4,4,0.9,0.9
2026-03-12T0300,4124A,112.2213,31.0654,荆门市,新台西路6号,细颗粒物(PM2.5),138,134,111,101,84,83,83,NA,NA,15,18,5,6,0.6,0.7
