timepoint,stationcode,longitude,latitude,area,positionname,primarypollutant,aqi,pm10,pm10_24h,pm2_5,pm2_5_24h,o3,o3_24h,o3_8h,o3_8h_24h,no2,no2_24h,so2,so2_24h,co,co_24h
2026-06-18T0300,2568A,102.2503,31.8896,阿坝藏族羌族自治州,马师校,NA,NA,26,20,7,7,16,16,NA,NA,6,6,NA,3,0.3,0.3
2026-06-18T0300,3994A,102.2174,31.9016,阿坝藏族羌族自治州,马尔康中学西区,,12,NA,20,8,6,18,18,NA,NA,6,6,2,2,0.3,0.3
2026-06-18T0300,2695A,80.2899,41.1684,阿克苏地区,电视台,颗粒物(PM10),90,105,48,50,27,19,19,NA,NA,58,15,3,3,1.1,0.7
2026-06-18T0300,2696A,80.2592,41.1541,阿克苏地区,艺术中心,细颗粒物(PM2.5),103,120,66,63,26,5,5,NA,NA,84,22,4,4,1.5,0.8
2026-06-18T0300,2205A,105.699,38.8409,阿拉善盟,蒙二幼,,41,14,33,7,10,130,130,NA,NA,4,6,10,10,0.5,0.5
2026-06-18T0300,2206A,105.7198,38.8508,阿拉善盟,环保局新楼,,40,25,33,9,10,126,126,NA,NA,9,6,11,11,0.4,0.5
2026-06-18T0300,2708A,88.1266,47.8515,阿勒泰地区,市站,,25,21,23,10,3,77,77,NA,NA,5,9,7,7,0.2,0.1
2026-06-18T0300,4166A,88.1198,47.7931,阿勒泰地区,阿勒泰路33号,,28,27,25,19,9,78,78,NA,NA,5,6,6,6,0.3,0.3
2026-06-18T0300,2630A,80.1171,32.4999,阿里地区,阿里监测站,,46,12,10,3,2,145,145,NA,NA,5,3,3,2,0.3,0.3
2026-06-18T0300,3192A,80.0906,32.5029,阿里地区,阿里藏医院,,48,9,9,3,4,152,152,NA,NA,1,2,5,5,0.2,0.2
2026-06-18T0300,2644A,109.0088,32.6974,安康市,汉滨区检察院,,17,17,29,7,15,41,41,NA,NA,5,10,5,5,0.4,0.5
2026-06-18T0300,4054A,109.0324,32.6913,安康市,市邮政管理局,,18,18,27,10,17,44,44,NA,NA,8,10,1,4,0.4,0.5
2026-06-18T0300,2291A,117.0806,30.5181,安庆市,环科院,,43,36,33,30,21,96,96,NA,NA,8,11,9,10,0.8,0.7
2026-06-18T0300,2292A,117.0331,30.5118,安庆市,马山宾馆,,39,32,30,27,22,97,97,NA,NA,10,13,12,10,1.0,0.9
2026-06-18T0300,2294A,116.9897,30.6146,安庆市,安庆大学,,39,34,34,27,21,88,88,NA,NA,8,9,4,5,0.5,0.4
2026-06-18T0300,3173A,117.0598,30.5351,安庆市,市人大,,42,NA,30,29,22,100,100,NA,NA,11,14,6,6,0.6,0.5
2026-06-18T0300,3123A,105.9408,26.2431,安顺市,凤凰山,,16,NA,16,3,13,51,51,NA,NA,3,5,6,7,0.4,0.5
2026-06-18T0300,3124A,105.9443,26.2567,安顺市,金钟山,,17,NA,5,9,15,53,53,NA,NA,2,3,5,7,0.4,0.4
2026-06-18T0300,3125A,105.8983,26.248,安顺市,娄家坡,NA,NA,NA,17,NA,15,NA,NA,59,NA,NA,4,NA,5,NA,0.4
2026-06-18T0300,1819A,114.3552,36.1017,安阳市,红庙街,NA,NA,54,41,33,24,NA,NA,NA,NA,23,11,5,5,0.5,0.4
2026-06-18T0300,1820A,114.361,36.0681,安阳市,银杏小区,NA,NA,62,39,40,26,84,84,NA,NA,16,8,NA,3,0.2,0.2
2026-06-18T0300,3141A,114.3921,36.0879,安阳市,信访局,细颗粒物(PM2.5),62,62,46,41,28,100,100,NA,NA,24,12,4,2,0.3,0.3
2026-06-18T0300,3669A,114.4706,36.0634,安阳市,左辅环卫站,颗粒物(PM10),61,65,51,36,25,76,76,NA,NA,34,19,2,2,0.5,0.5
2026-06-18T0300,4117A,114.2918,36.0769,安阳市,钢三路198号,颗粒物(PM10),56,58,42,32,23,89,89,NA,NA,15,11,3,4,0.4,0.5
2026-06-18T0300,1748A,123.0441,41.1201,鞍山市,深沟寺,,33,33,39,23,28,22,22,NA,NA,8,9,4,5,0.6,0.7
2026-06-18T0300,1749A,123.011,41.0931,鞍山市,太阳城,NA,NA,NA,42,NA,38,NA,NA,91,NA,NA,11,NA,8,NA,0.8
2026-06-18T0300,1750A,123.0483,41.1445,鞍山市,太平,,43,43,47,24,28,48,48,NA,NA,6,10,3,4,0.7,0.8
2026-06-18T0300,1751A,122.964,41.0968,鞍山市,铁西三道街,细颗粒物(PM2.5),56,52,50,38,35,29,29,NA,NA,31,20,6,6,1.2,1
2026-06-18T0300,1753A,123.0219,41.0822,鞍山市,明达新区,细颗粒物(PM2.5),76,58,46,48,34,23,23,NA,NA,17,10,5,6,0.8,0.7
2026-06-18T0300,4201A,122.944647,41.082639,鞍山市,兴盛南路290号,细颗粒物(PM2.5),62,41,46,41,40,44,44,NA,NA,12,14,7,7,0.7,0.8
2026-06-18T0300,2195A,107.4206,40.7609,巴彦淖尔市,附二中,NA,NA,33,37,9,14,NA,NA,NA,NA,10,13,11,14,0.5,0.6
2026-06-18T0300,2196A,107.37,40.7372,巴彦淖尔市,市环保大楼,,45,32,36,8,10,141,141,NA,NA,6,10,9,11,0.5,0.6
2026-06-18T0300,1956A,86.1476,41.7529,巴音郭楞蒙古自治州,孔雀公园,颗粒物(PM10),61,65,94,21,35,105,105,NA,NA,4,10,4,6,0.1,0.2
2026-06-18T0300,1957A,86.1971,41.7166,巴音郭楞蒙古自治州,棉纺厂,细颗粒物(PM2.5),88,78,118,54,44,91,91,NA,NA,12,8,/,/,/,/
2026-06-18T0300,1958A,86.236,41.7172,巴音郭楞蒙古自治州,经济开发区,颗粒物(PM10),58,61,86,32,35,89,89,NA,NA,6,4,3,3,0.2,0.1
2026-06-18T0300,3181A,106.776805,31.852614,巴中市,市五中,,21,21,29,10,22,54,54,NA,NA,4,11,8,7,0.5,0.7
2026-06-18T0300,3183A,106.7419,31.8654,巴中市,圣泉水务公司,,22,17,27,11,21,69,69,NA,NA,5,12,8,8,0.7,0.7
2026-06-18T0300,3616A,106.7617,31.8343,巴中市,市中心医院,,20,17,28,11,22,63,63,NA,NA,6,13,7,7,0.5,0.6
2026-06-18T0300,2235A,122.7909,45.608,白城市,洮北区环保局,细颗粒物(PM2.5),54,NA,23,37,31,74,74,NA,NA,8,9,5,6,0.4,0.4
2026-06-18T0300,2236A,122.8741,45.5725,白城市,市环保局,,29,NA,14,20,17,69,69,NA,NA,12,13,4,4,0.4,0.4
2026-06-18T0300,2231A,126.4219,41.9172,白山市,喜丰,NA,NA,32,38,16,17,NA,NA,NA,NA,15,17,9,10,0.6,0.7
2026-06-18T0300,2232A,126.4082,41.9416,白山市,环保局,,28,21,24,19,16,22,22,NA,NA,11,10,9,11,0.6,0.6
2026-06-18T0300,2647A,104.1727,36.5448,白银市,第三小学,,26,26,37,13,17,69,69,NA,NA,12,8,9,13,0.7,0.3
2026-06-18T0300,2648A,104.1467,36.5482,白银市,动力公司,,23,17,31,8,15,71,71,NA,NA,10,8,4,5,0.7,0.4
2026-06-18T0300,2512A,106.6102,23.901,百色市,市监测站,,28,25,30,19,13,33,33,NA,NA,12,11,15,10,0.5,0.5
2026-06-18T0300,2513A,106.6524,23.8842,百色市,市中心血站,,30,26,29,21,18,37,37,NA,NA,11,11,13,12,0.6,0.3
2026-06-18T0300,4133A,106.6273,23.8798,百色市,龙景西路,,36,33,39,25,16,28,28,NA,NA,17,14,19,13,0.8,0.6
2026-06-18T0300,2270A,117.396,32.9389,蚌埠市,工人疗养院,,29,29,34,18,19,41,41,NA,NA,36,18,6,5,0.4,0.4
2026-06-18T0300,2271A,117.3606,32.9428,蚌埠市,百货大楼,,28,28,27,11,17,38,38,NA,NA,40,18,12,8,0.5,0.5
2026-06-18T0300,2273A,117.4183,32.8909,蚌埠市,蚌埠学院,,26,NA,23,18,14,67,67,NA,NA,8,9,5,5,0.3,0.3
2026-06-18T0300,2274A,117.3534,32.9672,蚌埠市,淮上区政府,,25,22,28,17,15,52,52,NA,NA,28,13,6,6,0.3,0.3
2026-06-18T0300,2275A,117.3143,32.8977,蚌埠市,高新区,,28,NA,24,19,13,68,68,NA,NA,12,11,8,8,0.3,0.2
2026-06-18T0300,3715A,117.3091,32.9314,蚌埠市,蚌埠田家炳中学,,29,29,36,12,14,72,72,NA,NA,12,12,10,6,0.4,0.4
2026-06-18T0300,1585A,109.8761,40.6533,包头市,市环境监测站,NA,NA,NA,21,23,11,NA,NA,NA,NA,40,23,12,9,0.6,0.4
2026-06-18T0300,1587A,109.9992,40.5843,包头市,包头八中,,47,47,32,32,14,82,82,NA,NA,24,17,20,18,0.5,0.4
2026-06-18T0300,1589A,109.8641,40.6288,包头市,惠龙物流,,40,37,21,28,13,88,88,NA,NA,25,21,13,10,0.4,0.2
2026-06-18T0300,1590A,110.0376,40.5546,包头市,东河鸿龙湾,,50,50,27,34,13,59,59,NA,NA,46,23,18,13,0.6,0.5
2026-06-18T0300,3283A,109.9154,40.5684,包头市,滨河大厦,,38,36,24,26,16,75,75,NA,NA,24,19,10,10,0.5,0.4
2026-06-18T0300,3419A,109.9449,40.6259,包头市,包头市委党校,,35,29,17,24,13,88,88,NA,NA,25,24,14,12,0.8,0.7
2026-06-18T0300,3683A,109.8332,40.6577,包头市,昆区政府,,44,44,24,25,13,77,77,NA,NA,36,23,12,8,0.7,0.5
2026-06-18T0300,1931A,107.0802,34.3129,宝鸡市,竹园沟,,20,16,22,14,22,20,20,NA,NA,4,6,6,6,0.7,0.8
2026-06-18T0300,1933A,107.1429,34.3549,宝鸡市,监测站,NA,NA,20,36,15,25,NA,NA,NA,NA,7,11,5,6,0.3,0.4
2026-06-18T0300,1934A,107.1172,34.3759,宝鸡市,技工学校,,49,35,37,34,27,33,33,NA,NA,8,8,6,7,0.7,0.7
2026-06-18T0300,1936A,107.2025,34.3518,宝鸡市,文理学院,,32,32,38,20,28,35,35,NA,NA,11,15,7,8,0.5,0.5
2026-06-18T0300,1937A,107.2396,34.3626,宝鸡市,三迪小学,,40,35,46,28,32,37,37,NA,NA,17,17,8,8,0.5,0.6
2026-06-18T0300,4155A,107.1721,34.3558,宝鸡市,滨河北路,,38,36,42,26,29,33,33,NA,NA,7,10,6,6,0.7,0.7
2026-06-18T0300,4308A,107.3898,34.3601,宝鸡市,陈仓区北开路21号,,45,42,41,31,33,26,26,NA,NA,20,17,4,9,0.4,0.5
2026-06-18T0300,1051A,115.4803,38.8568,保定市,游泳馆,细颗粒物(PM2.5),74,60,30,47,26,97,97,NA,NA,16,8,4,3,0.3,0.1
2026-06-18T0300,1052A,115.509,38.8895,保定市,华电二区,颗粒物(PM10),59,62,31,33,21,44,44,NA,NA,24,10,3,2,0.6,0.5
2026-06-18T0300,1053A,115.4588,38.9037,保定市,接待中心,颗粒物(PM10),57,59,31,35,23,70,70,NA,NA,20,9,6,1,0.1,0.1
2026-06-18T0300,1054A,115.4484,38.8344,保定市,地表水厂,细颗粒物(PM2.5),84,83,42,52,22,103,103,NA,NA,16,9,2,2,0.7,0.5
2026-06-18T0300,3581A,115.3136,38.9511,保定市,满城区生态环境分局,,31,31,25,15,16,64,64,NA,NA,14,10,3,2,0.1,0.1
2026-06-18T0300,3582A,115.4709,38.7628,保定市,清苑区第二中学,颗粒物(PM10),90,105,58,51,28,74,74,NA,NA,38,20,7,3,0.5,0.3
2026-06-18T0300,3583A,115.6231,39.0223,保定市,徐水物探局,颗粒物(PM10),75,84,41,40,23,27,27,NA,NA,51,17,6,3,0.4,0.4
2026-06-18T0300,4004A,115.4199,38.8665,保定市,双鹰农机,颗粒物(PM10),65,71,36,36,23,42,42,NA,NA,24,8,4,2,0.2,0.2
2026-06-18T0300,4034A,115.515,38.8589,保定市,植保所站,细颗粒物(PM2.5),64,57,31,42,23,106,106,NA,NA,20,11,6,5,0.3,0.2
2026-06-18T0300,2594A,99.1589,25.1137,保山市,市环境监测站,,15,NA,12,10,6,43,43,NA,NA,7,7,5,5,0.3,0.3
2026-06-18T0300,2595A,99.1616,25.1381,保山市,市环保局,,22,NA,14,15,16,37,37,NA,NA,6,5,5,4,0.5,0.4
2026-06-18T0300,1867A,109.1435,21.4085,北海市,海滩公园,NA,NA,30,50,18,11,NA,NA,NA,NA,7,5,3,3,0.8,0.7
2026-06-18T0300,1868A,109.0983,21.466,北海市,新市环保局,,42,NA,17,29,19,81,81,NA,NA,7,6,4,3,0.7,0.6
2026-06-18T0300,1869A,109.1775,21.5232,北海市,北海工业园,,34,34,21,15,12,43,43,NA,NA,5,6,2,1,0.5,0.4
2026-06-18T0300,3400A,109.1844,21.4396,北海市,龙潭自来水厂,,26,26,17,16,8,40,40,NA,NA,7,4,3,3,0.5,0.5
2026-06-18T0300,1001A,116.3611,39.8786,北京市,万寿西宫,,39,39,19,18,12,59,59,NA,NA,39,14,3,3,0.4,0.3
2026-06-18T0300,1003A,116.4174,39.9289,北京市,东四,,38,38,17,24,12,68,68,NA,NA,46,15,2,2,0.5,0.4
2026-06-18T0300,1004A,116.4073,39.8858,北京市,天坛,,22,22,16,14,9,28,28,NA,NA,34,13,1,1,0.5,0.4
2026-06-18T0300,1005A,116.4622,39.9364,北京市,农展馆,,49,35,18,17,10,2,2,NA,NA,98,18,3,3,0.5,0.3
2026-06-18T0300,1006A,116.3399,39.9293,北京市,官园,,26,26,20,14,13,38,38,NA,NA,41,17,5,4,0.4,0.3
2026-06-18T0300,1007A,116.2879,39.9613,北京市,海淀万柳,,23,22,18,8,10,29,29,NA,NA,45,21,4,4,0.4,0.3
2026-06-18T0300,1008A,116.6635,40.1349,北京市,顺义新城,,30,30,18,18,13,49,49,NA,NA,17,10,2,2,0.4,0.3
2026-06-18T0300,1009A,116.6275,40.327,北京市,怀柔镇,,19,18,17,9,11,59,59,NA,NA,10,10,1,1,0.3,0.3
2026-06-18T0300,1010A,116.2295,40.217,北京市,昌平镇,,18,18,14,10,9,40,40,NA,NA,34,14,4,4,0.5,0.5
2026-06-18T0300,1011A,116.3968,39.982,北京市,奥体中心,,48,48,23,22,13,11,11,NA,NA,77,17,3,3,0.6,0.4
2026-06-18T0300,3418A,116.8336,40.4095,北京市,密云新城,,26,26,16,11,8,59,59,NA,NA,6,7,3,2,0.4,0.4
2026-06-18T0300,3671A,116.0879,39.9725,北京市,门头沟三家店,,18,18,13,9,7,25,25,NA,NA,36,15,4,4,0.4,0.4
2026-06-18T0300,3672A,116.1507,39.8246,北京市,丰台云岗,,24,24,20,8,10,58,58,NA,NA,16,16,1,1,0.4,0.3
2026-06-18T0300,3674A,115.9578,39.7602,北京市,房山燕山,,22,22,16,11,9,47,47,NA,NA,12,10,1,2,0.5,0.5
2026-06-18T0300,3675A,116.4669,39.7734,北京市,大兴旧宫,,22,19,18,15,13,31,31,NA,NA,12,18,1,1,0.6,0.5
2026-06-18T0300,3694A,115.9859,40.4562,北京市,延庆石河营,,20,16,13,10,9,63,63,NA,NA,10,9,2,2,0.4,0.4
2026-06-18T0300,3695A,116.6151,40.3052,北京市,怀柔新城,,19,16,15,10,10,60,60,NA,NA,6,7,3,2,0.5,0.5
2026-06-18T0300,3696A,116.2542,39.8764,北京市,丰台小屯,,35,35,21,14,11,1,1,NA,NA,66,20,3,2,0.5,0.4
2026-06-18T0300,3697A,116.8399,40.3843,北京市,密云镇,,25,25,16,11,9,40,40,NA,NA,16,9,3,3,0.5,0.5
2026-06-18T0300,4057A,115.9423,40.4431,北京市,延庆百泉,,23,14,13,10,9,71,71,NA,NA,10,9,1,1,0.3,0.3
2026-06-18T0300,4058A,116.6598,39.9164,北京市,通州新华,颗粒物(PM10),75,84,25,46,15,62,62,NA,NA,38,23,3,3,0.6,0.5
2026-06-18T0300,4182A,116.1942,39.9158,北京市,石景山八角,,20,20,23,9,13,50,50,NA,NA,32,23,5,3,0.6,0.6
2026-06-18T0300,4194A,117.078628,40.151726,北京市,平谷新城,,31,31,20,15,11,67,67,NA,NA,4,4,3,3,0.4,0.4
2026-06-18T0300,1761A,123.8274146,41.31234549,本溪市,大峪,,39,39,30,26,22,5,5,NA,NA,25,11,6,6,0.5,0.5
2026-06-18T0300,1763A,123.7169,41.3094,本溪市,彩屯,,45,43,35,31,30,4,4,NA,NA,19,18,7,8,1.2,2
2026-06-18T0300,1764A,123.7672166,41.28649327,本溪市,东明,,41,41,31,26,21,10,10,NA,NA,30,18,5,6,0.6,0.6
2026-06-18T0300,1765A,123.799345,41.266614,本溪市,新立屯,,33,31,26,23,20,2,2,NA,NA,35,17,8,8,0.5,0.6
2026-06-18T0300,1766A,123.829144,41.336777,本溪市,威宁,,35,35,27,24,22,11,11,NA,NA,15,9,7,7,0.5,0.6
2026-06-18T0300,2587A,105.287,27.3133,毕节市,八中,,12,12,24,3,14,37,37,NA,NA,5,10,6,7,0.6,0.6
2026-06-18T0300,2588A,105.3079,27.2987,毕节市,师专,,13,8,20,3,13,41,41,NA,NA,4,8,5,6,0.6,0.5
2026-06-18T0300,4263A,105.3688,27.3598,毕节市,工业大道,,16,6,17,3,10,49,49,NA,NA,4,8,6,7,/,/
2026-06-18T0300,1629A,117.9961,37.3604,滨州市,第二水厂,NA,NA,51,47,47,25,72,72,NA,NA,19,15,NA,10,0.6,0.6
2026-06-18T0300,1630A,117.9789,37.3931,滨州市,北中新校,细颗粒物(PM2.5),66,46,41,43,26,87,87,NA,NA,16,16,12,12,0.7,0.7
2026-06-18T0300,3514A,117.9379,37.3959,滨州市,中海酒店,NA,NA,NA,35,47,26,NA,NA,NA,NA,18,10,10,10,0.5,0.4
2026-06-18T0300,3515A,117.9381509,37.35547456,滨州市,开发区一中,细颗粒物(PM2.5),62,46,49,41,24,73,73,NA,NA,10,13,8,11,0.5,0.6
2026-06-18T0300,3516A,118.0914,37.6938,滨州市,金海六路,细颗粒物(PM2.5),62,44,50,41,40,107,107,NA,NA,9,16,6,7,0.4,0.4
2026-06-18T0300,4028A,117.9955,37.3752,滨州市,滨州市西街道办事处,细颗粒物(PM2.5),72,NA,42,46,25,78,78,NA,NA,13,13,5,7,0.4,0.4
2026-06-18T0300,2311A,115.8071,33.8399,亳州市,污水处理厂,,18,14,22,10,15,57,57,NA,NA,14,13,4,5,0.2,0.2
2026-06-18T0300,2312A,115.7789,33.8519,亳州市,三国揽胜宫,,26,26,35,3,13,67,67,NA,NA,9,9,4,5,0.1,0.2
2026-06-18T0300,3332A,115.7631,33.803,亳州市,亳州学院,,21,13,20,8,14,66,66,NA,NA,10,9,5,5,0.2,0.3
2026-06-18T0300,2693A,82.0482,44.8553,博尔塔拉蒙古自治州,市党校,,21,15,19,3,6,65,65,NA,NA,6,5,3,3,0.2,0.2
2026-06-18T0300,2694A,82.0805,44.8966,博尔塔拉蒙古自治州,市环保局,,29,29,27,6,6,61,61,NA,NA,11,12,1,6,0.3,0.3
2026-06-18T0300,1071A,116.8733,38.2922,沧州市,沧县城建局,细颗粒物(PM2.5),62,44,43,41,34,99,99,NA,NA,10,9,5,5,0.6,0.7
2026-06-18T0300,1072A,116.8462,38.3189,沧州市,电视转播站,颗粒物(PM10),60,64,60,39,31,108,108,NA,NA,13,12,3,7,0.4,0.5
2026-06-18T0300,1073A,116.8588,38.3161,沧州市,市环保局,细颗粒物(PM2.5),84,78,64,52,39,87,87,NA,NA,12,11,8,5,0.5,0.5
2026-06-18T0300,3324A,116.8011,38.294,沧州市,河北水利电力学院,细颗粒物(PM2.5),68,48,40,44,33,108,108,NA,NA,13,10,8,6,0.4,0.4
2026-06-18T0300,2622A,97.1813,31.1289,昌都市,昌都监测站,,30,6,7,3,3,94,94,NA,NA,5,6,8,7,0.5,0.5
2026-06-18T0300,3719A,97.1707,31.1428,昌都市,昌都会议中心,,32,6,5,3,5,102,102,NA,NA,4,4,6,5,0.4,0.4
2026-06-18T0300,2692A,87.2722,44.0298,昌吉回族自治州,新区政务中心,,25,25,24,12,10,52,52,NA,NA,16,12,7,8,0.2,0.2
2026-06-18T0300,3613A,87.3069,44.0093,昌吉回族自治州,亚心广场,,29,29,35,6,12,59,59,NA,NA,18,14,6,7,0.2,0.2
2026-06-18T0300,4164A,87.2057,43.9289,昌吉回族自治州,财政所,,22,22,41,3,12,57,57,NA,NA,10,7,6,6,0.2,0.2
2026-06-18T0300,1120A,125.2874,43.9024,长春市,客车厂,,39,27,16,27,13,49,49,NA,NA,12,18,5,5,0.6,0.5
2026-06-18T0300,1121A,125.2943,43.8508,长春市,邮电学院,,33,NA,15,23,13,21,21,NA,NA,6,9,6,6,0.6,0.5
2026-06-18T0300,1122A,125.3648,43.8745,长春市,劳动公园,,32,22,16,22,15,32,32,NA,NA,13,15,6,6,0.7,0.7
2026-06-18T0300,1123A,125.3233,43.8781,长春市,园林处,,38,NA,15,26,13,47,47,NA,NA,12,11,3,2,0.6,0.5
2026-06-18T0300,1124A,125.4604,43.7904,长春市,净月潭,,18,NA,15,12,12,44,44,NA,NA,4,5,6,6,0.4,0.4
2026-06-18T0300,1126A,125.38,43.8422,长春市,经开区环卫处,,32,NA,18,22,14,47,47,NA,NA,10,17,5,5,0.4,0.5
2026-06-18T0300,1127A,125.234,43.7761,长春市,高新区管委会,,26,NA,14,18,11,42,42,NA,NA,11,11,5,6,0.4,0.4
2026-06-18T0300,1128A,125.1695,43.83,长春市,岱山公园,,36,NA,16,25,12,39,39,NA,NA,32,29,4,3,0.3,0.3
2026-06-18T0300,4281A,125.334645,43.916281,长春市,北亚泰大街1068号,,42,32,20,29,14,39,39,NA,NA,19,22,4,4,0.6,0.6
2026-06-18T0300,1335A,113.082,28.2421,长沙市,经开区环保局,,49,43,42,34,28,62,62,NA,NA,13,12,6,7,0.7,0.6
2026-06-18T0300,1336A,112.8873,28.2202,长沙市,高开区环保局,颗粒物(PM10),57,59,44,33,29,74,74,NA,NA,11,10,4,4,0.7,0.7
2026-06-18T0300,1337A,113.0785,28.2012,长沙市,马坡岭,颗粒物(PM10),51,51,41,34,28,62,62,NA,NA,14,11,11,8,0.8,0.8
2026-06-18T0300,1338A,112.9448,28.1894,长沙市,湖南师范大学,NA,NA,34,41,30,24,79,79,NA,NA,8,9,NA,8,0.4,0.2
2026-06-18T0300,1339A,113.0177,28.1322,长沙市,雨花区环保局,,49,43,39,34,27,92,92,NA,NA,4,6,7,6,0.9,0.8
2026-06-18T0300,1340A,112.9795,28.2593,长沙市,伍家岭,颗粒物(PM10),53,54,49,32,29,59,59,NA,NA,19,14,4,4,0.5,0.5
2026-06-18T0300,1341A,113.002,28.1944,长沙市,火车新站,,48,46,40,33,26,59,59,NA,NA,19,12,8,8,0.5,0.4
2026-06-18T0300,1342A,112.9846,28.1177,长沙市,天心区环保局,,45,45,38,31,25,114,114,NA,NA,10,12,5,5,0.4,0.3
2026-06-18T0300,1343A,112.8906,28.1307,长沙市,湖南中医药大学,NA,NA,54,45,37,29,31,31,NA,NA,33,21,NA,7,0.7,0.6
2026-06-18T0300,1727A,113.1146,36.1547,长治市,清华站,NA,NA,27,31,21,20,132,132,NA,NA,9,8,NA,9,0.7,0.5
2026-06-18T0300,1730A,113.0887,36.2126,长治市,审计局,,46,NA,32,28,22,145,145,NA,NA,2,5,11,10,0.5,0.4
2026-06-18T0300,1731A,113.0845,36.1856,长治市,长治八中,,48,30,38,28,23,151,151,NA,NA,9,13,12,11,0.5,0.5
2026-06-18T0300,2845A,113.1561,36.1912,长治市,德盛苑,NA,NA,33,30,27,21,145,145,NA,NA,8,9,NA,10,0.4,0.4
2026-06-18T0300,3568A,113.0603,36.0464,长治市,向阳小学,颗粒物(PM10),62,66,63,27,24,134,134,NA,NA,7,7,13,14,0.8,0.7
2026-06-18T0300,3569A,112.8788,36.315,长治市,屯留一中,,44,35,34,26,24,140,140,NA,NA,7,7,11,9,0.9,0.7
2026-06-18T0300,4189A,113.113092,36.199482,长治市,英华南巷50号,,42,42,40,26,23,133,133,NA,NA,6,10,10,9,0.8,0.8
2026-06-18T0300,4190A,113.23666,36.33435,长治市,学府街1号,,38,36,37,26,21,92,92,NA,NA,19,11,6,5,0.6,0.6
2026-06-18T0300,1854A,111.696,28.9725,常德市,市二中,NA,NA,45,41,43,34,85,85,NA,NA,9,10,NA,9,1.0,1
2026-06-18T0300,3138A,111.7152,29.0288,常德市,武陵区永安,细颗粒物(PM2.5),58,46,45,39,36,103,103,NA,NA,4,6,11,8,0.9,1
2026-06-18T0300,3139A,111.6891,28.9881,常德市,鼎城区玉霞,细颗粒物(PM2.5),64,48,44,42,35,101,101,NA,NA,5,9,12,11,0.9,0.9
2026-06-18T0300,3140A,111.6651,29.0526,常德市,武陵区长庚,细颗粒物(PM2.5),80,NA,44,50,39,113,113,NA,NA,5,7,11,10,0.7,0.8
2026-06-18T0300,1196A,119.9524,31.7586,常州市,市监测站,,43,36,27,30,16,29,29,NA,NA,26,20,11,7,0.9,0.4
2026-06-18T0300,1200A,119.9351,31.703,常州市,武进监测站,细颗粒物(PM2.5),54,46,29,37,18,25,25,NA,NA,25,14,18,14,0.8,0.4
2026-06-18T0300,3002A,119.9701,31.813,常州市,行政中心,,50,NA,28,35,18,26,26,NA,NA,26,18,13,6,0.9,0.4
2026-06-18T0300,3003A,120.0434,31.7726,常州市,经开区,,43,42,32,30,15,26,26,NA,NA,22,18,9,4,1.1,0.9
2026-06-18T0300,3010A,119.8919,31.7892,常州市,钟楼,NA,NA,54,31,34,18,31,31,NA,NA,29,18,NA,8,1.0,0.6
2026-06-18T0300,3429A,119.8595,31.706,常州市,武进经发区,NA,NA,63,37,25,21,19,19,NA,NA,27,21,NA,8,1.3,0.8
2026-06-18T0300,3430A,119.5812,31.7256,常州市,金坛城区,NA,NA,34,35,26,23,26,26,NA,NA,NA,14,8,6,1.1,0.7
2026-06-18T0300,4089A,119.9551,31.863,常州市,崇义南街5-H号,,40,29,31,28,17,17,17,NA,NA,22,20,11,10,1.1,0.7
2026-06-18T0300,2220A,120.4318,41.588,朝阳市,西梁,颗粒物(PM10),51,51,24,34,15,22,22,NA,NA,24,10,5,5,0.8,0.7
2026-06-18T0300,2221A,120.452,41.565,朝阳市,河畔小区,,36,36,19,20,14,60,60,NA,NA,9,7,9,9,0.8,0.8
2026-06-18T0300,2222A,120.4176,41.5648,朝阳市,八里堡,,50,NA,22,35,20,57,57,NA,NA,18,11,5,5,0.7,0.7
2026-06-18T0300,3026A,116.6179,23.6608,潮州市,市政府,,22,21,13,15,10,27,27,NA,NA,14,12,9,5,0.5,0.6
2026-06-18T0300,4036A,116.646,23.676,潮州市,金山,,18,17,13,12,8,24,24,NA,NA,8,10,2,2,0.3,0.4
2026-06-18T0300,2473A,113.0116,25.8228,郴州市,市职中,,13,6,30,3,21,39,39,NA,NA,3,8,6,10,0.5,0.7
2026-06-18T0300,2475A,113.0381,25.8074,郴州市,市审计局,,14,6,29,3,22,42,42,NA,NA,8,14,3,6,/,/
2026-06-18T0300,2476A,113.0348,25.7757,郴州市,市环保局,,17,11,30,3,24,52,52,NA,NA,7,13,5,8,0.5,0.7
2026-06-18T0300,4252A,113.0138,25.8011,郴州市,好美居路49号,,15,6,27,3,17,47,47,NA,NA,4,10,7,10,/,/
2026-06-18T0300,1431A,103.9727,30.7242,成都市,金泉两河,,36,NA,23,25,23,53,53,NA,NA,11,13,2,2,0.5,0.3
2026-06-18T0300,1432A,104.1423,30.6765,成都市,十里店,,45,38,31,31,23,48,48,NA,NA,14,9,5,4,0.6,0.5
2026-06-18T0300,1433A,104.0594,30.5765,成都市,三瓦窑,,40,30,27,28,22,34,34,NA,NA,30,14,5,4,0.6,0.6
2026-06-18T0300,1434A,104.1122,30.6306,成都市,沙河铺,,42,32,31,29,22,41,41,NA,NA,14,13,5,5,0.5,0.5
2026-06-18T0300,2880A,104.0219,30.6561,成都市,大石西路,,49,37,34,34,26,42,42,NA,NA,14,13,4,4,0.6,0.6
2026-06-18T0300,3136A,104.2724,30.559,成都市,龙泉驿区区政府,,35,NA,15,24,19,46,46,NA,NA,7,8,7,6,0.4,0.4
2026-06-18T0300,3357A,104.0028,30.6891,成都市,金博路,NA,NA,32,21,31,24,42,42,NA,NA,16,17,NA,6,0.7,0.7
2026-06-18T0300,3359A,104.056,30.5228,成都市,华阳,,32,22,21,22,17,48,48,NA,NA,14,11,2,2,0.9,0.9
2026-06-18T0300,3488A,104.387954,30.746684,成都市,青白江技师分院,,46,34,27,32,24,10,10,NA,NA,26,15,5,5,0.7,0.6
2026-06-18T0300,3489A,104.0788,30.4054,成都市,科学城,,33,33,18,22,15,35,35,NA,NA,11,7,5,5,0.5,0.4
2026-06-18T0300,4011A,103.8505,30.6946,成都市,光华大道三段,NA,NA,NA,28,26,25,NA,NA,NA,NA,10,12,3,3,0.4,0.4
2026-06-18T0300,4144A,104.3257,30.6406,成都市,八角井街185号,,34,34,27,23,20,28,28,NA,NA,14,12,4,4,0.5,0.4
2026-06-18T0300,4224A,104.2433276,30.53529463,成都市,鲸龙路1057号,NA,NA,33,24,26,17,49,49,NA,NA,16,15,NA,7,0.6,0.7
2026-06-18T0300,1062A,117.9531,40.908,承德市,铁路,,43,43,26,8,12,21,21,NA,NA,13,13,3,3,0.3,0.2
2026-06-18T0300,1063A,117.9397,40.9763,承德市,中国银行,,23,20,25,16,12,9,9,NA,NA,9,8,2,2,0.4,0.3
2026-06-18T0300,4073A,117.9462,40.95,承德市,杏林街1号,NA,NA,29,22,22,16,NA,NA,NA,NA,11,10,2,2,0.3,0.3
2026-06-18T0300,4274A,117.7994,40.9605,承德市,滨河大街98号,,17,17,19,3,11,11,11,NA,NA,8,7,1,2,0.3,0.3
2026-06-18T0300,2314A,117.4698,30.6617,池州市,池州学院,,33,28,32,23,21,89,89,NA,NA,16,16,5,6,1.0,0.9
2026-06-18T0300,3237A,117.4918,30.6617,池州市,展览馆,,39,39,32,22,20,79,79,NA,NA,16,13,3,4,1.0,0.7
2026-06-18T0300,3333A,117.5626,30.695,池州市,第八中学,,42,42,31,29,19,82,82,NA,NA,13,12,4,4,1.0,0.6
2026-06-18T0300,3334A,117.5037,30.6242,池州市,第十二中学,,35,32,29,24,20,69,69,NA,NA,18,15,6,5,0.8,0.7
2026-06-18T0300,1744A,118.9229,42.2816,赤峰市,松山一中,,42,42,17,3,10,28,28,NA,NA,24,16,10,11,0.6,0.6
2026-06-18T0300,1745A,118.9588,42.2733,赤峰市,哈达街,,19,19,14,9,7,43,43,NA,NA,17,16,13,13,0.4,0.4
2026-06-18T0300,1746A,118.8792,42.2551,赤峰市,天义路,,15,13,10,8,9,46,46,NA,NA,11,15,7,8,0.2,0.2
2026-06-18T0300,3058A,119.2656,42.0356,赤峰市,银河街,,43,43,27,18,14,32,32,NA,NA,23,18,28,14,0.6,0.6
2026-06-18T0300,3286A,118.9359,42.3146,赤峰市,桥北物流园区,NA,NA,16,14,3,7,NA,NA,NA,NA,16,21,3,4,0.4,0.5
2026-06-18T0300,2521A,107.3473,22.4137,崇左市,市环保局江州分局,,25,25,19,11,7,22,22,NA,NA,10,7,6,3,0.5,0.5
2026-06-18T0300,4256A,107.375,22.3736,崇左市,石景林东路7号,,22,22,17,11,10,14,14,NA,NA,20,12,3,2,0.6,0.7
2026-06-18T0300,3207A,118.31131,32.3033,滁州市,市政府原办公楼,细颗粒物(PM2.5),52,NA,24,36,30,44,44,NA,NA,18,9,6,5,0.4,0.4
2026-06-18T0300,3331A,118.3268,32.2633,滁州市,图书馆,NA,NA,28,27,27,19,NA,NA,NA,NA,14,7,12,9,0.4,0.4
2026-06-18T0300,4101A,118.3196,32.3335,滁州市,银山路666号,,39,NA,22,27,20,44,44,NA,NA,17,10,4,4,0.2,0.2
2026-06-18T0300,4102A,118.3426,32.2979,滁州市,黄山路555号,,46,36,31,32,23,29,29,NA,NA,36,14,8,8,0.3,0.2
2026-06-18T0300,2606A,101.5379,25.0492,楚雄彝族自治州,市经济开发区,,14,11,11,3,6,43,43,NA,NA,4,5,1,1,0.7,0.6
2026-06-18T0300,4153A,101.5536,25.0343,楚雄彝族自治州,团结路562号,,14,10,7,3,5,42,42,NA,NA,4,4,3,3,0.3,0.3
2026-06-18T0300,2549A,107.5087,31.2186,达州市,市环境监测站,,21,21,28,8,14,30,30,NA,NA,14,21,6,6,0.3,0.4
2026-06-18T0300,2550A,107.4988,31.2132,达州市,凤凰小区,,22,22,30,8,13,31,31,NA,NA,13,19,5,6,0.3,0.4
2026-06-18T0300,2551A,107.5081,31.1987,达州市,达县机关宾馆,,24,24,28,12,17,31,31,NA,NA,16,28,4,5,0.1,0.2
2026-06-18T0300,2552A,107.4644,31.2124,达州市,市政中心,,32,32,32,14,14,40,40,NA,NA,14,22,3,4,0.3,0.4
2026-06-18T0300,2614A,100.2168,25.5818,大理白族自治州,大理市环境监测站,,13,12,8,3,4,39,39,NA,NA,6,6,5,5,0.4,0.4
2026-06-18T0300,2615A,100.1542,25.7055,大理白族自治州,大理古城,,12,12,9,8,6,36,36,NA,NA,7,8,6,6,0.3,0.3
2026-06-18T0300,1109A,121.6119,38.974,大连市,甘井子,细颗粒物(PM2.5),60,54,43,40,31,21,21,NA,NA,45,20,8,9,0.6,0.5
2026-06-18T0300,1110A,121.565,38.9509,大连市,周水子,细颗粒物(PM2.5),102,NA,34,62,30,22,22,NA,NA,43,23,9,7,0.6,0.6
2026-06-18T0300,1111A,121.5637,38.8849,大连市,星海三站,颗粒物(PM10),51,51,40,27,25,36,36,NA,NA,24,15,7,8,0.7,0.6
2026-06-18T0300,1112A,121.6301,38.9117,大连市,青泥洼桥,细颗粒物(PM2.5),62,65,34,41,23,23,23,NA,NA,40,13,7,8,0.8,0.8
2026-06-18T0300,1113A,121.6248,38.8643,大连市,傅家庄,,42,29,25,29,23,65,65,NA,NA,16,10,10,10,0.4,0.4
2026-06-18T0300,1114A,121.5117,38.8636,大连市,七贤岭,,36,36,37,18,22,96,96,NA,NA,7,17,6,8,0.4,0.8
2026-06-18T0300,1116A,121.7507,39.1339,大连市,金州,细颗粒物(PM2.5),74,56,33,47,31,52,52,NA,NA,18,14,7,8,0.7,0.7
2026-06-18T0300,1117A,121.7811,39.0495,大连市,开发区,细颗粒物(PM2.5),72,NA,28,46,28,40,40,NA,NA,38,22,10,10,0.7,0.5
2026-06-18T0300,1118A,121.9762,39.0631,大连市,双D港,,42,NA,27,29,24,19,19,NA,NA,13,24,6,7,0.7,0.7
2026-06-18T0300,4082A,121.2548,38.8188,大连市,旅顺,细颗粒物(PM2.5),54,44,33,37,27,42,42,NA,NA,12,16,5,7,0.4,0.4
2026-06-18T0300,1789A,124.8085,46.0381,大庆市,大同区,NA,NA,NA,24,14,14,NA,NA,NA,NA,14,13,4,4,0.5,0.5
2026-06-18T0300,1790A,125.1166,46.5255,大庆市,龙凤区,,29,28,38,20,19,39,39,NA,NA,15,15,5,6,0.3,0.3
2026-06-18T0300,1791A,124.8894,46.4007,大庆市,红岗区,,46,46,45,13,17,50,50,NA,NA,15,13,5,6,0.6,0.5
2026-06-18T0300,1792A,125.1391,46.578,大庆市,萨尔图区,,32,29,29,22,20,46,46,NA,NA,20,15,6,5,0.5,0.5
2026-06-18T0300,1793A,124.9026,46.6217,大庆市,让胡路区,,39,36,33,27,22,37,37,NA,NA,21,18,3,3,0.7,0.7
2026-06-18T0300,3481A,125.127,46.6277,大庆市,萨区政府监测点,NA,NA,48,33,29,20,NA,NA,NA,NA,7,7,10,7,0.4,0.4
2026-06-18T0300,1723A,113.2926,40.0759,大同市,云冈宾馆,,32,32,19,17,12,100,100,NA,NA,11,11,8,6,0.1,0.2
2026-06-18T0300,1724A,113.3437,40.0921,大同市,大同大学,,29,22,18,18,11,90,90,NA,NA,11,11,8,8,0.6,0.5
2026-06-18T0300,1725A,113.2637,40.129,大同市,安家小村,,30,30,28,16,15,96,96,NA,NA,12,11,8,9,0.4,0.5
2026-06-18T0300,3282A,113.3399,40.0586,大同市,大同市卫生学校,,32,32,24,18,13,85,85,NA,NA,15,12,9,7,0.6,0.6
2026-06-18T0300,3565A,113.1371,40.1122,大同市,云冈站,,42,42,20,11,13,36,36,NA,NA,22,11,6,6,0.5,0.7
2026-06-18T0300,3566A,113.1186,40.2556,大同市,图书馆,,20,20,23,10,12,39,39,NA,NA,11,12,5,7,0.6,0.9
2026-06-18T0300,3567A,113.5931,40.0459,大同市,区一中,,28,22,19,18,13,88,88,NA,NA,10,9,7,7,0.5,0.5
2026-06-18T0300,4199A,113.2798248,40.09972476,大同市,魏都大道141号,,28,28,25,18,12,69,69,NA,NA,24,16,8,6,0.6,0.6
2026-06-18T0300,2269A,124.1068,50.4091,大兴安岭地区,科技局,,23,20,23,16,13,13,13,NA,NA,5,5,7,8,0.3,0.3
2026-06-18T0300,3663A,124.117,50.4279,大兴安岭地区,红旗社区,,26,NA,12,18,13,7,7,NA,NA,15,8,5,5,0.2,0.2
2026-06-18T0300,1600A,124.33,40.0625,丹东市,江湾东路,,22,22,26,15,19,51,51,NA,NA,8,13,5,6,0.5,0.6
2026-06-18T0300,1601A,124.4242,40.1513,丹东市,临江后街,,19,17,31,13,21,38,38,NA,NA,4,9,4,4,0.4,0.5
2026-06-18T0300,1602A,124.3935,40.1461,丹东市,元宝山,,20,20,34,12,22,31,31,NA,NA,7,12,4,6,0.4,0.6
2026-06-18T0300,1603A,124.3634,40.1093,丹东市,民主桥,,25,25,33,15,23,46,46,NA,NA,5,10,6,7,0.6,0.7
2026-06-18T0300,3541A,109.5726195,19.51688767,儋州市,第一中学子站,,18,18,24,12,13,38,38,NA,NA,6,5,7,4,0.4,0.4
2026-06-18T0300,3542A,109.5567,19.5187,儋州市,东坡学校子站,,22,22,22,12,14,40,40,NA,NA,4,5,5,5,0.4,0.5
2026-06-18T0300,2616A,98.5611,24.4273,德宏傣族景颇族自治州,德宏州监测站,,19,NA,7,13,11,28,28,NA,NA,6,6,6,6,0.5,0.5
2026-06-18T0300,3677A,98.5887,24.4366,德宏傣族景颇族自治州,芒市人民政府综合楼,,26,26,28,10,11,28,28,NA,NA,6,8,7,7,0.2,0.4
2026-06-18T0300,1901A,104.424,31.1209,德阳市,东山公园,,30,23,24,21,27,45,45,NA,NA,6,11,2,2,0.6,0.6
2026-06-18T0300,1902A,104.3827,31.1318,德阳市,西小区,,29,26,32,20,28,57,57,NA,NA,7,13,6,6,0.8,0.9
2026-06-18T0300,1904A,104.3553,31.1091,德阳市,耐火材料厂,细颗粒物(PM2.5),56,NA,30,38,32,34,34,NA,NA,21,14,3,2,0.4,0.4
2026-06-18T0300,4145A,104.4144,31.1495,德阳市,市林业局,,35,26,27,24,29,51,51,NA,NA,10,15,8,8,0.8,0.8
2026-06-18T0300,1622A,116.3034,37.4675,德州市,儿童乐园,细颗粒物(PM2.5),64,63,46,42,24,99,99,NA,NA,27,17,11,10,0.7,0.7
2026-06-18T0300,1624A,116.2992,37.4449,德州市,监理站,细颗粒物(PM2.5),70,58,50,45,25,108,108,NA,NA,20,13,14,13,0.5,0.5
2026-06-18T0300,3066A,116.2722,37.438,德州市,九衢泉纯净水厂,细颗粒物(PM2.5),72,63,50,46,26,86,86,NA,NA,34,22,10,12,0.7,0.7
2026-06-18T0300,3371A,116.3693,37.44,德州市,开发区人民医院,细颗粒物(PM2.5),88,73,49,54,27,69,69,NA,NA,29,14,18,11,0.6,0.6
2026-06-18T0300,3511A,116.5687,37.3331,德州市,陵城艺术中心,细颗粒物(PM2.5),100,61,47,60,25,80,80,NA,NA,31,15,10,9,0.4,0.4
2026-06-18T0300,4292A,116.352738,37.420875,德州市,新河东路,细颗粒物(PM2.5),101,63,44,61,27,60,60,NA,NA,44,25,16,11,0.8,0.8
2026-06-18T0300,2621A,99.7054,27.8319,迪庆藏族自治州,迪庆州站,,18,18,15,3,6,23,23,NA,NA,10,9,7,7,0.5,0.5
2026-06-18T0300,3180A,99.7122,27.8129,迪庆藏族自治州,质量技术监督局,,13,13,13,3,7,33,33,NA,NA,11,10,9,10,0.2,0.2
2026-06-18T0300,4257A,104.6092,35.5962,定西市,将台街,,24,22,29,3,16,76,76,NA,NA,13,7,4,4,0.2,0.2
2026-06-18T0300,4309A,104.6159,35.5701,定西市,正龙路62号,,34,34,40,10,15,82,82,NA,NA,9,7,4,4,0.2,0.2
2026-06-18T0300,4071A,114.9883,38.5232,定州市,交通局,NA,NA,64,44,32,24,NA,NA,NA,NA,28,19,2,2,0.4,0.4
2026-06-18T0300,4072A,115.0045,38.5136,定州市,第五中学,颗粒物(PM10),75,85,54,34,24,83,83,NA,NA,30,19,3,3,0.4,0.3
2026-06-18T0300,1390A,113.7943,23.0132,东莞市,东城石井,,19,19,11,10,6,9,9,NA,NA,36,15,3,1,0.5,0.4
2026-06-18T0300,1391A,113.7384,22.9659,东莞市,南城西平,,17,17,9,10,2,22,22,NA,NA,30,9,2,3,0.6,0.5
2026-06-18T0300,3319A,113.7283,23.041,东莞市,万江金泰,,19,19,10,10,6,21,21,NA,NA,27,12,6,5,0.4,0.4
2026-06-18T0300,4129A,113.8666,23.1062,东莞市,裕兴路,,31,31,18,16,9,16,16,NA,NA,30,24,7,7,0.6,0.6
2026-06-18T0300,4130A,114.0076,22.9739,东莞市,教育路1号,,18,18,16,7,7,26,26,NA,NA,21,20,6,6,0.6,0.6
2026-06-18T0300,4131A,113.7981,22.8124,东莞市,长怡路1号,,18,18,13,7,5,32,32,NA,NA,15,14,4,4,0.5,0.5
2026-06-18T0300,1666A,118.6612,37.4313,东营市,市环保局,细颗粒物(PM2.5),80,NA,37,50,24,69,69,NA,NA,11,9,6,5,0.5,0.5
2026-06-18T0300,3036A,118.6903,37.4337,东营市,开发区管委会,,46,46,40,27,22,66,66,NA,NA,21,17,12,11,0.5,0.5
2026-06-18T0300,3365A,118.5721,37.5654,东营市,垦利区民丰路,,45,36,41,31,27,77,77,NA,NA,16,13,9,10,0.4,0.5
2026-06-18T0300,3498A,118.5063,37.8606,东营市,河口城区,细颗粒物(PM2.5),80,NA,40,50,41,125,125,NA,NA,4,11,3,8,0.5,0.6
2026-06-18T0300,3646A,118.4979,37.4623,东营市,胜利站,,36,36,37,25,23,77,77,NA,NA,10,11,8,9,0.7,0.7
2026-06-18T0300,3734A,118.5753,37.4405,东营市,理想之城,NA,NA,NA,36,NA,20,NA,NA,183,NA,NA,16,NA,10,NA,0.5
2026-06-18T0300,1591A,110.0024,39.8127,鄂尔多斯市,综合楼,颗粒物(PM10),53,53,53,22,20,97,97,NA,NA,25,29,11,10,0.7,0.8
2026-06-18T0300,1592A,109.9485,39.8259,鄂尔多斯市,巴音孟克林场办事处,,38,24,46,16,18,120,120,NA,NA,10,24,5,6,0.4,0.4
2026-06-18T0300,1593A,109.7734,39.5987,鄂尔多斯市,康泽苑,NA,NA,NA,50,NA,18,NA,NA,174,NA,NA,12,NA,10,NA,0.4
2026-06-18T0300,1594A,109.8121,39.5987,鄂尔多斯市,华泰汽车城,,38,19,38,15,18,119,119,NA,NA,5,12,4,9,0.5,0.6
2026-06-18T0300,1595A,109.9734,39.7884,鄂尔多斯市,奥林花园,,36,36,43,22,18,101,101,NA,NA,18,18,5,6,0.4,0.5
2026-06-18T0300,2436A,114.894,30.3989,鄂州市,市政府,颗粒物(PM10),55,56,44,33,24,62,62,NA,NA,38,18,12,7,0.6,0.6
2026-06-18T0300,2437A,114.8986,30.3714,鄂州市,赵家坝,细颗粒物(PM2.5),54,47,42,37,26,87,87,NA,NA,16,14,13,8,0.6,0.6
2026-06-18T0300,3654A,114.8093,30.4091,鄂州市,精准医疗中心,,48,46,39,33,25,81,81,NA,NA,29,22,4,8,1.2,1.1
2026-06-18T0300,2454A,109.4978,30.2979,恩施土家族苗族自治州,湖北民院,,30,28,38,21,24,74,74,NA,NA,2,5,4,4,0.5,0.6
2026-06-18T0300,3549A,109.5061,30.3771,恩施土家族苗族自治州,龙凤新区,,32,32,28,16,23,36,36,NA,NA,4,6,6,6,0.5,0.6
2026-06-18T0300,2499A,108.3411,21.6159,防城港市,沙万,,39,39,22,20,11,18,18,NA,NA,47,21,6,5,0.6,0.6
2026-06-18T0300,2500A,108.3515,21.7733,防城港市,防城档案局,,22,22,19,11,11,39,39,NA,NA,7,10,4,5,0.6,0.7
2026-06-18T0300,2501A,108.3506,21.6414,防城港市,大海花园,NA,NA,52,24,3,7,58,58,NA,NA,18,13,NA,8,NA,0.7
2026-06-18T0300,1371A,113.1293,23.0065,佛山市,湾梁,,26,24,13,18,8,10,10,NA,NA,32,22,/,/,/,/
2026-06-18T0300,1372A,113.1082,23.0477,佛山市,华材职中,,26,22,10,18,8,21,21,NA,NA,20,13,7,6,0.3,0.3
2026-06-18T0300,1373A,113.1439,23.045,佛山市,南海气象局,,22,22,17,15,10,9,9,NA,NA,34,25,/,/,/,/
2026-06-18T0300,1374A,113.2879,22.8094,佛山市,顺德苏岗,,20,NA,6,14,7,17,17,NA,NA,17,12,/,/,0.7,0.7
2026-06-18T0300,1376A,112.8384,22.8678,佛山市,高明孔堂,,20,20,11,6,3,29,29,NA,NA,9,7,/,/,/,/
2026-06-18T0300,1377A,112.8835,23.1584,佛山市,三水监测站,,18,12,9,12,10,12,12,NA,NA,20,14,5,4,0.5,0.4
2026-06-18T0300,1378A,112.8668,23.185,佛山市,三水云东海,,20,20,16,7,8,13,13,NA,NA,17,15,/,/,/,/
2026-06-18T0300,3625A,113.2568,22.7629,佛山市,容桂街道办,NA,NA,NA,NA,NA,NA,21,21,NA,NA,23,20,/,/,/,/
2026-06-18T0300,1282A,119.2681,26.0506,福州市,师大,,9,8,17,3,4,28,28,NA,NA,8,14,3,4,0.3,0.4
2026-06-18T0300,1283A,119.2983,26.1028,福州市,五四北路,,14,14,19,7,8,20,20,NA,NA,16,19,4,4,0.3,0.4
2026-06-18T0300,1284A,119.2648,26.0769,福州市,杨桥西路,,13,13,19,3,6,21,21,NA,NA,13,16,3,3,/,/
2026-06-18T0300,3048A,119.5799,26.0937,福州市,九龙,NA,NA,18,17,3,3,NA,NA,NA,NA,13,7,5,5,0.2,0.1
2026-06-18T0300,3526A,119.5188,25.9666,福州市,吴航,,15,15,9,8,4,35,35,NA,NA,11,10,6,6,0.5,0.5
2026-06-18T0300,4104A,119.3106,26.0648,福州市,路通桥巷6号,,13,12,13,9,9,26,26,NA,NA,8,12,/,/,/,/
2026-06-18T0300,1755A,123.7974,41.8494,抚顺市,望花区,细颗粒物(PM2.5),56,39,26,38,26,22,22,NA,NA,20,19,2,4,0.9,0.5
2026-06-18T0300,1756A,123.9161,41.8827,抚顺市,顺城区,,33,NA,21,23,19,10,10,NA,NA,31,21,9,10,0.7,0.8
2026-06-18T0300,1757A,124.0437,41.8615,抚顺市,东洲区,,29,29,22,18,16,33,33,NA,NA,10,11,10,11,0.5,0.5
2026-06-18T0300,1758A,123.9246,41.8638,抚顺市,新抚区,,32,22,22,22,20,6,6,NA,NA,28,16,6,6,0.7,0.8
2026-06-18T0300,1759A,124.0972,41.8961,抚顺市,大伙房水库,,22,20,19,15,15,35,35,NA,NA,11,10,10,10,0.6,0.6
2026-06-18T0300,1760A,123.708,41.8386,抚顺市,沈抚新城,细颗粒物(PM2.5),60,NA,27,40,25,27,27,NA,NA,22,18,9,9,1.3,0.8
2026-06-18T0300,2377A,116.3544,27.9833,抚州市,市站,NA,NA,29,39,8,25,NA,NA,NA,NA,1,6,3,4,0.6,0.8
2026-06-18T0300,2378A,116.3562,27.9631,抚州市,血防站,,18,18,37,3,22,36,36,NA,NA,6,9,4,5,0.5,0.7
2026-06-18T0300,2379A,116.3561,28.0007,抚州市,采茶剧团,,17,17,40,3,24,38,38,NA,NA,6,10,8,8,0.4,0.7
2026-06-18T0300,2380A,116.3854,27.9648,抚州市,医学分院,,22,22,38,3,18,34,34,NA,NA,3,7,4,5,0.6,0.8
2026-06-18T0300,2207A,121.6095,41.9978,阜新市,工业园区,,46,33,20,32,14,49,49,NA,NA,23,10,14,8,0.4,0.4
2026-06-18T0300,2208A,121.6567,42.0188,阜新市,长青街,,43,NA,16,30,14,53,53,NA,NA,17,9,9,9,0.7,0.5
2026-06-18T0300,2209A,121.6672,42.07,阜新市,农业园区,,45,45,22,25,12,87,87,NA,NA,9,7,6,5,0.9,0.8
2026-06-18T0300,2211A,121.6343,42.0455,阜新市,玉龙新城,,45,35,20,31,13,21,21,NA,NA,17,7,5,5,0.8,0.6
2026-06-18T0300,2301A,115.8276,32.8929,阜阳市,市监测站,NA,NA,50,41,26,19,51,51,NA,NA,26,17,NA,7,0.4,0.4
2026-06-18T0300,2303A,115.8551,32.8606,阜阳市,开发区,NA,NA,46,42,28,20,63,63,NA,NA,18,14,NA,5,0.5,0.5
2026-06-18T0300,2875A,115.783962,32.889217,阜阳市,阜阳职业技术学院,,44,44,36,21,17,79,79,NA,NA,11,9,8,8,0.4,0.4
2026-06-18T0300,3468A,115.79,32.8614,阜阳市,市规划展馆,,42,42,38,23,17,74,74,NA,NA,15,13,10,8,0.4,0.5
2026-06-18T0300,3469A,115.835101,32.918568,阜阳市,枣园社区,NA,NA,50,41,31,22,59,59,NA,NA,21,14,NA,8,0.7,0.6
2026-06-18T0300,2669A,102.9097,34.9841,甘南藏族自治州,州政府,,30,27,32,14,16,95,95,NA,NA,3,9,3,4,0.2,0.3
2026-06-18T0300,3380A,102.8915,34.9618,甘南藏族自治州,甘肃民族师范学院,,33,19,38,14,20,104,104,NA,NA,6,17,2,3,0.3,0.3
2026-06-18T0300,2570A,101.96,30.048,甘孜藏族自治州,水桥子,,10,8,8,3,4,24,24,NA,NA,19,10,9,7,0.3,0.2
2026-06-18T0300,3065A,101.9534,29.9976,甘孜藏族自治州,州环保局,,13,NA,9,6,4,39,39,NA,NA,12,12,5,5,0.2,0.2
2026-06-18T0300,2363A,114.9368,25.8663,赣州市,地委,NA,NA,14,25,3,11,NA,NA,NA,NA,2,4,1,1,0.2,0.4
2026-06-18T0300,2364A,114.946,25.8483,赣州市,气象台,,16,13,23,3,17,51,51,NA,NA,2,8,3,4,0.2,0.2
2026-06-18T0300,2365A,114.932,25.8332,赣州市,市图书馆,,15,8,20,3,10,45,45,NA,NA,2,6,4,4,0.5,0.6
2026-06-18T0300,2366A,114.8905,25.8472,赣州市,华坚鞋城,,14,12,28,3,12,42,42,NA,NA,4,9,2,1,0.0,0.2
2026-06-18T0300,3109A,115.0094,25.8614,赣州市,赣县区卫计委,,10,6,17,3,10,30,30,NA,NA,4,5,2,2,0.2,0.3
2026-06-18T0300,2684A,106.2753,36.0057,固原市,监测站,,34,34,30,17,18,59,59,NA,NA,17,14,8,8,0.3,0.2
2026-06-18T0300,2685A,106.2384,36.0189,固原市,新区,,26,26,28,15,16,58,58,NA,NA,12,11,5,6,0.5,0.5
2026-06-18T0300,2544A,106.6307,30.4577,广安市,市委,,24,NA,22,16,16,75,75,NA,NA,4,7,5,5,0.3,0.3
2026-06-18T0300,2545A,106.6266,30.4662,广安市,友谊中学,,25,18,25,10,16,77,77,NA,NA,3,6,8,8,0.3,0.4
2026-06-18T0300,2547A,106.6386,30.4551,广安市,广电花园,NA,NA,17,21,14,18,79,79,NA,NA,4,7,NA,7,0.4,0.4
2026-06-18T0300,2902A,106.6347,30.4868,广安市,北辰小学,NA,NA,12,23,12,17,76,76,NA,NA,4,7,NA,6,0.3,0.4
2026-06-18T0300,2524A,105.8211,32.4444,广元市,老城,,23,23,38,10,26,41,41,NA,NA,11,23,6,7,0.5,0.7
2026-06-18T0300,2526A,105.8629,32.429,广元市,监测站,,38,38,47,15,26,18,18,NA,NA,18,21,10,10,0.7,0.8
2026-06-18T0300,3617A,105.8047,32.4167,广元市,经开区,,19,19,38,11,26,35,35,NA,NA,15,23,5,9,0.6,0.7
2026-06-18T0300,1345A,113.2346,23.1423,广州市,广雅中学,,17,17,12,11,7,23,23,NA,NA,21,17,4,4,0.5,0.6
2026-06-18T0300,1346A,113.2611,23.105,广州市,市五中,,14,12,12,8,7,19,19,NA,NA,28,17,4,3,/,/
2026-06-18T0300,1348A,113.3477,23.0916,广州市,广东商学院,,21,21,10,13,6,18,18,NA,NA,23,18,4,4,0.4,0.4
2026-06-18T0300,1349A,113.4332,23.105,广州市,市八十六中,NA,NA,12,7,3,3,28,28,NA,NA,20,21,NA,6,/,/
2026-06-18T0300,1350A,113.3506,22.9488,广州市,番禺中学,,12,12,10,3,4,22,22,NA,NA,23,17,4,4,0.5,0.6
2026-06-18T0300,1351A,113.2147,23.3918,广州市,花都师范,,18,18,14,10,8,23,23,NA,NA,18,14,3,3,0.2,0.2
2026-06-18T0300,1352A,113.2599,23.1329,广州市,市监测站,,15,15,12,8,7,24,24,NA,NA,22,18,3,3,/,/
2026-06-18T0300,1353A,113.5618,23.3119,广州市,九龙镇镇龙,,21,21,12,12,7,8,8,NA,NA,30,22,7,6,0.6,0.6
2026-06-18T0300,1354A,113.2764,23.1544,广州市,麓湖,NA,NA,14,10,6,5,28,28,NA,NA,16,14,NA,6,0.6,0.6
2026-06-18T0300,2846A,113.3209,23.1323,广州市,体育西,NA,NA,16,12,7,6,NA,NA,NA,NA,24,23,6,4,0.4,0.5
2026-06-18T0300,3298A,113.5718,23.5493,广州市,从化街口,NA,NA,10,9,3,5,31,31,NA,NA,14,13,NA,6,0.4,0.4
2026-06-18T0300,3299A,113.3463,23.369,广州市,白云竹料,,19,19,14,9,6,37,37,NA,NA,17,17,2,2,0.5,0.5
2026-06-18T0300,3300A,113.2981,23.2365,广州市,白云嘉禾,,16,16,12,9,8,15,15,NA,NA,30,21,11,10,/,/
2026-06-18T0300,3301A,113.4256,23.1716,广州市,黄埔科学城,,17,17,9,7,5,20,20,NA,NA,27,19,9,8,0.4,0.4
2026-06-18T0300,3302A,113.3942,23.0485,广州市,番禺大学城,,18,18,12,3,2,30,30,NA,NA,24,17,6,4,0.4,0.4
2026-06-18T0300,3303A,113.4923,22.8169,广州市,南沙黄阁,,19,9,9,3,4,59,59,NA,NA,12,11,6,6,/,/
2026-06-18T0300,3304A,113.534,22.7893,广州市,南沙街,,15,10,11,3,4,45,45,NA,NA,12,10,8,7,0.2,0.2
2026-06-18T0300,3443A,113.2905,23.5541,广州市,花都梯面,,20,20,11,8,6,30,30,NA,NA,17,14,9,9,/,/
2026-06-18T0300,3445A,113.786,23.7479,广州市,从化良口,,12,11,9,3,3,38,38,NA,NA,11,11,4,4,/,/
2026-06-18T0300,3446A,113.805,23.2614,广州市,增城荔城,,22,22,18,10,10,17,17,NA,NA,24,20,7,6,0.4,0.4
2026-06-18T0300,2506A,109.604387,23.066791,贵港市,江南子站,,44,44,18,23,14,10,10,NA,NA,22,15,8,4,0.7,0.7
2026-06-18T0300,2508A,109.5669,23.1065,贵港市,荷城子站,,19,NA,6,13,9,19,19,NA,NA,12,13,6,5,0.6,0.7
2026-06-18T0300,3405A,109.5886,23.1172,贵港市,新世纪学校,,22,19,7,15,9,15,15,NA,NA,10,8,/,/,0.6,0.6
2026-06-18T0300,4260A,109.5933,23.095,贵港市,中山路155-3号,,26,26,20,16,12,12,12,NA,NA,16,13,/,/,0.6,0.6
2026-06-18T0300,1439A,106.6863,26.6035,贵阳市,马鞍山,,17,7,20,7,12,54,54,NA,NA,5,9,8,7,/,/
2026-06-18T0300,1441A,106.6241,26.6266,贵阳市,鉴湖路,,19,19,32,3,11,59,59,NA,NA,3,8,7,8,0.6,0.6
2026-06-18T0300,1442A,106.7468,26.6344,贵阳市,燕子冲,,16,9,30,9,14,51,51,NA,NA,8,13,7,8,0.5,0.6
2026-06-18T0300,1443A,106.6556,26.4362,贵阳市,碧云窝,,22,22,33,3,12,56,56,NA,NA,3,7,6,7,/,/
2026-06-18T0300,1445A,106.6963,26.6063,贵阳市,红边门,,16,9,26,9,13,50,50,NA,NA,5,13,5,7,/,/
2026-06-18T0300,1446A,106.7162383,26.56964667,贵阳市,新华路,,12,12,33,8,13,36,36,NA,NA,7,13,7,18,0.3,0.4
2026-06-18T0300,1447A,106.6742,26.542,贵阳市,太慈桥,,16,7,22,3,13,49,49,NA,NA,5,11,4,4,/,/
2026-06-18T0300,4230A,106.688212,26.56952,贵阳市,花果园大街66号,,19,NA,26,9,15,58,58,NA,NA,4,12,2,3,/,/
2026-06-18T0300,4231A,106.687268,26.516892,贵阳市,漓江路57号,,15,6,21,3,13,46,46,NA,NA,5,13,2,3,0.5,0.6
2026-06-18T0300,1864A,110.3091,25.2705,桂林市,龙隐路小学,,14,8,30,3,21,42,42,NA,NA,4,6,4,6,0.4,0.5
2026-06-18T0300,1865A,110.2849361,25.22909545,桂林市,八中,,13,12,32,3,13,41,41,NA,NA,6,9,4,10,0.6,0.6
2026-06-18T0300,3531A,110.296,25.1254,桂林市,旅游学院,,28,28,29,8,18,35,35,NA,NA,1,3,9,9,0.3,0.4
2026-06-18T0300,4222A,110.1835,25.2444,桂林市,环湖路276号,,18,NA,28,12,23,40,40,NA,NA,4,10,6,11,0.4,0.5
2026-06-18T0300,4301A,110.2803,25.2773,桂林市,信义路13号,,13,8,32,6,19,39,39,NA,NA,4,7,5,8,0.6,0.7
2026-06-18T0300,2674A,100.2262,34.4854,果洛藏族自治州,玛沁县大武镇,,28,28,19,9,8,63,63,NA,NA,2,2,14,16,0.4,0.4
2026-06-18T0300,1130A,126.5557,45.8109,哈尔滨市,松北商大,,24,24,22,11,21,39,39,NA,NA,12,13,5,5,0.7,0.8
2026-06-18T0300,1132A,126.6162,45.719,哈尔滨市,南岗学府路,,38,36,35,26,20,53,53,NA,NA,20,17,6,6,0.6,0.6
2026-06-18T0300,1133A,126.6894,45.7733,哈尔滨市,太平宏伟公园,,28,28,30,11,12,36,36,NA,NA,28,19,6,6,0.4,0.3
2026-06-18T0300,1134A,126.6361,45.7672,哈尔滨市,道外承德广场,颗粒物(PM10),52,52,47,6,12,50,50,NA,NA,19,21,4,4,0.0,0.2
2026-06-18T0300,1136A,126.644,45.7261,哈尔滨市,动力和平路,,35,35,33,6,13,53,53,NA,NA,20,19,5,5,0.3,0.4
2026-06-18T0300,1137A,126.5933,45.7479,哈尔滨市,道里建国路,,36,36,33,17,18,55,55,NA,NA,21,18,4,4,0.5,1
2026-06-18T0300,1138A,126.6127,45.6119,哈尔滨市,平房东轻厂,,16,14,10,3,8,50,50,NA,NA,8,7,5,4,0.8,0.7
2026-06-18T0300,1139A,126.5875,45.9827,哈尔滨市,呼兰师专,,25,25,29,16,16,50,50,NA,NA,25,20,7,7,0.4,0.4
2026-06-18T0300,1140A,126.6299,45.6799,哈尔滨市,省农科院,,31,31,44,16,17,38,38,NA,NA,33,25,5,5,0.3,0.3
2026-06-18T0300,4282A,126.6769,45.7379,哈尔滨市,华山路1号,,19,19,18,8,11,50,50,NA,NA,26,16,9,9,0.2,0.2
2026-06-18T0300,4283A,126.9717,45.5356,哈尔滨市,解放大街52号,,22,22,20,6,6,54,54,NA,NA,13,9,4,4,0.3,0.3
2026-06-18T0300,2688A,93.5124,42.8176,哈密市,地区监测站,颗粒物(PM10),52,52,219,13,75,101,101,NA,NA,4,5,3,6,0.0,0.1
2026-06-18T0300,2689A,93.5014,42.8312,哈密市,哈密师范学校,,33,27,186,22,65,103,103,NA,NA,6,7,5,6,0,0
2026-06-18T0300,2671A,100.9016,36.9464,海北藏族自治州,海晏县西海镇,,18,14,19,6,10,57,57,NA,NA,8,4,7,7,0.3,0.4
2026-06-18T0300,3867A,102.074,36.5056,海东市,平安区公安局北苑,,26,26,27,16,18,72,72,NA,NA,5,10,8,12,0.6,0.6
2026-06-18T0300,4163A,102.0984,36.5119,海东市,滨河路,,25,20,24,17,14,25,25,NA,NA,46,25,8,9,0.8,0.7
2026-06-18T0300,1410A,110.3189,20.0596,海口市,海南大学,,29,23,22,20,17,62,62,NA,NA,4,7,4,5,0.4,0.4
2026-06-18T0300,1411A,110.2827,20.0051,海口市,秀英海南医院,,28,28,23,19,16,56,56,NA,NA,4,10,5,5,0.3,0.3
2026-06-18T0300,1412A,110.3391,19.9979,海口市,海南师范大学,,30,30,28,11,13,54,54,NA,NA,5,7,3,3,0.4,0.5
2026-06-18T0300,1413A,110.3303,20.0359,海口市,龙华路环保局宿舍,,27,27,24,14,13,62,62,NA,NA,4,7,/,/,0.3,0.3
2026-06-18T0300,3539A,110.5111,19.9737,海口市,桂林洋子站,,27,27,26,13,11,61,61,NA,NA,3,5,/,/,/,/
2026-06-18T0300,4134A,110.1952,20.0451,海口市,长滨二路9号,,28,28,26,11,15,48,48,NA,NA,4,8,/,/,/,/
2026-06-18T0300,2673A,100.6158,36.2985,海南藏族自治州,共和县恰卜恰镇,,26,26,25,14,15,59,59,NA,NA,7,9,8,11,0.4,0.4
2026-06-18T0300,2676A,97.373,37.376,海西蒙古族藏族自治州,德令哈市,,31,16,16,7,9,99,99,NA,NA,1,2,18,18,0.4,0.4
2026-06-18T0300,1049A,114.492,36.5712,邯郸市,矿院,,48,46,35,33,25,102,102,NA,NA,20,14,6,4,0.3,0.4
2026-06-18T0300,1050A,114.4839,36.6136,邯郸市,丛台公园,,38,38,35,18,20,111,111,NA,NA,14,10,6,7,0.4,0.4
2026-06-18T0300,3458A,114.7893,36.5592,邯郸市,香泉濮院小区,细颗粒物(PM2.5),58,44,38,39,26,92,92,NA,NA,23,17,3,3,0.1,0.1
2026-06-18T0300,3580A,114.1998,36.4439,邯郸市,峰峰矿区临水派出所,细颗粒物(PM2.5),52,48,42,36,26,118,118,NA,NA,17,14,5,5,0.3,0.3
2026-06-18T0300,4068A,114.5209,36.7697,邯郸市,建安街268号,细颗粒物(PM2.5),92,70,47,56,22,74,74,NA,NA,23,14,3,3,0.5,0.4
2026-06-18T0300,4069A,114.5488,36.6177,邯郸市,丛台东路558号,,50,50,37,32,23,94,94,NA,NA,21,12,6,4,0.4,0.4
2026-06-18T0300,2635A,107.0155,33.0707,汉中市,市监测站,,28,28,30,19,23,58,58,NA,NA,6,9,4,6,0.3,0.5
2026-06-18T0300,2636A,107.0083,33.114,汉中市,鑫源开发区,NA,NA,28,30,23,25,26,26,NA,NA,17,13,NA,8,0.3,0.5
2026-06-18T0300,2637A,107.0072,33.0323,汉中市,南郑大河坎水厂,,32,27,29,22,22,50,50,NA,NA,11,13,3,5,0.7,0.8
2026-06-18T0300,1223A,120.2073,30.2111,杭州市,滨江,细颗粒物(PM2.5),84,70,59,52,40,49,49,NA,NA,35,31,7,5,0.6,0.6
2026-06-18T0300,1224A,120.0625,30.2737,杭州市,西溪,细颗粒物(PM2.5),66,45,46,43,38,15,15,NA,NA,14,16,5,4,1.2,1.1
2026-06-18T0300,1226A,120.3417,30.315,杭州市,下沙,细颗粒物(PM2.5),76,NA,45,48,44,84,84,NA,NA,24,25,4,4,0.8,0.8
2026-06-18T0300,1227A,120.1252,30.2465,杭州市,卧龙桥,细颗粒物(PM2.5),64,42,47,42,37,12,12,NA,NA,16,14,8,8,0.6,0.6
2026-06-18T0300,1228A,120.1902,30.2691,杭州市,浙江农大,NA,NA,NA,52,50,43,50,50,NA,NA,30,29,NA,6,0.6,0.5
2026-06-18T0300,1230A,120.1195,30.3121,杭州市,和睦小学,NA,NA,45,45,44,38,69,69,NA,NA,22,23,NA,7,0.7,0.7
2026-06-18T0300,1231A,120.3076,30.4146,杭州市,临平镇,细颗粒物(PM2.5),68,63,56,44,36,77,77,NA,NA,27,21,6,7,0.5,0.5
2026-06-18T0300,1232A,120.2753,30.1839,杭州市,城厢镇,细颗粒物(PM2.5),82,54,66,51,53,55,55,NA,NA,32,29,7,6,0.7,0.6
2026-06-18T0300,1233A,120.0883,30.1808,杭州市,云栖,细颗粒物(PM2.5),68,50,55,44,38,18,18,NA,NA,28,20,8,8,0.8,0.8
2026-06-18T0300,3557A,119.9463,30.0496,杭州市,镇二中,细颗粒物(PM2.5),84,59,55,52,39,54,54,NA,NA,27,26,5,5,0.7,0.7
2026-06-18T0300,3558A,119.7184,30.2367,杭州市,市府大楼,细颗粒物(PM2.5),80,NA,40,50,36,40,40,NA,NA,21,15,9,7,0.8,0.7
2026-06-18T0300,3656A,120.1554,30.2863,杭州市,消防大队,细颗粒物(PM2.5),70,47,50,45,41,62,62,NA,NA,23,21,9,8,0.6,0.6
2026-06-18T0300,1270A,117.1957,31.7845,合肥市,明珠广场,,36,36,37,25,20,96,96,NA,NA,20,12,10,9,0.6,0.6
2026-06-18T0300,1271A,117.307,31.8765,合肥市,三里街,,34,34,39,20,22,83,83,NA,NA,23,19,10,10,0.6,0.7
2026-06-18T0300,1272A,117.2587,31.8703,合肥市,琥珀山庄,,36,36,37,21,20,88,88,NA,NA,19,12,8,8,0.9,0.9
2026-06-18T0300,1275A,117.2593,31.9376,合肥市,庐阳区,,41,41,36,21,18,56,56,NA,NA,38,22,9,9,0.9,0.9
2026-06-18T0300,1276A,117.345251,31.861615,合肥市,瑶海区,,39,39,41,17,19,78,78,NA,NA,28,21,8,9,0.6,0.7
2026-06-18T0300,1277A,117.3033,31.7967,合肥市,包河区,,45,44,41,20,18,28,28,NA,NA,89,34,11,9,0.6,0.7
2026-06-18T0300,1278A,117.278,31.7392,合肥市,滨湖新区,,34,34,35,20,16,95,95,NA,NA,15,12,11,12,0.7,0.6
2026-06-18T0300,1279A,117.1324,31.8395,合肥市,高新区,,41,41,40,24,19,99,99,NA,NA,23,17,10,8,0.6,0.7
2026-06-18T0300,3464A,117.3802,31.9148,合肥市,高教基地,,31,31,34,20,17,58,58,NA,NA,20,13,5,5,0.5,0.7
2026-06-18T0300,4098A,117.2518,31.8404,合肥市,中国科学技术大学,,41,41,36,24,18,94,94,NA,NA,26,15,12,10,0.6,0.7
2026-06-18T0300,3614A,79.9241,37.0878,和田地区,地区环保局,颗粒物(PM10),98,117,410,38,48,91,91,NA,NA,4,4,5,5,0.2,0.2
2026-06-18T0300,3615A,79.9132,37.1137,和田地区,市环保局,颗粒物(PM10),105,132,372,35,112,92,92,NA,NA,12,4,3,2,0.3,0.3
2026-06-18T0300,2517A,108.0496,24.6957,河池市,市环保站,,13,7,25,3,14,39,39,NA,NA,6,7,5,6,0.7,0.8
2026-06-18T0300,4302A,108.0901,24.6945,河池市,上任中路54号,,10,NA,25,3,13,32,32,NA,NA,6,10,3,4,0.7,0.8
2026-06-18T0300,1697A,114.6962,23.7538,河源市,东埔,NA,NA,14,10,3,8,30,30,NA,NA,11,11,NA,4,0.6,0.6
2026-06-18T0300,1698A,114.6895,23.7232,河源市,老城,,13,NA,13,9,8,30,30,NA,NA,14,12,6,6,0.8,0.8
2026-06-18T0300,3374A,115.5562,35.089,菏泽市,定陶老年大学,NA,NA,34,37,21,17,NA,NA,NA,NA,15,15,5,5,0.2,0.2
2026-06-18T0300,4114A,115.4239,35.2593,菏泽市,黄河路600号,,40,40,41,21,17,88,88,NA,NA,8,8,6,5,0.3,0.3
2026-06-18T0300,4115A,115.5025,35.2727,菏泽市,菏泽市人社局,NA,NA,35,36,28,20,NA,NA,NA,NA,15,15,7,7,0.3,0.3
2026-06-18T0300,4184A,115.479691,35.244011,菏泽市,永昌路1号,,45,45,46,22,18,86,86,NA,NA,12,13,6,6,0.1,0.2
2026-06-18T0300,4193A,115.471542,35.280012,菏泽市,长城路999号,,34,34,38,21,21,82,82,NA,NA,11,10,10,10,0.4,0.4
2026-06-18T0300,2514A,111.5264,24.4178,贺州市,环保小区,,16,16,18,8,10,31,31,NA,NA,10,9,8,9,0.3,0.4
2026-06-18T0300,2515A,111.561,24.4074,贺州市,政协大楼,,13,13,11,9,9,31,31,NA,NA,13,12,12,12,0.6,0.6
2026-06-18T0300,3534A,111.4744,24.455,贺州市,西湾,,13,13,34,3,9,30,30,NA,NA,11,10,9,10,0.3,0.4
2026-06-18T0300,2385A,114.17,35.9019,鹤壁市,市监测站,细颗粒物(PM2.5),52,41,50,36,32,101,101,NA,NA,12,10,5,5,0.3,0.5
2026-06-18T0300,2386A,114.2953,35.7512,鹤壁市,市交警支队,细颗粒物(PM2.5),74,61,49,47,35,65,65,NA,NA,41,19,3,5,0.5,0.4
2026-06-18T0300,2387A,114.2877,35.7302,鹤壁市,迎宾馆,细颗粒物(PM2.5),72,56,46,46,29,68,68,NA,NA,29,17,11,8,0.6,0.5
2026-06-18T0300,3474A,114.2616,35.6824,鹤壁市,大新区,颗粒物(PM10),53,53,45,34,30,56,56,NA,NA,59,25,5,5,0.6,0.5
2026-06-18T0300,3596A,114.1573,35.9607,鹤壁市,南山宾馆,细颗粒物(PM2.5),96,NA,49,58,45,115,115,NA,NA,23,12,24,10,0.6,0.6
2026-06-18T0300,2244A,130.2537,47.3416,鹤岗市,哈啤分公司,NA,NA,21,17,9,13,NA,NA,NA,NA,7,10,5,6,0.1,0.1
2026-06-18T0300,2245A,130.2683,47.3087,鹤岗市,斯达机电,NA,NA,16,23,6,13,NA,NA,NA,NA,7,9,4,4,0.2,0.3
2026-06-18T0300,2246A,130.3114,47.3388,鹤岗市,东山纸板厂,,20,20,23,13,14,9,9,NA,NA,13,15,6,5,0.5,0.4
2026-06-18T0300,2263A,127.4832,50.2524,黑河市,交通局,,15,15,26,10,13,15,15,NA,NA,13,22,5,5,0.5,0.5
2026-06-18T0300,2264A,127.5146,50.2339,黑河市,环保局,,23,23,26,12,14,23,23,NA,NA,14,16,7,7,0.3,0.3
2026-06-18T0300,1074A,115.6839,37.754,衡水市,电机北厂,细颗粒物(PM2.5),86,84,64,53,32,63,63,NA,NA,35,17,8,7,0.4,0.5
2026-06-18T0300,1075A,115.6303,37.7318,衡水市,市监测站,NA,NA,74,59,44,25,81,81,NA,NA,24,15,NA,4,0.5,0.6
2026-06-18T0300,3188A,115.6684,37.7216,衡水市,市城管局,细颗粒物(PM2.5),82,86,61,51,30,64,64,NA,NA,31,15,3,5,0.3,0.4
2026-06-18T0300,3459A,115.599,37.5491,衡水市,地表水厂,细颗粒物(PM2.5),64,65,62,42,26,2,2,NA,NA,99,29,9,7,0.3,0.3
2026-06-18T0300,2457A,112.6209,26.9268,衡阳市,衡阳化工总厂,,18,18,39,7,23,52,52,NA,NA,6,8,14,14,0.8,1
2026-06-18T0300,2458A,112.621,26.8957,衡阳市,珠晖区环保局,,27,27,41,6,21,52,52,NA,NA,5,11,7,8,0.8,0.9
2026-06-18T0300,2459A,112.628,26.8654,衡阳市,市委党校,NA,NA,13,35,3,24,51,51,NA,NA,5,6,NA,11,0.6,0.8
2026-06-18T0300,2460A,112.6007,26.8977,衡阳市,市监测站,NA,NA,16,40,8,23,55,55,NA,NA,8,9,NA,10,0.7,0.9
2026-06-18T0300,2461A,112.5658,26.9013,衡阳市,真空机电公司,,18,13,36,7,23,55,55,NA,NA,6,8,6,7,0.7,0.9
2026-06-18T0300,3399A,112.6703,26.8817,衡阳市,师范学院,NA,NA,19,39,10,27,53,53,NA,NA,5,7,NA,10,0.4,0.6
2026-06-18T0300,3038A,103.3757,23.3679,红河哈尼族彝族自治州,州图书馆,,14,NA,12,9,8,42,42,NA,NA,3,4,3,4,0.2,0.2
2026-06-18T0300,4154A,103.401,23.3561,红河哈尼族彝族自治州,蒙自市朝阳路,,14,10,13,9,8,44,44,NA,NA,2,3,6,6,0.3,0.3
2026-06-18T0300,1090A,111.6506,40.7517,呼和浩特市,呼市一监,,33,NA,16,20,9,104,104,NA,NA,16,10,10,9,0.5,0.3
2026-06-18T0300,1094A,111.7516,40.8369,呼和浩特市,如意水处理厂,,34,34,18,16,10,95,95,NA,NA,16,14,7,8,0.6,0.6
2026-06-18T0300,1095A,111.727798,40.806187,呼和浩特市,二十九中,,31,31,17,15,10,93,93,NA,NA,17,12,10,9,0.8,0.6
2026-06-18T0300,1097A,111.717,40.7617,呼和浩特市,化肥厂生活区,NA,NA,36,21,15,13,NA,NA,NA,NA,18,13,12,10,0.9,0.6
2026-06-18T0300,3699A,111.6519,40.8389,呼和浩特市,海东办,,31,31,18,15,6,61,61,NA,NA,24,14,6,6,0.6,0.5
2026-06-18T0300,4275A,111.591512,40.827312,呼和浩特市,成吉思汗西街8号,,31,31,20,13,6,90,90,NA,NA,22,24,4,5,0.4,0.3
2026-06-18T0300,4276A,111.6597,40.8077,呼和浩特市,公园东路75号,NA,NA,29,16,11,8,NA,NA,NA,NA,19,12,10,10,0.6,0.5
2026-06-18T0300,4277A,111.5427,40.7846,呼和浩特市,金海路35号,,36,33,23,25,11,59,59,NA,NA,31,19,5,5,0.6,0.4
2026-06-18T0300,3061A,119.7511,49.1576,呼伦贝尔市,国华电力东,,32,32,33,13,14,65,65,NA,NA,8,10,4,4,0.3,0.3
2026-06-18T0300,4279A,119.7569,49.2222,呼伦贝尔市,伊敏大街东7号,,27,27,22,16,14,70,70,NA,NA,8,13,6,6,0.5,0.5
2026-06-18T0300,1250A,120.075,30.867,湖州市,城西水厂,细颗粒物(PM2.5),108,83,38,68,30,93,93,NA,NA,25,21,NA,4,0.6,0.5
2026-06-18T0300,2873A,120.083,30.8929,湖州市,仁皇山新区,NA,NA,69,31,59,25,92,92,NA,NA,24,16,NA,5,0.6,0.5
2026-06-18T0300,2907A,120.1846,30.8592,湖州市,吴兴区站,NA,NA,47,33,44,30,NA,NA,NA,NA,10,9,8,6,0.7,0.6
2026-06-18T0300,3562A,120.4146,30.8538,湖州市,南浔区站,细颗粒物(PM2.5),64,43,33,42,36,93,93,NA,NA,15,14,14,8,0.6,0.6
2026-06-18T0300,1607A,120.904878,40.721091,葫芦岛市,龙港区,颗粒物(PM10),55,56,30,22,24,86,86,NA,NA,9,10,8,9,0.7,0.6
2026-06-18T0300,1608A,120.8382,40.7521,葫芦岛市,化工街,,48,48,30,25,23,42,42,NA,NA,31,27,7,7,0.5,0.4
2026-06-18T0300,1609A,120.8339,40.7078,葫芦岛市,新区,颗粒物(PM10),51,51,35,30,28,60,60,NA,NA,14,12,4,4,0.6,0.6
2026-06-18T0300,1610A,120.8697,40.7679,葫芦岛市,东城区,颗粒物(PM10),60,64,36,36,30,15,15,NA,NA,46,28,13,10,0.8,0.7
2026-06-18T0300,2483A,109.9297,27.5383,怀化市,河西地税局,,40,40,34,25,24,43,43,NA,NA,7,8,6,7,/,/
2026-06-18T0300,2484A,109.9783,27.5342,怀化市,市四医院,细颗粒物(PM2.5),58,50,38,39,23,50,50,NA,NA,15,12,8,7,0.5,0.6
2026-06-18T0300,2485A,109.9971,27.5579,怀化市,监测楼,,45,37,37,31,27,59,59,NA,NA,14,8,8,9,0.6,0.6
2026-06-18T0300,1210A,119.0566,33.5991,淮安市,钵池山,NA,NA,29,28,28,22,26,26,NA,NA,20,12,NA,9,0.8,0.9
2026-06-18T0300,1211A,119.0083,33.578,淮安市,北京南路,,35,31,30,24,19,27,27,NA,NA,17,7,7,7,0.8,0.8
2026-06-18T0300,1212A,118.9938,33.6083,淮安市,市监测站,NA,NA,NA,16,23,19,35,35,NA,NA,15,11,NA,6,1.1,1
2026-06-18T0300,1213A,119.135,33.5038,淮安市,楚州区监测站,,42,34,29,29,22,24,24,NA,NA,19,9,5,5,0.5,0.5
2026-06-18T0300,3426A,118.8757,33.2897,淮安市,新华书店,,19,19,21,13,14,31,31,NA,NA,17,12,9,7,0.7,0.7
2026-06-18T0300,4092A,119.119691,33.550006,淮安市,枚皋中路89号,,43,NA,31,30,24,30,30,NA,NA,17,10,8,8,0.7,0.7
2026-06-18T0300,4206A,119.028838,33.631911,淮安市,承德北路606号,NA,NA,31,30,28,20,30,30,NA,NA,15,10,NA,6,0.6,0.6
2026-06-18T0300,2282A,116.8005,33.9749,淮北市,监测站,,43,43,30,13,17,88,88,NA,NA,7,6,7,6,0.4,0.2
2026-06-18T0300,2283A,116.8094,33.9008,淮北市,烈山区政府,,32,32,32,15,11,85,85,NA,NA,6,8,4,5,0.4,0.5
2026-06-18T0300,4017A,116.7926,33.9534,淮北市,市博物馆,,34,34,27,16,16,86,86,NA,NA,5,4,9,3,0.6,0.5
2026-06-18T0300,4100A,116.8322,33.9884,淮北市,杜集区第一实验学校,,42,42,41,16,13,85,85,NA,NA,5,5,4,4,0.5,0.4
2026-06-18T0300,2277A,116.8304,32.7726,淮南市,潘集区政府,,48,46,38,33,20,42,42,NA,NA,19,13,7,8,0.5,0.4
2026-06-18T0300,2279A,116.8569,32.5949,淮南市,谢家集区政府,,28,28,27,13,17,76,76,NA,NA,13,12,8,8,0.3,0.3
2026-06-18T0300,2280A,116.8279,32.6333,淮南市,八公山区政府,NA,NA,23,39,13,18,80,80,NA,NA,10,9,NA,7,0.4,0.3
2026-06-18T0300,2894A,117.0561,32.6536,淮南市,经济技术开发区消防队,,30,26,31,21,21,57,57,NA,NA,16,11,23,14,0.5,0.4
2026-06-18T0300,3329A,117.011,32.5891,淮南市,山南新区,,26,20,26,18,18,69,69,NA,NA,10,8,10,11,0.4,0.3
2026-06-18T0300,4209A,117.003137,32.644456,淮南市,国庆中路369号,,31,31,36,20,18,60,60,NA,NA,14,12,11,10,0.2,0.2
2026-06-18T0300,2446A,114.9021,30.474,黄冈市,职工中心,,49,39,32,34,26,73,73,NA,NA,6,6,9,10,0.7,0.6
2026-06-18T0300,2929A,114.8858,30.4519,黄冈市,红卫路,,49,36,32,34,28,77,77,NA,NA,10,11,9,8,0.7,0.5
2026-06-18T0300,3398A,114.9134,30.4446,黄冈市,市林业局,细颗粒物(PM2.5),54,38,41,37,30,94,94,NA,NA,8,12,10,6,0.4,0.5
2026-06-18T0300,2672A,102.02,35.5101,黄南藏族自治州,同仁县隆务镇,,28,25,28,11,12,88,88,NA,NA,1,1,10,10,0.2,0.2
2026-06-18T0300,2295A,118.2905,29.6965,黄山市,延安路89号,,20,20,19,12,11,12,12,NA,NA,14,8,6,6,0.5,0.4
2026-06-18T0300,2297A,118.1369,30.2755,黄山市,黄山区政府5号楼,,28,19,19,19,13,13,13,NA,NA,6,4,4,3,0.4,0.4
2026-06-18T0300,4210A,118.335445,29.720283,黄山市,滨江东路7-2号,,33,33,26,13,11,15,15,NA,NA,14,7,/,/,/,/
2026-06-18T0300,2423A,115.0547,30.2332,黄石市,沈家营,颗粒物(PM10),55,56,51,32,26,76,76,NA,NA,16,19,6,8,0.3,0.5
2026-06-18T0300,2426A,114.899,30.211,黄石市,铁山,,44,44,39,29,25,79,79,NA,NA,7,8,13,11,0.4,0.4
2026-06-18T0300,2427A,115.0259,30.2108,黄石市,团城山,,50,50,43,25,22,67,67,NA,NA,29,9,5,5,0.9,0.6
2026-06-18T0300,3149A,115.0174,30.1591,黄石市,笔架山北路,颗粒物(PM10),53,54,52,20,23,103,103,NA,NA,12,11,8,5,0.5,0.3
2026-06-18T0300,4185A,115.078022,30.21118,黄石市,磁湖东路29号,颗粒物(PM10),61,65,48,27,24,52,52,NA,NA,45,23,7,7,0.9,0.6
2026-06-18T0300,1392A,114.4181,23.0528,惠州市,河南岸金山湖子站,,16,16,12,7,8,28,28,NA,NA,10,10,7,6,0.5,0.5
2026-06-18T0300,1393A,114.4055,23.0824,惠州市,下埔横江三路子站,NA,NA,18,16,3,7,32,32,NA,NA,NA,9,3,2,0.6,0.6
2026-06-18T0300,1395A,114.4645,22.7832,惠州市,惠阳区承修路船湖子站,,18,18,12,3,5,39,39,NA,NA,11,10,6,3,0.6,0.6
2026-06-18T0300,1396A,114.5316,22.7423,惠州市,大亚湾管委会子站,NA,NA,14,11,3,4,34,34,NA,NA,19,12,NA,5,0.4,0.4
2026-06-18T0300,3314A,114.4334,22.8134,惠州市,惠阳秋长,,12,12,8,6,5,33,33,NA,NA,14,11,/,/,/,/
2026-06-18T0300,3452A,114.6521,22.7755,惠州市,大亚湾霞涌,,16,8,9,3,6,49,49,NA,NA,5,7,/,/,/,/
2026-06-18T0300,4300A,114.4089,23.1147,惠州市,文华一路1号,,14,14,12,6,7,35,35,NA,NA,8,10,/,/,/,/
2026-06-18T0300,2240A,130.9618,45.2926,鸡西市,环保局,,32,31,22,22,20,55,55,NA,NA,10,13,9,10,0.3,0.4
2026-06-18T0300,2243A,130.9294,45.2959,鸡西市,第一中学,NA,NA,28,22,25,18,NA,NA,NA,NA,11,14,7,7,0.3,0.4
2026-06-18T0300,3707A,131.0069,45.2988,鸡西市,欧美日汽修厂,,46,32,28,32,21,24,24,NA,NA,30,14,9,11,0.3,0.5
2026-06-18T0300,2367A,114.9753,27.0803,吉安市,红声器材厂,NA,NA,9,34,3,18,NA,NA,NA,NA,4,9,7,8,0.2,0.4
2026-06-18T0300,2369A,114.9903,27.1313,吉安市,市环境监测站,,16,10,35,3,20,50,50,NA,NA,3,7,9,10,/,/
2026-06-18T0300,2370A,115.009527,27.096792,吉安市,青原区法院,,17,9,34,3,19,52,52,NA,NA,3,8,8,8,0.3,0.4
2026-06-18T0300,1772A,126.54,43.8622,吉林市,哈达湾,,25,25,25,15,20,64,64,NA,NA,10,15,6,6,0.3,0.4
2026-06-18T0300,1773A,126.5843,43.8358,吉林市,东局子,,24,24,24,15,18,66,66,NA,NA,8,13,3,4,0.5,0.6
2026-06-18T0300,1774A,126.5051,43.8243,吉林市,电力学院,,22,22,29,15,19,54,54,NA,NA,10,14,5,5,0.9,0.9
2026-06-18T0300,1775A,126.6133,43.8971,吉林市,江北,,33,26,25,23,23,64,64,NA,NA,4,8,6,6,0.5,0.5
2026-06-18T0300,1776A,126.5549,43.8304,吉林市,江南公园,,22,20,22,15,18,63,63,NA,NA,6,14,5,5,0.2,0.3
2026-06-18T0300,2868A,126.4737,43.953,吉林市,九站,,30,29,30,21,19,50,50,NA,NA,11,14,3,2,0.5,0.5
2026-06-18T0300,1299A,116.9866,36.6118,济南市,科干所,,41,41,33,24,19,122,122,NA,NA,20,14,4,9,0.5,0.5
2026-06-18T0300,1300A,116.9379,36.6652,济南市,农科所,,42,42,36,28,20,77,77,NA,NA,22,14,2,3,0.2,0.2
2026-06-18T0300,1301A,117.1265,36.6736,济南市,开发区,,37,37,33,24,20,98,98,NA,NA,9,8,7,5,0.5,0.4
2026-06-18T0300,1303A,117.0616,36.6865,济南市,省种子仓库,,46,46,39,29,20,80,80,NA,NA,39,15,5,5,0.4,0.3
2026-06-18T0300,1304A,116.9495185,36.644937,济南市,机床二厂,颗粒物(PM10),55,56,41,32,20,79,79,NA,NA,20,13,5,5,0.5,0.4
2026-06-18T0300,1305A,117.0496,36.6629,济南市,市监测站,NA,NA,39,35,27,17,NA,NA,NA,NA,46,13,4,3,0.4,0.3
2026-06-18T0300,1306A,116.7674,36.5458,济南市,长清党校,,40,32,36,28,15,83,83,NA,NA,27,11,7,4,0.3,0.2
2026-06-18T0300,1961A,117.5323,36.6865,济南市,东山小学,,42,42,43,27,22,108,108,NA,NA,19,17,3,4,0.2,0.3
2026-06-18T0300,3059A,117.7181,36.205,济南市,泰兴公司,细颗粒物(PM2.5),78,53,50,49,27,34,34,NA,NA,48,30,12,12,0.4,0.4
2026-06-18T0300,3064A,117.6861,36.2172,济南市,莱芜战役纪念馆,细颗粒物(PM2.5),76,66,50,48,28,51,51,NA,NA,43,23,5,8,0.4,0.3
2026-06-18T0300,3494A,117.1673,36.9782,济南市,济阳区政府,细颗粒物(PM2.5),82,78,62,51,28,52,52,NA,NA,38,20,3,3,0.5,0.3
2026-06-18T0300,3495A,117.1168,36.6299,济南市,锦屏中学,NA,NA,34,35,23,18,85,85,NA,NA,6,5,NA,7,0,0
2026-06-18T0300,4108A,117.7107,36.2385,济南市,山财大街5号,细颗粒物(PM2.5),64,56,46,42,28,105,105,NA,NA,30,24,7,7,0.5,0.6
2026-06-18T0300,4109A,116.9744,36.6889,济南市,无影山路12号,颗粒物(PM10),56,58,37,29,21,87,87,NA,NA,23,15,2,3,0.4,0.5
2026-06-18T0300,1653A,116.6229,35.4288,济宁市,火炬城,,39,37,36,27,14,68,68,NA,NA,18,15,8,7,0.7,0.5
2026-06-18T0300,3500A,116.5808,35.3703,济宁市,北湖一中,,34,34,37,14,18,83,83,NA,NA,6,12,6,5,0.4,0.3
2026-06-18T0300,3501A,116.8251,35.5592,济宁市,服务中心,细颗粒物(PM2.5),62,54,39,41,19,74,74,NA,NA,15,8,2,2,0.5,0.4
2026-06-18T0300,3678A,116.5907,35.4054,济宁市,市第七中学,,46,46,38,24,14,81,81,NA,NA,13,9,8,7,0.5,0.3
2026-06-18T0300,4111A,116.6075,35.4566,济宁市,任和路,,42,42,39,22,17,81,81,NA,NA,9,7,5,4,0.8,0.6
2026-06-18T0300,4112A,116.5648,35.3921,济宁市,文体南路1号,NA,NA,36,35,20,13,NA,NA,NA,NA,7,8,5,5,0.5,0.5
2026-06-18T0300,4122A,112.6071,35.1015,济源市,市委党校,颗粒物(PM10),55,56,57,22,25,78,78,NA,NA,18,16,15,12,0.5,0.5
2026-06-18T0300,4123A,112.596,35.0702,济源市,沁园中路1号,颗粒物(PM10),56,58,52,30,26,71,71,NA,NA,28,23,6,5,0.9,0.7
2026-06-18T0300,2255A,130.2749,46.8028,佳木斯市,佳纺,,21,18,18,12,11,67,67,NA,NA,6,9,2,2,0.3,0.3
2026-06-18T0300,2257A,130.3258,46.7975,佳木斯市,环保局,,20,NA,14,13,11,64,64,NA,NA,10,10,5,5,0.4,0.5
2026-06-18T0300,4285A,130.363,46.806,佳木斯市,顺和街,,21,13,14,3,13,67,67,NA,NA,8,12,1,2,0.3,0.4
2026-06-18T0300,4286A,130.3952,46.8268,佳木斯市,长安路196号,,22,11,19,11,10,70,70,NA,NA,6,9,5,5,0.3,0.3
2026-06-18T0300,1252A,120.7439,30.778,嘉兴市,清河小学,细颗粒物(PM2.5),80,50,33,50,26,80,80,NA,NA,15,13,6,5,0.4,0.4
2026-06-18T0300,1253A,120.7261,30.7477,嘉兴市,嘉兴学院,细颗粒物(PM2.5),70,NA,22,45,25,83,83,NA,NA,19,16,7,5,0.5,0.5
2026-06-18T0300,2872A,120.7845,30.7524,嘉兴市,南湖区残联,细颗粒物(PM2.5),70,53,40,45,27,81,81,NA,NA,16,14,8,7,0.7,0.6
2026-06-18T0300,3407A,120.6915,30.7741,嘉兴市,秀洲住建,细颗粒物(PM2.5),64,NA,30,42,27,73,73,NA,NA,23,18,7,7,0.6,0.6
2026-06-18T0300,1945A,98.291,39.7705,嘉峪关市,气象局,,22,NA,33,13,23,70,70,NA,NA,5,8,6,9,0.2,0.4
2026-06-18T0300,2884A,98.2672,39.7978,嘉峪关市,酒钢宾馆,,31,NA,36,10,24,98,98,NA,NA,10,10,8,10,0.5,0.5
2026-06-18T0300,3248A,98.2644,39.7723,嘉峪关市,雄关区,,28,28,46,10,22,79,79,NA,NA,13,13,6,9,0.8,0.6
2026-06-18T0300,1383A,113.1063,22.6058,江门市,北街,,21,21,13,9,5,30,30,NA,NA,11,8,/,/,/,/
2026-06-18T0300,1384A,113.073,22.5835,江门市,西区,,22,17,13,15,7,35,35,NA,NA,13,13,/,/,/,/
2026-06-18T0300,1385A,113.0218,22.531,江门市,圭峰西,,20,20,14,12,7,31,31,NA,NA,11,14,/,/,/,/
2026-06-18T0300,1386A,113.0826,22.5947,江门市,东湖,NA,NA,22,12,10,5,32,32,NA,NA,10,11,NA,7,0.4,0.4
2026-06-18T0300,3311A,113.1077,22.5647,江门市,江海富民,,24,24,23,14,7,37,37,NA,NA,11,11,/,/,0.5,0.5
2026-06-18T0300,3449A,113.0496,22.4669,江门市,新会银湖,,18,18,14,12,5,24,24,NA,NA,19,14,3,2,0.5,0.5
2026-06-18T0300,3335A,113.3137,35.2643,焦作市,马村街道办,,50,50,47,19,25,124,124,NA,NA,12,14,20,9,0.6,0.4
2026-06-18T0300,3336A,113.2464,35.2374,焦作市,焦作技师学院,,39,28,39,27,25,111,111,NA,NA,10,12,8,9,0.6,0.6
2026-06-18T0300,3477A,113.1656,35.2536,焦作市,中站许衡医院,NA,NA,35,41,25,22,131,131,NA,NA,8,9,NA,8,0.4,0.4
2026-06-18T0300,3981A,113.2456,35.18,焦作市,原李万街道办,颗粒物(PM10),53,53,51,24,25,115,115,NA,NA,10,10,10,10,0.7,0.5
2026-06-18T0300,4264A,113.234,35.219,焦作市,新安路1731号,NA,NA,43,43,27,24,130,130,NA,NA,7,7,NA,10,0.5,0.4
2026-06-18T0300,4295A,113.2722,35.2121,焦作市,人民路3066号,颗粒物(PM10),51,51,51,24,27,108,108,NA,NA,16,17,9,7,0.6,0.4
2026-06-18T0300,1708A,116.3701,23.5345,揭阳市,新兴,,32,29,14,22,10,20,20,NA,NA,18,15,6,7,0.4,0.4
2026-06-18T0300,1709A,116.3261,23.5442,揭阳市,西马,,32,32,15,20,10,19,19,NA,NA,21,15,8,5,0.6,0.6
2026-06-18T0300,1710A,116.361,23.5627,揭阳市,东兴,NA,NA,26,15,24,10,16,16,NA,NA,22,14,NA,3,/,/
2026-06-18T0300,1711A,116.4151,23.5295,揭阳市,渔湖,,34,34,16,18,10,16,16,NA,NA,18,14,4,4,/,/
2026-06-18T0300,3320A,116.4028,23.5699,揭阳市,曲溪,NA,NA,26,12,22,10,NA,NA,NA,NA,10,10,2,4,0.4,0.4
2026-06-18T0300,1944A,102.1691,38.5166,金昌市,天庆家园,颗粒物(PM10),55,56,66,22,26,78,78,NA,NA,5,6,15,14,0.2,0.2
2026-06-18T0300,4022A,102.1648,38.5369,金昌市,金川区人防中心,,46,46,70,28,29,76,76,NA,NA,6,7,8,9,0.3,0.3
2026-06-18T0300,4239A,102.193042,38.531887,金昌市,长春路96号,NA,NA,70,82,NA,46,66,66,NA,NA,7,5,7,6,0.1,0.2
2026-06-18T0300,1262A,119.6478,29.0773,金华市,十五中,,35,32,40,24,25,27,27,NA,NA,13,17,2,2,0.6,0.6
2026-06-18T0300,1263A,119.6859,29.1032,金华市,监测站,,30,30,38,14,22,35,35,NA,NA,12,22,3,4,0.6,0.5
2026-06-18T0300,3659A,119.656,29.1132,金华市,气象局,,32,32,44,16,24,39,39,NA,NA,15,22,7,3,0.5,0.6
2026-06-18T0300,1767A,121.1114,41.0879,锦州市,南山,细颗粒物(PM2.5),70,51,35,45,28,10,10,NA,NA,42,15,4,4,0.7,0.5
2026-06-18T0300,1768A,121.060361,40.842794,锦州市,开发区,颗粒物(PM10),61,65,51,38,30,82,82,NA,NA,24,34,8,9,0.6,0.6
2026-06-18T0300,1769A,121.1836,41.1118,锦州市,百股街道,细颗粒物(PM2.5),68,NA,31,44,31,11,11,NA,NA,42,13,5,6,0.7,0.6
2026-06-18T0300,1770A,121.1176,41.1224,锦州市,天安街道,细颗粒物(PM2.5),115,78,38,76,36,22,22,NA,NA,43,18,11,6,1.0,0.7
2026-06-18T0300,1771A,121.1303,41.1385,锦州市,北湖公园,细颗粒物(PM2.5),103,70,42,63,33,23,23,NA,NA,34,14,4,4,1.2,0.6
2026-06-18T0300,2160A,112.8496,35.5051,晋城市,自来水公司,,44,42,47,21,15,139,139,NA,NA,12,10,6,5,0.5,0.5
2026-06-18T0300,2162A,112.8509,35.4886,晋城市,市环保局,NA,NA,42,41,25,20,136,136,NA,NA,10,9,NA,5,0.5,0.5
2026-06-18T0300,3620A,112.8258,35.4804,晋城市,泽州一中,,43,43,48,26,22,116,116,NA,NA,23,15,5,4,0.4,0.4
2026-06-18T0300,4078A,112.8246,35.5152,晋城市,前书院路,,47,47,38,22,23,86,86,NA,NA,26,11,6,7,0.2,0.3
2026-06-18T0300,4079A,112.8864,35.4773,晋城市,祥云街666号,NA,NA,NA,35,NA,17,NA,NA,175,NA,NA,13,NA,5,NA,0.4
2026-06-18T0300,2174A,112.6992,37.6984,晋中市,榆次区政府,细颗粒物(PM2.5),94,68,60,57,39,138,138,NA,NA,6,8,8,9,0.9,0.8
2026-06-18T0300,2865A,112.7195,37.683,晋中市,榆次三中,细颗粒物(PM2.5),116,NA,61,77,43,155,155,NA,NA,8,8,8,9,0.6,0.5
2026-06-18T0300,4080A,112.7375,37.7215,晋中市,广安街188号,细颗粒物(PM2.5),108,77,63,68,41,139,139,NA,NA,10,11,NA,8,0.8,0.7
2026-06-18T0300,4200A,112.7478,37.6954,晋中市,迎宾街26号,细颗粒物(PM2.5),88,75,60,54,37,135,135,NA,NA,11,11,7,8,0.6,0.5
2026-06-18T0300,2439A,112.2012,31.048,荆门市,竹园小学,NA,NA,52,63,47,44,63,63,NA,NA,NA,16,4,4,1.4,0.9
2026-06-18T0300,2440A,112.1968,30.9892,荆门市,掇刀,NA,NA,62,66,53,47,77,77,NA,NA,NA,16,11,11,1.1,0.9
2026-06-18T0300,3012A,112.1849,31.0361,荆门市,西山林语,NA,NA,57,55,49,39,73,73,NA,NA,9,11,8,9,NA,0.8
2026-06-18T0300,3547A,112.1631,31.0134,荆门市,龙泉中学南校,NA,NA,NA,47,38,38,NA,NA,NA,NA,12,13,6,6,1.1,0.9
2026-06-18T0300,4124A,112.2213,31.0654,荆门市,新台西路6号,NA,NA,NA,62,NA,45,NA,NA,150,NA,NA,19,NA,3,NA,0.9
2026-06-18T0300,1844A,112.2493,30.3198,荆州市,市图书馆,NA,NA,40,47,36,37,106,106,NA,NA,11,12,7,7,NA,0.5
2026-06-18T0300,1845A,112.2009,30.3543,荆州市,市委党校,NA,NA,48,51,43,37,90,90,NA,NA,13,14,11,10,NA,0.6
2026-06-18T0300,3194A,112.2749,30.3124,荆州市,管委会,NA,NA,46,52,34,40,81,81,NA,NA,10,14,10,11,NA,0.6
2026-06-18T0300,4268A,112.1722,30.3366,荆州市,学苑路85号,NA,NA,47,55,37,31,65,65,NA,NA,25,22,13,9,NA,0.5
2026-06-18T0300,2343A,117.2114,29.2931,景德镇市,老干部活动中心,,43,NA,18,30,18,25,25,NA,NA,16,9,6,7,0.7,0.6
2026-06-18T0300,2344A,117.1893,29.2789,景德镇市,兽医站,,43,38,28,30,18,28,28,NA,NA,19,11,4,4,0.8,0.7
2026-06-18T0300,2346A,117.246,29.2958,景德镇市,陶研所,,32,28,19,22,15,17,17,NA,NA,12,5,5,4,0.6,0.5
2026-06-18T0300,4289A,117.154766,29.256967,景德镇市,青少年活动中心,细颗粒物(PM2.5),56,51,24,38,16,10,10,NA,NA,47,17,63,27,/,/
2026-06-18T0300,1803A,115.9873,29.6816,九江市,十里,NA,NA,31,32,28,20,NA,NA,NA,NA,30,21,1,4,0.7,0.7
2026-06-18T0300,1804A,115.9583,29.7047,九江市,茅山头,NA,NA,37,30,24,21,NA,NA,NA,NA,33,24,4,4,0.5,0.5
2026-06-18T0300,1805A,115.9877,29.7295,九江市,西园,NA,NA,NA,21,26,19,NA,NA,NA,NA,22,39,9,5,0.6,0.6
2026-06-18T0300,1808A,115.9112,29.6038,九江市,综合工业园,NA,NA,28,24,21,19,NA,NA,NA,NA,25,21,3,4,0.6,0.6
2026-06-18T0300,3190A,116.0254,29.6995,九江市,外国语学校,,46,NA,29,32,19,49,49,NA,NA,15,15,12,9,0.7,0.7
2026-06-18T0300,4253A,116.010205,29.659402,九江市,莲花大道8号,,36,NA,17,25,16,46,46,NA,NA,16,8,4,5,0.6,0.6
2026-06-18T0300,4240A,98.495752,39.733935,酒泉市,玉门东路5号,,27,NA,36,16,25,86,86,NA,NA,5,8,7,10,0.1,0.2
2026-06-18T0300,4241A,98.5099,39.7506,酒泉市,北大街108号,,33,17,41,12,32,104,104,NA,NA,6,8,10,14,0.2,0.2
2026-06-18T0300,2698A,76.0071,39.466,喀什地区,巡警大队,,46,46,52,6,17,105,105,NA,NA,7,14,2,3,0.2,0.2
2026-06-18T0300,2699A,75.9756,39.4693,喀什地区,吾办,,33,24,42,3,12,103,103,NA,NA,1,6,5,7,0.4,0.4
2026-06-18T0300,4027A,75.9485,39.4688,喀什地区,老干局,,33,22,53,3,11,104,104,NA,NA,4,7,3,3,0.4,0.4
2026-06-18T0300,1824A,114.3389,34.778,开封市,肿瘤医院,细颗粒物(PM2.5),78,67,42,49,29,66,66,NA,NA,46,17,11,7,1.0,0.8
2026-06-18T0300,1826A,114.2884,34.7966,开封市,世纪星幼儿园,NA,NA,50,40,41,28,109,109,NA,NA,20,13,NA,8,0.5,0.5
2026-06-18T0300,3147A,114.3434,34.8101,开封市,龙亭公园,颗粒物(PM10),53,54,36,36,23,71,71,NA,NA,33,13,8,7,0.6,0.5
2026-06-18T0300,3210A,114.3645,34.7955,开封市,汴京公园,颗粒物(PM10),63,67,43,41,27,71,71,NA,NA,33,17,8,9,0.6,0.5
2026-06-18T0300,3473A,114.2485,34.8306,开封市,技师学院,,45,41,44,31,23,132,132,NA,NA,12,11,10,8,0.6,0.6
2026-06-18T0300,3592A,114.4518,34.7503,开封市,祥符区生态环境局,细颗粒物(PM2.5),62,60,41,41,31,59,59,NA,NA,38,34,13,11,0.5,0.5
2026-06-18T0300,1951A,84.886,45.6029,克拉玛依市,长征新村,,25,22,27,17,13,40,40,NA,NA,24,13,3,3,0.5,0.4
2026-06-18T0300,1952A,84.8894,45.5827,克拉玛依市,南林小区,,30,30,32,6,6,16,16,NA,NA,36,15,4,4,0.4,0.2
2026-06-18T0300,1954A,84.896,44.3328,克拉玛依市,独山子区,,31,17,24,3,5,99,99,NA,NA,3,5,7,7,0.3,0.4
2026-06-18T0300,1955A,85.6888,46.0909,克拉玛依市,乌尔禾区商贸楼,,25,25,34,12,17,59,59,NA,NA,10,12,6,6,0.2,0.3
2026-06-18T0300,3612A,85.1045,45.6895,克拉玛依市,白碱滩区新站,,21,NA,19,7,8,66,66,NA,NA,6,6,7,7,0.2,0.2
2026-06-18T0300,2697A,76.1457,39.7143,克孜勒苏柯尔克孜自治州,市人民政府,,50,50,34,15,12,113,113,NA,NA,5,5,7,7,0.1,0.1
2026-06-18T0300,3665A,76.1654,39.7157,克孜勒苏柯尔克孜自治州,克州文化中心,,37,31,39,19,16,117,117,NA,NA,2,3,10,10,0.1,0.2
2026-06-18T0300,1450A,102.8203,24.889,昆明市,呈贡新区,,18,18,14,10,7,49,49,NA,NA,7,8,3,3,0.6,0.6
2026-06-18T0300,1452A,102.7253,25.0904,昆明市,龙泉镇,,16,16,15,8,7,41,41,NA,NA,9,11,7,8,0.4,0.4
2026-06-18T0300,1453A,102.7267,25.0378,昆明市,东风东路,,16,16,14,3,8,45,45,NA,NA,11,12,5,4,0.4,0.4
2026-06-18T0300,1454A,102.6744,25.0671,昆明市,金鼎山,,23,23,19,7,8,42,42,NA,NA,10,10,9,5,0.4,0.5
2026-06-18T0300,1455A,102.6643,25.0401,昆明市,碧鸡广场,,25,25,18,11,8,36,36,NA,NA,13,12,5,3,0.5,0.5
2026-06-18T0300,3179A,102.7491,25.012,昆明市,官渡区博物馆,,15,12,14,10,7,44,44,NA,NA,11,11,5,4,0.4,0.4
2026-06-18T0300,3375A,102.8016,24.8336,昆明市,青年创业园,,15,12,11,9,7,46,46,NA,NA,6,6,4,5,0.5,0.3
2026-06-18T0300,3550A,102.8,24.9787,昆明市,昆明学院,,26,26,16,12,5,44,44,NA,NA,7,8,6,6,0.5,0.4
2026-06-18T0300,3551A,102.5969,24.6738,昆明市,晋宁区生态环境分局,,16,13,13,3,10,51,51,NA,NA,4,4,4,4,0.5,0.4
2026-06-18T0300,3552A,102.6673,24.9861,昆明市,云天化总部,,17,16,13,7,5,54,54,NA,NA,6,7,7,6,0.5,0.5
2026-06-18T0300,1456A,91.132,29.6515,拉萨市,八廓街,,40,9,18,6,7,126,126,NA,NA,1,5,5,7,0.2,0.2
2026-06-18T0300,1457A,91.1221,29.6748,拉萨市,市环保局,,40,10,18,3,7,125,125,NA,NA,6,11,6,9,0.1,0.2
2026-06-18T0300,1458A,91.0874,29.6476,拉萨市,区监测站,,40,NA,14,8,8,125,125,NA,NA,8,11,5,8,0.3,0.3
2026-06-18T0300,1459A,91.1774,29.6541,拉萨市,西藏大学,,40,6,14,3,7,127,127,NA,NA,6,9,5,8,0.2,0.4
2026-06-18T0300,1460A,90.9798,29.6586,拉萨市,区辐射站,,40,NA,21,14,9,126,126,NA,NA,8,17,6,7,0.3,0.3
2026-06-18T0300,1461A,91.0831,29.6292,拉萨市,拉萨火车站,,41,10,17,3,11,129,129,NA,NA,4,9,3,5,0.3,0.2
2026-06-18T0300,2520A,109.2203,23.7252,来宾市,来宾技工学校,,12,12,17,6,8,28,28,NA,NA,10,11,6,7,0.8,0.6
2026-06-18T0300,3535A,109.1781,23.7293,来宾市,兴宾区政府,,20,20,16,7,5,25,25,NA,NA,8,8,5,5,0.8,0.8
2026-06-18T0300,4002A,109.2312,23.7428,来宾市,中南小学,,12,12,17,3,8,30,30,NA,NA,8,12,5,5,0.4,0.5
2026-06-18T0300,1479A,103.8309,36.0467,兰州市,铁路设计院,,27,27,47,18,25,84,84,NA,NA,17,17,7,7,0.8,0.7
2026-06-18T0300,3241A,103.7439,36.0841,兰州市,百合公园,,24,24,35,15,18,53,53,NA,NA,20,13,4,7,0.6,0.4
2026-06-18T0300,3242A,103.9613,35.9985,兰州市,和平,,24,19,27,15,22,75,75,NA,NA,7,7,13,12,0.9,0.8
2026-06-18T0300,4236A,103.629272,36.093822,兰州市,庄浪东路808号,,32,32,38,19,23,60,60,NA,NA,19,16,9,9,0.3,0.3
2026-06-18T0300,4237A,103.7251,36.104344,兰州市,安宁西路88号,,25,19,35,14,22,77,77,NA,NA,10,11,8,8,0.2,0.3
2026-06-18T0300,4238A,103.846982,36.067567,兰州市,北滨河东路1号,,22,20,36,11,22,69,69,NA,NA,25,18,12,12,0.6,0.5
2026-06-18T0300,1067A,116.6712,39.5109,廊坊市,药材公司,细颗粒物(PM2.5),92,72,32,56,21,101,101,NA,NA,15,12,4,2,0.4,0.5
2026-06-18T0300,1068A,116.7215,39.5592,廊坊市,开发区,细颗粒物(PM2.5),86,80,30,53,21,68,68,NA,NA,23,12,1,3,0.4,0.3
2026-06-18T0300,1070A,116.7246,39.5273,廊坊市,北华航天学院,细颗粒物(PM2.5),110,NA,24,70,19,60,60,NA,NA,32,14,NA,3,0.4,0.3
2026-06-18T0300,2919A,116.7022,39.5454,廊坊市,河北工业大学,细颗粒物(PM2.5),86,62,23,53,22,97,97,NA,NA,21,14,3,2,0.4,0.3
2026-06-18T0300,2536A,103.7629,29.5844,乐山市,牛耳桥,NA,NA,19,13,19,12,39,39,NA,NA,10,11,NA,5,0.5,0.5
2026-06-18T0300,2537A,103.7501,29.6002,乐山市,市第三水厂,NA,NA,NA,12,21,12,44,44,NA,NA,10,11,NA,3,0.7,0.7
2026-06-18T0300,2538A,103.7571,29.5664,乐山市,市监测站,NA,NA,17,14,14,8,46,46,NA,NA,7,8,NA,1,0.6,0.6
2026-06-18T0300,3361A,103.7313,29.563,乐山市,理工大学,,23,17,14,16,12,38,38,NA,NA,10,9,5,4,0.6,0.6
2026-06-18T0300,2599A,100.2497,26.8802,丽江市,丽江古城,,13,13,12,3,6,40,40,NA,NA,7,7,7,8,0.5,0.5
2026-06-18T0300,2600A,100.2203,26.8906,丽江市,市中心,NA,NA,NA,NA,3,3,39,39,NA,NA,3,5,6,6,0.4,0.3
2026-06-18T0300,1267A,119.9141,28.4513,丽水市,监测站大楼,NA,NA,12,19,3,7,8,8,NA,NA,18,14,NA,4,0.4,0.4
2026-06-18T0300,1268A,119.93,28.4589,丽水市,莲都小学,,8,NA,18,3,9,11,11,NA,NA,15,10,/,/,/,/
2026-06-18T0300,1269A,119.8794,28.4232,丽水市,余庄前,NA,NA,14,19,3,8,0,0,NA,NA,11,11,NA,5,0.6,0.5
2026-06-18T0300,1173A,119.1759,34.5885,连云港市,市环境监测站,NA,NA,NA,15,24,14,59,59,NA,NA,11,10,NA,8,0.5,0.5
2026-06-18T0300,3000A,119.3577,34.6971,连云港市,德源药业,,39,36,17,27,13,19,19,NA,NA,41,16,7,5,0.3,0.3
2026-06-18T0300,3007A,119.178,34.8442,连云港市,新城一中,,28,20,21,14,12,4,4,NA,NA,56,19,5,4,0.6,0.5
2026-06-18T0300,3008A,119.3607,34.7519,连云港市,胡沟管理处,NA,NA,14,15,9,6,32,32,NA,NA,29,25,NA,10,0.4,0.4
2026-06-18T0300,3009A,119.1478,34.5913,连云港市,矿山设计院,,29,29,17,19,11,52,52,NA,NA,9,8,5,4,0.3,0.3
2026-06-18T0300,3434A,119.2414,34.6539,连云港市,工贸学校,,19,NA,11,10,11,58,58,NA,NA,5,4,6,4,0.5,0.4
2026-06-18T0300,3664A,119.4171,34.734,连云港市,连云街道,,13,13,13,7,7,23,23,NA,NA,26,14,9,9,0.5,0.4
2026-06-18T0300,2573A,102.2629,27.8981,凉山彝族自治州,西昌市政府,NA,NA,17,24,3,19,39,39,NA,NA,4,16,NA,8,0.5,0.7
2026-06-18T0300,2574A,102.2686,27.885,凉山彝族自治州,凉山州政府,NA,NA,13,22,3,17,40,40,NA,NA,7,16,NA,7,0.6,0.7
2026-06-18T0300,4229A,102.2342,27.8859,凉山彝族自治州,凯乐南路30号,,13,13,21,3,15,34,34,NA,NA,13,20,6,7,0.6,0.7
2026-06-18T0300,2212A,123.1978,41.2036,辽阳市,宏伟区,,32,30,35,22,25,45,45,NA,NA,6,8,7,6,0.5,0.6
2026-06-18T0300,2213A,123.1684,41.2497,辽阳市,新华园,,42,38,40,29,32,52,52,NA,NA,12,13,8,9,0.6,0.7
2026-06-18T0300,2214A,123.2355,41.2663,辽阳市,滨河路,,35,NA,34,24,29,57,57,NA,NA,5,10,7,7,0.7,0.8
2026-06-18T0300,4083A,123.153,41.2874,辽阳市,铁西路150号,,40,38,38,28,30,56,56,NA,NA,11,12,6,7,0.6,0.8
2026-06-18T0300,2227A,125.1359,42.8845,辽源市,环保局,NA,NA,20,21,13,13,NA,NA,NA,NA,16,9,7,7,0.5,0.5
2026-06-18T0300,4085A,125.0998,42.9134,辽源市,安宁大街333号,,25,NA,20,17,14,45,45,NA,NA,11,10,3,5,0.8,0.6
2026-06-18T0300,1625A,115.9789,36.4372,聊城市,区政府,,35,35,37,22,16,104,104,NA,NA,11,8,10,9,0.4,0.4
2026-06-18T0300,3200A,115.9772,36.4986,聊城市,监控中心,,38,28,31,19,17,119,119,NA,NA,10,8,10,9,0.4,0.3
2026-06-18T0300,3513A,116.0443,36.436,聊城市,九州社区,颗粒物(PM10),51,51,45,28,18,97,97,NA,NA,20,9,6,5,0.3,0.3
2026-06-18T0300,4018A,116.0564,36.4609,聊城市,星美广场,,39,39,39,26,18,113,113,NA,NA,13,9,9,7,0.3,0.3
2026-06-18T0300,4113A,116.0091,36.4495,聊城市,利民路,,37,29,33,19,16,118,118,NA,NA,13,9,11,10,0.4,0.5
2026-06-18T0300,2632A,94.3683,29.6373,林芝市,林芝监测站,,16,7,8,3,6,50,50,NA,NA,4,5,2,3,0.4,0.4
2026-06-18T0300,2633A,94.3616,29.6634,林芝市,林芝人民医院,,16,6,9,6,6,51,51,NA,NA,5,6,3,3,0.3,0.3
2026-06-18T0300,2603A,100.0779,23.8981,临沧市,市环保局,,19,15,14,13,9,23,23,NA,NA,7,7,6,5,0.8,0.7
2026-06-18T0300,2604A,100.0894,23.882,临沧市,市气象局,,16,16,16,10,11,28,28,NA,NA,7,7,9,10,0.5,0.4
2026-06-18T0300,1733A,111.5552,36.0791,临汾市,临钢医院,NA,NA,51,57,28,22,118,118,NA,NA,18,14,NA,7,0.6,0.6
2026-06-18T0300,1734A,111.4984,36.0734,临汾市,技工学校,NA,NA,NA,58,NA,30,NA,NA,195,NA,NA,15,NA,5,NA,0.7
2026-06-18T0300,1736A,111.5017,36.0857,临汾市,市委,颗粒物(PM10),76,86,71,36,27,115,115,NA,NA,23,16,15,10,0.9,0.8
2026-06-18T0300,3018A,111.5048,36.1015,临汾市,唐尧大酒店,颗粒物(PM10),87,101,77,35,25,106,106,NA,NA,22,11,10,8,0.8,0.7
2026-06-18T0300,4244A,111.4879,36.053,临汾市,启星学校,颗粒物(PM10),73,81,61,42,30,111,111,NA,NA,19,15,12,7,0.8,0.6
2026-06-18T0300,4271A,103.2464,35.6123,临夏回族自治州,滨河东路1号,,43,42,51,30,26,19,19,NA,NA,12,15,12,12,0.4,0.4
2026-06-18T0300,4310A,103.207136,35.599807,临夏回族自治州,新华街21号,,36,NA,43,25,26,48,48,NA,NA,9,9,10,11,0.4,0.4
2026-06-18T0300,1618A,118.3429,35.0532,临沂市,沂河小区,,29,29,35,19,18,42,42,NA,NA,14,12,12,10,0.3,0.2
2026-06-18T0300,1619A,118.2962,35.0568,临沂市,鲁南制药厂,,25,19,24,17,17,40,40,NA,NA,14,12,12,10,0.8,0.7
2026-06-18T0300,1620A,118.2793,34.9976,临沂市,新光毛纺厂,,32,NA,24,22,20,36,36,NA,NA,32,12,12,10,0.2,0.2
2026-06-18T0300,1621A,118.3955,35.0889,临沂市,河东保险公司,,40,NA,33,28,20,24,24,NA,NA,21,13,11,10,0.1,0.1
2026-06-18T0300,3370A,118.3563,35.0215,临沂市,十里堡居委,,28,NA,23,19,18,41,41,NA,NA,19,18,9,9,0.6,0.5
2026-06-18T0300,3496A,118.359,35.1067,临沂市,南坊新区,,33,31,33,23,20,33,33,NA,NA,22,15,12,9,0.1,0
2026-06-18T0300,3860A,118.3915,35.0297,临沂市,皇山花园小区,,35,NA,30,24,20,37,37,NA,NA,21,15,16,10,0.6,0.4
2026-06-18T0300,1870A,109.4854,24.3898,柳州市,柳东小学,,16,16,18,3,12,26,26,NA,NA,9,9,4,6,0.6,0.6
2026-06-18T0300,1871A,109.4109,24.3304,柳州市,环保监测站,,13,13,19,3,9,27,27,NA,NA,8,10,6,6,0.8,0.9
2026-06-18T0300,1872A,109.3886,24.3408,柳州市,河西水厂,,16,16,16,3,10,26,26,NA,NA,7,9,6,6,0.5,0.6
2026-06-18T0300,1873A,109.4263,24.2951,柳州市,市四中,,22,22,23,6,13,26,26,NA,NA,11,12,5,5,0.6,0.7
2026-06-18T0300,1874A,109.396,24.3658,柳州市,市九中,,15,15,21,3,11,32,32,NA,NA,8,11,5,5,0.6,0.7
2026-06-18T0300,1875A,109.4912,24.3164,柳州市,古亭山,,18,18,19,3,9,15,15,NA,NA,14,14,3,3,0.7,0.8
2026-06-18T0300,3402A,109.5422,24.3994,柳州市,市二中,,13,13,19,3,12,30,30,NA,NA,7,11,7,6,0.6,0.7
2026-06-18T0300,2307A,116.5078,31.7369,六安市,监测大楼,,48,35,22,33,18,91,91,NA,NA,12,8,4,4,0.5,0.5
2026-06-18T0300,2308A,116.4738,31.7642,六安市,皖西学院,,42,36,29,29,21,106,106,NA,NA,8,6,7,7,0.4,0.4
2026-06-18T0300,2309A,116.4997,31.7904,六安市,朝阳厂,,35,24,24,23,18,109,109,NA,NA,10,11,7,8,0.4,0.4
2026-06-18T0300,2310A,116.5566,31.7885,六安市,开发区,NA,NA,NA,12,27,20,117,117,NA,NA,10,9,NA,6,0.3,0.3
2026-06-18T0300,2577A,104.8293,26.592,六盘水市,黄土坡,,10,8,14,3,9,32,32,NA,NA,9,15,6,7,0.4,0.6
2026-06-18T0300,2579A,104.8481,26.5898,六盘水市,民中,,13,6,11,3,8,40,40,NA,NA,7,11,1,2,0.5,0.5
2026-06-18T0300,2580A,104.9541,26.5506,六盘水市,双水,,16,6,10,3,6,51,51,NA,NA,4,7,4,4,0.2,0.2
2026-06-18T0300,4151A,104.8899,26.5685,六盘水市,钟山大道中段564号,,13,NA,10,3,6,40,40,NA,NA,3,5,4,5,0.6,0.6
2026-06-18T0300,2336A,117.022,25.1031,龙岩市,龙岩市监测站,,22,22,8,6,5,29,29,NA,NA,7,6,5,4,0.4,0.4
2026-06-18T0300,2337A,117.0257,25.0662,龙岩市,闽西职业技术学院,,16,16,10,7,4,17,17,NA,NA,9,6,4,4,0.4,0.3
2026-06-18T0300,2338A,117.0195,25.0306,龙岩市,龙岩学院,,15,15,10,3,3,26,26,NA,NA,4,4,2,2,/,/
2026-06-18T0300,2885A,104.9344,33.3827,陇南市,滨江中学,,44,44,41,23,24,63,63,NA,NA,6,6,9,8,0.3,0.4
2026-06-18T0300,3247A,104.9551,33.3709,陇南市,市总工会,,35,35,38,17,22,54,54,NA,NA,6,6,8,8,0.3,0.3
2026-06-18T0300,2488A,111.9984,27.7346,娄底市,市监测站,NA,NA,42,45,38,32,94,94,NA,NA,5,6,NA,13,0.6,0.8
2026-06-18T0300,2491A,111.9888,27.7035,娄底市,市政府,细颗粒物(PM2.5),78,55,40,49,36,23,23,NA,NA,6,6,37,27,0.6,0.7
2026-06-18T0300,4127A,111.9812,27.7591,娄底市,涟钢职大,,50,44,36,35,27,67,67,NA,NA,10,10,5,9,0.7,0.7
2026-06-18T0300,4128A,112.0303,27.7457,娄底市,娄底体校,细颗粒物(PM2.5),60,54,45,40,35,36,36,NA,NA,9,8,2,4,0.5,0.5
2026-06-18T0300,1894A,105.4427,28.9063,泸州市,小市上码头,,23,23,21,9,9,41,41,NA,NA,10,12,7,7,0.4,0.4
2026-06-18T0300,1895A,105.4241,28.8573,泸州市,兰田宪桥,,34,34,29,16,14,34,34,NA,NA,12,14,2,4,0.3,0.3
2026-06-18T0300,1896A,105.4378,28.8833,泸州市,市环监站,,17,17,19,6,6,54,54,NA,NA,8,16,8,7,0.5,0.6
2026-06-18T0300,4272A,105.3689,28.7783,泸州市,纳溪中医医院,,29,NA,20,20,18,40,40,NA,NA,11,14,4,4,0.7,0.7
2026-06-18T0300,2183A,111.1447,37.5212,吕梁市,环保局,颗粒物(PM10),60,63,69,28,24,51,51,NA,NA,33,28,5,5,0.4,0.4
2026-06-18T0300,2185A,111.1285,37.5338,吕梁市,自来水公司,颗粒物(PM10),51,51,52,20,22,63,63,NA,NA,32,25,3,3,0.5,0.6
2026-06-18T0300,2867A,111.1225,37.5093,吕梁市,马茂庄小学,NA,NA,56,65,24,21,44,44,NA,NA,42,37,NA,5,0.5,0.5
2026-06-18T0300,1812A,112.3934,34.6517,洛阳市,市委党校,,46,41,43,32,25,96,96,NA,NA,14,15,11,11,0.5,0.5
2026-06-18T0300,1815A,112.494,34.6883,洛阳市,河南林校,NA,NA,39,46,24,24,129,129,NA,NA,12,15,NA,13,0.6,0.6
2026-06-18T0300,1816A,112.3843,34.623,洛阳市,开发区管委会,,46,46,40,29,25,77,77,NA,NA,15,13,12,15,0.5,0.5
2026-06-18T0300,1817A,112.4263,34.6249,洛阳市,市委新办公区,,42,42,36,8,23,105,105,NA,NA,11,12,14,13,0.4,0.4
2026-06-18T0300,3340A,112.6005,34.6323,洛阳市,伊滨,,50,50,46,24,23,68,68,NA,NA,15,15,10,9,0.6,0.6
2026-06-18T0300,3341A,112.495,34.6338,洛阳市,中移产业园,,39,33,40,23,24,122,122,NA,NA,10,14,10,10,0.6,0.6
2026-06-18T0300,3593A,112.5736,34.8993,洛阳市,吉利监测站,,39,39,50,23,26,61,61,NA,NA,20,12,11,10,0.3,0.4
2026-06-18T0300,3635A,112.3678,34.6623,洛阳市,河科大西苑校区,,50,50,46,34,26,101,101,NA,NA,17,15,13,15,0.6,0.5
2026-06-18T0300,3636A,112.4387,34.678,洛阳市,英才小学,,41,36,30,27,23,130,130,NA,NA,8,12,11,10,0.5,0.5
2026-06-18T0300,4214A,112.460027,34.694929,洛阳市,春都路1号院,,45,NA,38,31,25,131,131,NA,NA,9,12,11,8,0.4,0.4
2026-06-18T0300,2399A,114.051,33.5721,漯河市,三五一五工厂,颗粒物(PM10),65,71,37,36,24,91,91,NA,NA,22,19,6,6,0.5,0.4
2026-06-18T0300,2400A,114.0055,33.5698,漯河市,漯河大学,细颗粒物(PM2.5),52,46,31,36,24,86,86,NA,NA,24,17,8,6,0.5,0.4
2026-06-18T0300,2401A,114.0134,33.5826,漯河市,市水利局,颗粒物(PM10),60,63,39,34,25,99,99,NA,NA,19,17,5,5,0.4,0.3
2026-06-18T0300,2402A,114.0261,33.5697,漯河市,市广电局,细颗粒物(PM2.5),52,46,33,36,22,93,93,NA,NA,23,19,6,6,0.6,0.5
2026-06-18T0300,3478A,113.9691,33.568,漯河市,市图书馆,颗粒物(PM10),61,65,38,32,23,73,73,NA,NA,30,18,13,7,0.7,0.5
2026-06-18T0300,4250A,114.089259,33.588274,漯河市,韶山路11号,"颗粒物(PM10),细颗粒物(PM2.5)",52,52,40,36,23,104,104,NA,NA,14,20,8,8,0.4,0.3
2026-06-18T0300,1798A,118.5084,31.6838,马鞍山市,湖东路四小,,42,41,36,29,20,84,84,NA,NA,26,15,7,7,0.5,0.5
2026-06-18T0300,1799A,118.5019,31.6449,马鞍山市,开发区,NA,NA,70,41,43,23,NA,NA,NA,NA,25,15,8,7,0.6,0.6
2026-06-18T0300,3633A,118.4914,31.681,马鞍山市,雨山,,39,38,33,27,20,98,98,NA,NA,14,10,4,3,0.6,0.7
2026-06-18T0300,4191A,118.527362,31.722269,马鞍山市,慈湖高新区,,48,48,34,28,21,82,82,NA,NA,18,13,6,6,0.4,0.4
2026-06-18T0300,1686A,111.0285,21.469,茂名市,电白南海,,27,27,14,6,7,54,54,NA,NA,2,8,5,4,0.3,0.3
2026-06-18T0300,1687A,110.9294,21.6533,茂名市,茂石化七小,NA,NA,14,15,8,10,41,41,NA,NA,8,12,NA,9,0.4,0.5
2026-06-18T0300,1688A,110.9108,21.6688,茂名市,健康路,NA,NA,9,6,9,9,43,43,NA,NA,9,11,NA,7,0.6,0.7
2026-06-18T0300,1689A,110.8592,21.6826,茂名市,高岭,NA,NA,24,20,10,12,46,46,NA,NA,5,10,NA,6,/,/
2026-06-18T0300,3450A,111.0101,21.5165,茂名市,电白水东,,18,12,8,3,6,56,56,NA,NA,3,8,2,3,/,/
2026-06-18T0300,2540A,103.8414,30.0871,眉山市,气象局,,46,NA,22,32,16,18,18,NA,NA,28,19,6,6,0.7,0.7
2026-06-18T0300,3148A,103.829,30.0563,眉山市,区人社局,NA,NA,42,36,23,14,NA,NA,NA,NA,22,21,7,6,0.6,0.5
2026-06-18T0300,4148A,103.8836,30.0695,眉山市,眉职院,,33,33,24,18,12,35,35,NA,NA,15,14,6,6,0.7,0.7
2026-06-18T0300,1690A,116.1248,24.3307,梅州市,梅江月梅,NA,NA,26,12,7,5,NA,NA,NA,NA,17,10,/,/,/,/
2026-06-18T0300,1691A,116.0798,24.2719,梅州市,梅县新城,,21,21,11,8,7,0,0,NA,NA,20,15,8,8,0.6,0.6
2026-06-18T0300,3315A,116.1234,24.2994,梅州市,梅龙,,17,17,9,3,7,13,13,NA,NA,13,10,6,6,0.6,0.7
2026-06-18T0300,1878A,104.7775,31.4741,绵阳市,富乐山,,22,22,32,14,24,29,29,NA,NA,5,8,9,9,0.8,0.8
2026-06-18T0300,1880A,104.6698,31.4668,绵阳市,高新区自来水公司,NA,NA,37,37,24,26,28,28,NA,NA,14,13,NA,10,0.7,0.7
2026-06-18T0300,3491A,104.6899,31.5324,绵阳市,西科大附属小学,NA,NA,33,37,22,27,10,10,NA,NA,30,16,NA,6,0.5,0.3
2026-06-18T0300,3492A,104.5647,31.5343,绵阳市,安州区旅游局,,35,28,37,24,29,29,29,NA,NA,10,9,9,6,0.5,0.5
2026-06-18T0300,4146A,104.7092,31.4972,绵阳市,科技城新区公安局,,36,36,38,16,25,47,47,NA,NA,10,14,10,10,0.5,0.6
2026-06-18T0300,4226A,104.765114,31.453094,绵阳市,绵阳市气象局,NA,NA,24,27,14,22,62,62,NA,NA,6,11,NA,6,0.4,0.5
2026-06-18T0300,1784A,129.61,44.561,牡丹江市,环保大楼,NA,NA,21,20,13,14,NA,NA,NA,NA,6,12,5,5,0.4,0.4
2026-06-18T0300,1787A,129.6364,44.6075,牡丹江市,机车工厂,,33,33,25,20,18,32,32,NA,NA,14,17,6,6,0.4,0.4
2026-06-18T0300,1788A,129.6386,44.5462,牡丹江市,第一中学,,24,24,17,14,15,43,43,NA,NA,5,7,5,5,0.4,0.4
2026-06-18T0300,4287A,129.5992,44.5964,牡丹江市,东晓云街98号,,29,29,27,17,18,43,43,NA,NA,8,13,5,5,0.3,0.4
2026-06-18T0300,2531A,105.0703,29.61,内江市,市监测站,,25,25,16,10,11,56,56,NA,NA,6,8,12,11,0.5,0.6
2026-06-18T0300,2533A,105.0657,29.5807,内江市,内江二中,,18,17,14,8,8,55,55,NA,NA,6,6,8,8,0.5,0.5
2026-06-18T0300,2534A,105.0407,29.5828,内江市,内江日报社,,19,15,14,8,9,60,60,NA,NA,7,10,13,10,0.3,0.4
2026-06-18T0300,4147A,105.0433,29.6105,内江市,玉峰路西段888号,,21,21,18,9,10,53,53,NA,NA,8,8,8,7,0.5,0.5
2026-06-18T0300,2628A,92.0653,31.4846,那曲市,那曲监测站,,33,11,16,9,10,103,103,NA,NA,4,8,4,4,0.4,0.4
2026-06-18T0300,4243A,92.0515,31.4787,那曲市,那曲市委宣传部,,34,9,10,3,6,106,106,NA,NA,6,8,6,6,0.3,0.3
2026-06-18T0300,1291A,115.8887,28.7006,南昌市,省林业公司,NA,NA,NA,20,14,15,NA,NA,NA,NA,5,11,6,5,0.6,0.7
2026-06-18T0300,1292A,115.813,28.7443,南昌市,林科所,,28,19,18,15,16,16,16,NA,NA,55,12,7,7,0.7,0.7
2026-06-18T0300,1294A,115.8518,28.687,南昌市,建工学校,,22,NA,21,15,18,58,58,NA,NA,7,12,6,7,0.7,0.9
2026-06-18T0300,1295A,115.8926,28.6425,南昌市,象湖,,26,NA,15,18,15,51,51,NA,NA,12,13,9,9,0.6,0.8
2026-06-18T0300,3046A,115.9084,28.6062,南昌市,机电学校,,25,20,26,17,15,47,47,NA,NA,9,11,7,7,0.6,0.6
2026-06-18T0300,3690A,115.9718,28.7032,南昌市,外国语学校,,25,20,18,17,14,44,44,NA,NA,7,5,14,12,0.9,0.7
2026-06-18T0300,4106A,115.7923,28.6873,南昌市,工业二路,NA,NA,21,31,13,20,NA,NA,NA,NA,18,11,6,6,0.7,0.8
2026-06-18T0300,4192A,115.931587,28.686774,南昌市,南京东路235号,NA,NA,NA,17,18,13,60,60,NA,NA,11,7,6,5,NA,1.2
2026-06-18T0300,1906A,106.0791,30.8022,南充市,南充市委,NA,NA,19,27,13,19,46,46,NA,NA,7,13,NA,5,0.2,0.3
2026-06-18T0300,1907A,106.1038,30.8215,南充市,南充炼油厂,NA,NA,18,27,11,19,58,58,NA,NA,4,10,NA,6,0.2,0.3
2026-06-18T0300,4227A,106.108336,30.788436,南充市,梨树横街98号,,18,16,25,10,17,55,55,NA,NA,6,12,6,6,0.5,0.6
2026-06-18T0300,4304A,106.1172,30.843,南充市,清泉寺北路188号,,23,23,28,11,18,57,57,NA,NA,4,8,9,7,0.4,0.4
2026-06-18T0300,4305A,106.067,30.7616,南充市,同庆路1号,,18,18,29,11,17,52,52,NA,NA,10,18,7,6,0.3,0.4
2026-06-18T0300,1151A,118.8033,32.1085,南京市,迈皋桥,,39,30,27,27,16,43,43,NA,NA,14,19,7,6,0.5,0.5
2026-06-18T0300,1152A,118.7487,32.057,南京市,草场门,,35,34,27,24,14,47,47,NA,NA,22,16,6,5,0.3,0.2
2026-06-18T0300,1154A,118.770105,32.004342,南京市,中华门,NA,NA,24,26,23,14,45,45,NA,NA,14,9,NA,7,0.2,0.3
2026-06-18T0300,1155A,118.8059,32.0329,南京市,瑞金路,,29,29,29,19,14,39,39,NA,NA,25,16,4,4,0.4,0.5
2026-06-18T0300,1156A,118.7946,32.0774,南京市,玄武湖,,41,41,30,21,13,36,36,NA,NA,20,18,10,7,0.4,0.4
2026-06-18T0300,1157A,118.6415,32.0964,南京市,浦口,,35,35,32,22,18,16,16,NA,NA,48,21,4,5,0.6,0.6
2026-06-18T0300,1158A,118.730129,32.000956,南京市,奥体中心,,35,35,33,21,13,37,37,NA,NA,27,19,8,7,0.5,0.4
2026-06-18T0300,1159A,118.9072,32.1047,南京市,仙林大学城,NA,NA,41,34,30,15,35,35,NA,NA,26,17,NA,7,0.7,0.6
2026-06-18T0300,3422A,118.8443,31.919,南京市,江宁彩虹桥,颗粒物(PM10),51,51,31,25,14,33,33,NA,NA,26,14,4,4,0.5,0.4
2026-06-18T0300,3427A,118.8497,32.3599,南京市,六合雄州,NA,NA,29,22,15,10,28,28,NA,NA,18,12,NA,4,0.4,0.3
2026-06-18T0300,4086A,118.7641,32.0841,南京市,新模范马路66号,,36,36,36,20,12,54,54,NA,NA,16,11,4,4,0.4,0.4
2026-06-18T0300,4249A,118.8707617,31.34017673,南京市,汶溪路181号,细颗粒物(PM2.5),56,44,29,38,19,97,97,NA,NA,18,12,6,8,0.7,0.4
2026-06-18T0300,4312A,119.019,31.6512,南京市,中山西路1号,细颗粒物(PM2.5),56,39,28,38,16,38,38,NA,NA,38,16,4,4,0.6,0.5
2026-06-18T0300,1401A,108.3098,22.788,南宁市,二十一中,,26,26,20,10,10,40,40,NA,NA,7,10,2,2,0.8,0.9
2026-06-18T0300,1402A,108.3135,22.8529,南宁市,北湖,,29,24,20,20,14,42,42,NA,NA,6,10,3,2,0.6,0.7
2026-06-18T0300,1403A,108.3205,22.8222,南宁市,市监测站,,23,23,18,10,9,48,48,NA,NA,5,8,3,8,0.7,0.7
2026-06-18T0300,1404A,108.3828,22.8038,南宁市,大自然花园,,26,26,17,9,11,46,46,NA,NA,7,9,4,4,0.5,0.6
2026-06-18T0300,1406A,108.2397,22.8462,南宁市,区农职院,,23,23,20,13,13,44,44,NA,NA,9,12,2,2,0.8,0.9
2026-06-18T0300,1407A,108.3285,22.7356,南宁市,英华嘉园,,30,30,24,10,10,43,43,NA,NA,8,12,4,4,0.6,0.7
2026-06-18T0300,3401A,108.4829,22.762,南宁市,红星社区,,21,21,19,6,11,40,40,NA,NA,7,8,5,5,0.4,0.6
2026-06-18T0300,4132A,108.2927,23.1477,南宁市,起凤路9号,,23,23,18,14,15,44,44,NA,NA,10,11,4,5,0.4,0.5
2026-06-18T0300,4221A,108.2177,22.7774,南宁市,乐贤路16号,,27,27,23,12,11,32,32,NA,NA,15,17,4,4,0.8,0.7
2026-06-18T0300,2332A,118.1682,26.6371,南平市,南平市监测站,,11,7,15,3,6,35,35,NA,NA,4,6,4,4,0.3,0.5
2026-06-18T0300,2334A,118.1757,26.6276,南平市,南平七中,,14,9,14,3,4,43,43,NA,NA,3,5,2,2,0.2,0.3
2026-06-18T0300,1168A,120.9056,31.9669,南通市,狼山街道,细颗粒物(PM2.5),52,NA,8,36,12,40,40,NA,NA,12,10,4,4,1.0,0.6
2026-06-18T0300,1170A,120.8635,32.0231,南通市,城中,,45,NA,16,31,9,49,49,NA,NA,10,12,2,2,0.8,0.5
2026-06-18T0300,1171A,120.9376,31.9301,南通市,星湖花园,,46,NA,13,32,13,41,41,NA,NA,8,13,4,4,1.0,0.7
2026-06-18T0300,1172A,120.8053,32.046,南通市,紫琅学院,NA,NA,NA,12,16,10,49,49,NA,NA,9,10,NA,5,0.6,0.5
2026-06-18T0300,3291A,121.0631,32.0644,南通市,通州监测站,,35,NA,11,24,8,74,74,NA,NA,2,2,5,5,0.9,0.7
2026-06-18T0300,3432A,120.9348,31.9874,南通市,环境教育馆,,39,39,18,26,11,38,38,NA,NA,13,11,5,5,1.0,0.5
2026-06-18T0300,4091A,120.8692,31.9885,南通市,洪江路,,49,NA,12,34,11,41,41,NA,NA,7,12,3,4,1.1,0.7
2026-06-18T0300,2404A,112.5338,33.0086,南阳市,瓦房庄,NA,NA,37,41,20,21,99,99,NA,NA,8,9,NA,5,0.7,0.7
2026-06-18T0300,2405A,112.5002,32.9734,南阳市,汉画馆,,39,39,46,22,23,95,95,NA,NA,14,17,6,6,0.5,0.5
2026-06-18T0300,2406A,112.5778,33.0144,南阳市,气象站,,40,40,43,20,21,95,95,NA,NA,7,10,8,7,0.4,0.4
2026-06-18T0300,2407A,112.548,32.9687,南阳市,理工学院,,43,36,40,30,24,97,97,NA,NA,15,15,6,6,0.5,0.5
2026-06-18T0300,4008A,112.5233,32.9921,南阳市,卧龙区政府,NA,NA,53,39,17,21,96,96,NA,NA,12,12,NA,5,0.7,0.7
2026-06-18T0300,1234A,121.8352,29.9111,宁波市,区环保大楼,,48,48,41,13,15,12,12,NA,NA,50,53,10,9,0.8,0.9
2026-06-18T0300,1235A,121.5595,29.8208,宁波市,万里学院,细颗粒物(PM2.5),66,53,38,43,23,30,30,NA,NA,29,22,7,9,0.6,0.6
2026-06-18T0300,1236A,121.713,29.9564,宁波市,龙赛医院,NA,NA,48,53,14,23,1,1,NA,NA,67,37,8,6,NA,0.5
2026-06-18T0300,1240A,121.5855,29.8635,宁波市,太古小学,NA,NA,34,41,16,24,NA,NA,NA,NA,26,26,4,5,0.5,0.5
2026-06-18T0300,1241A,121.5239,29.8673,宁波市,市环境监测中心,细颗粒物(PM2.5),60,56,38,40,31,25,25,NA,NA,41,29,3,3,0.5,0.4
2026-06-18T0300,2871A,121.6156,29.9015,宁波市,万里国际学校,NA,NA,31,42,16,25,9,9,NA,NA,59,28,9,8,NA,0.6
2026-06-18T0300,3710A,121.5593,29.8976,宁波市,白沙活动中心,细颗粒物(PM2.5),76,NA,32,48,35,35,35,NA,NA,35,26,8,8,0.6,0.6
2026-06-18T0300,4095A,121.8962,29.7529,宁波市,中科路88号,NA,NA,28,20,7,9,22,22,NA,NA,32,19,NA,6,0.1,0.1
2026-06-18T0300,2341A,119.5387,26.6611,宁德市,宁德市监测站,,13,6,16,3,13,39,39,NA,NA,8,22,4,5,0.6,0.9
2026-06-18T0300,3209A,119.5231,26.6562,宁德市,宁德一中,,9,7,17,3,16,26,26,NA,NA,5,12,6,6,0.6,1
2026-06-18T0300,2618A,98.859,25.8541,怒江傈僳族自治州,州监测站,,24,24,18,15,9,20,20,NA,NA,11,9,5,5,0.4,0.4
2026-06-18T0300,2619A,98.8607,25.8168,怒江傈僳族自治州,泸水一中,,22,22,17,9,12,11,11,NA,NA,11,9,4,4,0.7,0.7
2026-06-18T0300,1888A,101.6891,26.571,攀枝花市,弄弄坪,NA,NA,76,57,19,15,2,2,NA,NA,35,20,NA,17,2.0,1.1
2026-06-18T0300,1889A,101.577,26.5914,攀枝花市,河门口,NA,NA,85,39,25,13,5,5,NA,NA,20,18,NA,32,0.6,1.6
2026-06-18T0300,1891A,101.7365,26.4986,攀枝花市,仁和,,40,37,25,28,17,5,5,NA,NA,18,11,9,9,1.9,0.8
2026-06-18T0300,2835A,101.7222,26.567,攀枝花市,四十中小,NA,NA,34,27,18,15,4,4,NA,NA,27,19,NA,49,1.7,1.7
2026-06-18T0300,1604A,122.0303,41.1489,盘锦市,开发区,NA,NA,NA,26,37,25,NA,NA,NA,NA,5,6,7,7,0.3,0.2
2026-06-18T0300,1605A,122.0486,41.0883,盘锦市,兴隆台,NA,NA,NA,27,36,22,NA,NA,NA,NA,12,10,5,5,0.5,0.4
2026-06-18T0300,1606A,121.8297,41.1026,盘锦市,新生街道,,46,NA,24,32,28,98,98,NA,NA,12,13,5,5,0.3,0.3
2026-06-18T0300,1832A,113.3257,33.7423,平顶山市,新华旅馆,颗粒物(PM10),79,90,55,35,27,59,59,NA,NA,40,19,6,4,0.9,0.9
2026-06-18T0300,1833A,113.2917,33.737,平顶山市,规划设计院,颗粒物(PM10),69,76,43,40,26,48,48,NA,NA,52,20,8,6,0.7,0.6
2026-06-18T0300,1834A,113.182,33.7738,平顶山市,平顶山工学院,,48,48,39,26,24,75,75,NA,NA,24,16,6,6,0.5,0.5
2026-06-18T0300,3594A,112.8736,33.9068,平顶山市,石龙区,颗粒物(PM10),85,99,60,32,27,37,37,NA,NA,54,25,6,6,0.6,0.6
2026-06-18T0300,4116A,113.284,33.7139,平顶山市,姚电大道23号,颗粒物(PM10),74,83,49,31,25,40,40,NA,NA,65,20,10,8,0.8,0.8
2026-06-18T0300,2656A,106.6633,35.5338,平凉市,聚贤嘉苑,,42,42,48,19,21,8,8,NA,NA,42,18,8,10,0.7,0.7
2026-06-18T0300,2657A,106.7021,35.5307,平凉市,博物馆,颗粒物(PM10),52,52,45,28,21,45,45,NA,NA,29,15,28,10,0.5,0.5
2026-06-18T0300,2348A,113.8384,27.6436,萍乡市,中医院,,30,21,36,21,25,72,72,NA,NA,8,11,7,9,0.6,0.8
2026-06-18T0300,2350A,113.8677,27.6438,萍乡市,市环保局,,39,39,46,18,29,69,69,NA,NA,7,9,12,13,0.6,0.6
2026-06-18T0300,2351A,113.8663,27.6202,萍乡市,安源区政府,,42,35,38,29,29,69,69,NA,NA,11,13,9,11,0.5,0.8
2026-06-18T0300,4107A,113.8686,27.6668,萍乡市,联洪村委会,,39,30,41,27,28,66,66,NA,NA,5,7,8,9,0.6,0.7
2026-06-18T0300,2319A,119.0142,25.4324,莆田市,荔城区仓后路,,30,30,16,13,5,17,17,NA,NA,15,10,/,/,/,/
2026-06-18T0300,2320A,119.0016,25.4553,莆田市,莆田市监测站,,29,29,18,3,3,10,10,NA,NA,9,7,3,3,0.4,0.4
2026-06-18T0300,2321A,119.112,25.4561,莆田市,涵江区六中,,20,20,13,8,6,23,23,NA,NA,19,12,/,/,0.7,0.7
2026-06-18T0300,2322A,119.1014,25.3215,莆田市,秀屿区政府,,20,20,16,11,5,49,49,NA,NA,23,9,10,6,0.5,0.5
2026-06-18T0300,2392A,115.0312,35.7636,濮阳市,环保局,,40,40,39,20,20,94,94,NA,NA,13,11,7,5,0.5,0.5
2026-06-18T0300,3021A,115,35.7667,濮阳市,濮水河管理处,,37,37,33,23,19,101,101,NA,NA,16,13,7,6,0.4,0.4
2026-06-18T0300,4118A,115.0552,35.7816,濮阳市,中原东路68号,颗粒物(PM10),52,52,45,17,17,97,97,NA,NA,15,13,5,5,0.4,0.3
2026-06-18T0300,4216A,115.0923632,35.76857718,濮阳市,任丘路479号,NA,NA,50,42,23,24,91,91,NA,NA,18,14,NA,4,0.5,0.4
2026-06-18T0300,2601A,100.9801,22.7634,普洱市,市环保局,,29,29,29,11,12,40,40,NA,NA,3,5,4,5,0.6,0.6
2026-06-18T0300,2602A,100.9763,22.8237,普洱市,普洱第二中学,,28,28,27,15,10,25,25,NA,NA,11,8,6,5,0.7,0.6
2026-06-18T0300,3345A,131.0413,45.7795,七台河市,中波台,,20,NA,6,10,13,61,61,NA,NA,12,11,5,4,0.4,0.5
2026-06-18T0300,3637A,131.0136,45.7688,七台河市,人民广场,,23,23,18,11,14,53,53,NA,NA,18,13,7,7,0.5,0.6
2026-06-18T0300,3684A,130.8639,45.8144,七台河市,新建矿广场,,23,NA,15,16,15,56,56,NA,NA,9,11,15,21,0.4,0.3
2026-06-18T0300,1779A,123.9307,47.3641,齐齐哈尔市,安居小区,,30,19,24,9,13,93,93,NA,NA,5,11,10,4,0.4,0.7
2026-06-18T0300,1780A,123.9497,47.3389,齐齐哈尔市,中心广场,,29,29,29,10,17,78,78,NA,NA,16,15,4,3,0.6,0.5
2026-06-18T0300,1781A,123.9483,47.3229,齐齐哈尔市,农牧车辆厂,NA,NA,29,36,10,15,NA,NA,NA,NA,15,12,4,4,0.3,0.2
2026-06-18T0300,1783A,123.9442,47.2994,齐齐哈尔市,市环境监测站,,33,NA,20,23,18,96,96,NA,NA,6,10,2,2,0.5,0.6
2026-06-18T0300,3662A,123.6341,47.2079,齐齐哈尔市,富区青少年活动中心,,25,25,24,10,15,70,70,NA,NA,14,15,4,4,0.5,0.5
2026-06-18T0300,2591A,107.9765,26.5724,黔东南苗族侗族自治州,市环境监测站,,14,14,27,8,22,32,32,NA,NA,6,11,2,2,0.4,0.4
2026-06-18T0300,2881A,107.8909,26.531,黔东南苗族侗族自治州,凯里学院,,15,NA,17,10,18,36,36,NA,NA,5,6,3,1,0.6,0.5
2026-06-18T0300,2593A,107.5223,26.2371,黔南布依族苗族自治州,小围寨,NA,NA,NA,33,NA,17,NA,NA,34,NA,NA,13,NA,5,NA,0.6
2026-06-18T0300,3538A,107.5175,26.2977,黔南布依族苗族自治州,沙坝,,10,9,21,7,14,12,12,NA,NA,4,7,3,4,0.7,0.7
2026-06-18T0300,2589A,104.9022,25.0943,黔西南布依族苗族自治州,场坝街,,17,11,15,3,7,52,52,NA,NA,2,4,1,2,0.2,0.3
2026-06-18T0300,2590A,104.8812,25.0994,黔西南布依族苗族自治州,坪东大道,,18,13,12,3,7,56,56,NA,NA,2,3,4,5,0.3,0.3
2026-06-18T0300,2502A,108.6238,21.9667,钦州市,市环保站,,14,14,10,8,5,40,40,NA,NA,7,11,3,3,0.5,0.6
2026-06-18T0300,2503A,108.655,21.9481,钦州市,沙埠小学,,25,25,17,10,10,34,34,NA,NA,7,11,1,1,0.5,0.5
2026-06-18T0300,2504A,108.5989,21.7435,钦州市,港区一小,,32,29,22,22,12,70,70,NA,NA,8,12,2,3,0.6,0.7
2026-06-18T0300,3404A,108.5959,21.9634,钦州市,北职校,,20,20,16,14,9,46,46,NA,NA,9,11,4,2,0.7,0.7
2026-06-18T0300,1046A,119.5247,39.9346,秦皇岛市,建设大厦,NA,NA,64,48,30,21,44,44,NA,NA,26,17,NA,6,0.7,0.6
2026-06-18T0300,3132A,119.5979,39.938,秦皇岛市,文明里,NA,NA,75,49,35,24,54,54,NA,NA,42,22,NA,7,0.6,0.5
2026-06-18T0300,4066A,119.7458,39.9952,秦皇岛市,南园路157号,NA,NA,52,37,36,21,44,44,NA,NA,43,17,NA,9,0.6,0.5
2026-06-18T0300,4067A,119.5131,39.8858,秦皇岛市,翠岛大街1号,,47,47,26,30,19,94,94,NA,NA,15,11,11,10,0.6,0.5
2026-06-18T0300,4198A,119.509013,39.825305,秦皇岛市,北戴河轮滑馆,颗粒物(PM10),51,51,34,18,19,127,127,NA,NA,6,7,9,9,0.5,0.5
2026-06-18T0300,1310A,120.404,36.0625,青岛市,市南区东部子站,,19,17,18,13,15,48,48,NA,NA,23,8,9,6,0.2,0.2
2026-06-18T0300,1311A,120.362344,36.10282,青岛市,四方区子站,,25,NA,14,13,13,80,80,NA,NA,7,6,8,8,0.6,0.6
2026-06-18T0300,1312A,120.294373,36.054183,青岛市,市南区西部子站,,21,NA,15,10,14,35,35,NA,NA,42,25,7,6,0.5,0.5
2026-06-18T0300,1313A,120.4581,36.0858,青岛市,崂山区子站,,22,12,16,12,14,69,69,NA,NA,6,10,8,7,0.3,0.3
2026-06-18T0300,1315A,120.3945,36.3083,青岛市,城阳区子站,,26,22,19,18,13,48,48,NA,NA,15,12,7,7,0.3,0.3
2026-06-18T0300,3642A,120.3454,36.0735,青岛市,市北区南部,,23,10,16,8,12,73,73,NA,NA,11,11,3,4,0.6,0.6
2026-06-18T0300,3643A,120.3897,36.18,青岛市,李沧区北部,,30,NA,13,21,13,52,52,NA,NA,14,9,6,6,0.4,0.4
2026-06-18T0300,4110A,120.5222,36.4089,青岛市,盟旺路653号,,26,22,21,18,13,59,59,NA,NA,6,6,7,7,0.6,0.6
2026-06-18T0300,4290A,120.196923,35.954556,青岛市,珠江路669号,,20,NA,14,12,14,62,62,NA,NA,6,8,6,5,0.3,0.3
2026-06-18T0300,4291A,120.0424,35.8656,青岛市,黄岛区人民政府广场,,25,NA,20,17,15,65,65,NA,NA,10,11,6,6,0.5,0.6
2026-06-18T0300,1703A,113.0218,23.7086,清远市,凤城街办,,16,16,19,11,9,20,20,NA,NA,20,19,/,/,/,/
2026-06-18T0300,3025A,113.0479,23.6343,清远市,技师学院,,19,19,13,10,8,25,25,NA,NA,21,17,7,5,0.4,0.4
2026-06-18T0300,3318A,112.9898,23.7403,清远市,清新太和,,19,17,14,13,10,24,24,NA,NA,19,15,6,5,0.5,0.4
2026-06-18T0300,3455A,113.076,23.72,清远市,清城东城,,12,12,18,7,9,27,27,NA,NA,14,14,/,/,/,/
2026-06-18T0300,2661A,107.6325,35.7357,庆阳市,庆阳五中,颗粒物(PM10),61,65,43,26,22,127,127,NA,NA,9,9,8,6,0.4,0.4
2026-06-18T0300,2662A,107.6361,35.7067,庆阳市,市环保局,,40,39,40,24,22,128,128,NA,NA,10,10,7,5,0.5,0.5
2026-06-18T0300,1916A,103.7897,25.5036,曲靖市,环境监测站,,12,9,16,7,9,37,37,NA,NA,7,8,1,4,0.5,0.5
2026-06-18T0300,1917A,103.8013,25.5357,曲靖市,烟厂办公区,,17,17,16,8,9,38,38,NA,NA,8,7,1,2,0.5,0.5
2026-06-18T0300,3376A,103.7926,25.4651,曲靖市,南苑二区,,12,12,11,3,7,34,34,NA,NA,9,9,4,4,0.4,0.3
2026-06-18T0300,3377A,103.7442,25.5259,曲靖市,曲靖师范学院,,19,19,16,12,11,41,41,NA,NA,9,8,3,3,0.5,0.4
2026-06-18T0300,1264A,118.8694,28.94,衢州市,环保大楼,,14,11,33,3,21,43,43,NA,NA,12,16,/,/,/,/
2026-06-18T0300,1266A,118.8622,28.9809,衢州市,衢州学院,,43,43,34,7,23,53,53,NA,NA,12,18,4,4,0.4,0.5
2026-06-18T0300,4097A,118.9646,28.9832,衢州市,衢州三中,NA,NA,12,28,10,20,NA,NA,NA,NA,10,16,5,5,0.6,0.6
2026-06-18T0300,1611A,118.5818,24.9116,泉州市,涂山街,,15,NA,12,10,8,36,36,NA,NA,17,14,3,3,0.5,0.5
2026-06-18T0300,1612A,118.597,24.8976,泉州市,津头埔,,25,NA,9,17,13,29,29,NA,NA,18,14,2,2,0.6,0.7
2026-06-18T0300,1613A,118.6669,24.9422,泉州市,万安,,12,12,14,8,7,36,36,NA,NA,13,12,3,3,0.3,0.3
2026-06-18T0300,4105A,118.6355,24.9148,泉州市,霞新路6号,,16,16,12,9,8,32,32,NA,NA,20,18,/,/,0.5,0.5
2026-06-18T0300,2626A,88.8873,29.2723,日喀则市,日喀则监测站,,39,12,10,3,3,122,122,NA,NA,3,4,6,7,0.4,0.4
2026-06-18T0300,3726A,88.8775,29.2425,日喀则市,林业技术推广中心,,36,16,13,3,1,114,114,NA,NA,2,2,6,5,0.4,0.3
2026-06-18T0300,1659A,119.4711,35.421,日照市,监测站,,30,NA,13,21,15,49,49,NA,NA,20,15,10,9,0.3,0.3
2026-06-18T0300,1660A,119.523,35.4216,日照市,市政府广场,,19,17,22,13,13,57,57,NA,NA,17,16,9,9,0.4,0.4
2026-06-18T0300,1661A,119.5511,35.4113,日照市,港务局,,25,NA,18,12,14,77,77,NA,NA,6,13,6,6,0.6,0.6
2026-06-18T0300,3507A,119.5326,35.4627,日照市,职业技术学院,,21,17,17,14,13,67,67,NA,NA,9,10,7,8,0.4,0.5
2026-06-18T0300,3604A,119.3267,35.1043,日照市,岚山环保分局,,21,12,26,10,12,67,67,NA,NA,14,17,10,10,0.6,0.6
2026-06-18T0300,1835A,111.1922,34.7752,三门峡市,市政府,,32,28,41,22,24,83,83,NA,NA,12,11,9,12,0.3,0.4
2026-06-18T0300,1836A,111.1588,34.794,三门峡市,开发区,,33,33,44,15,22,90,90,NA,NA,10,13,8,8,0,0.1
2026-06-18T0300,3039A,111.1911,34.7829,三门峡市,三门峡市第一小学,NA,NA,24,45,20,23,86,86,NA,NA,15,13,NA,13,0.4,0.4
2026-06-18T0300,3598A,111.1031,34.719,三门峡市,富达温泉假日酒店,NA,NA,27,43,26,24,74,74,NA,NA,9,10,NA,10,0.7,0.7
2026-06-18T0300,2324A,117.621,26.2626,三明市,三钢,,16,14,14,11,9,22,22,NA,NA,12,13,4,13,0.7,1.3
2026-06-18T0300,2325A,117.6352,26.2714,三明市,三明二中,,15,15,13,6,7,25,25,NA,NA,10,10,4,6,0.8,0.9
2026-06-18T0300,2326A,117.6028,26.2377,三明市,三元区政府,,12,12,13,6,7,28,28,NA,NA,5,8,3,5,0.4,0.5
2026-06-18T0300,1877A,109.4962,18.2682,三亚市,河西子站,,28,28,20,13,13,82,82,NA,NA,12,11,2,2,0.3,0.3
2026-06-18T0300,3540A,109.7348,18.3443,三亚市,君悦子站,,26,26,21,9,8,82,82,NA,NA,4,7,2,2,0.5,0.5
2026-06-18T0300,4135A,109.1714,18.3739,三亚市,城东小学站,NA,NA,NA,27,14,10,70,70,NA,NA,3,5,/,/,/,/
2026-06-18T0300,2624A,91.7592,29.234,山南市,山南监测站,,34,6,11,3,4,108,108,NA,NA,1,3,5,5,0.2,0.2
2026-06-18T0300,2625A,91.7701,29.2436,山南市,山南人民医院,,35,NA,15,7,5,110,110,NA,NA,1,3,5,4,0.2,0.2
2026-06-18T0300,1674A,116.6795,23.3666,汕头市,金平子站,,19,NA,9,13,7,28,28,NA,NA,10,8,4,3,0.5,0.5
2026-06-18T0300,1675A,116.7248,23.3632,汕头市,龙湖子站,,18,17,10,12,6,28,28,NA,NA,9,6,7,6,/,/
2026-06-18T0300,1676A,116.7257,23.2774,汕头市,濠江子站,,24,24,14,10,6,19,19,NA,NA,15,12,9,8,/,/
2026-06-18T0300,1677A,116.7518,23.4712,汕头市,澄海子站,,15,13,13,10,7,32,32,NA,NA,8,10,3,4,0.6,0.7
2026-06-18T0300,1678A,116.6088,23.2539,汕头市,潮阳子站,,15,9,10,6,6,46,46,NA,NA,6,6,6,6,0.6,0.6
2026-06-18T0300,3444A,116.4539,23.2684,汕头市,潮南峡山,NA,NA,19,14,10,9,NA,NA,NA,NA,12,8,7,6,0.9,0.9
2026-06-18T0300,3624A,116.4069,23.2533,汕头市,潮南子站,NA,NA,16,14,9,8,34,34,NA,NA,10,10,NA,5,/,/
2026-06-18T0300,1693A,115.3653,22.7751,汕尾市,市环保局,NA,NA,19,17,6,5,42,42,NA,NA,5,5,NA,5,0.5,0.5
2026-06-18T0300,1695A,115.362,22.7926,汕尾市,新城中学,,19,19,11,6,5,41,41,NA,NA,5,4,6,6,0.5,0.5
2026-06-18T0300,2645A,109.9155,33.8714,商洛市,监测站,,29,20,34,12,23,92,92,NA,NA,6,10,5,6,0.7,0.8
2026-06-18T0300,3045A,109.9647,33.8486,商洛市,商州区中学,,34,34,36,15,24,103,103,NA,NA,9,15,11,9,0.8,0.9
2026-06-18T0300,2408A,115.6701,34.4283,商丘市,环境监测站,,22,22,37,12,20,63,63,NA,NA,8,8,6,4,0.3,0.4
2026-06-18T0300,2409A,115.6458,34.4047,商丘市,粮食局,,23,23,28,8,18,64,64,NA,NA,12,12,7,6,0.2,0.2
2026-06-18T0300,3171A,115.6069,34.4465,商丘市,梁园区档案局,NA,NA,NA,33,NA,18,NA,NA,155,NA,NA,8,NA,2,NA,0.1
2026-06-18T0300,4119A,115.6701,34.3767,商丘市,北海东路185号,,24,24,28,11,16,60,60,NA,NA,14,14,5,4,0.4,0.4
2026-06-18T0300,4120A,115.6172,34.3704,商丘市,中山大街3号,,33,33,40,8,15,55,55,NA,NA,13,10,8,8,0.4,0.4
2026-06-18T0300,1141A,121.401,31.2382,上海市,普陀,细颗粒物(PM2.5),52,47,41,36,29,95,95,NA,NA,20,24,5,6,0.3,0.4
2026-06-18T0300,1142A,121.4774,31.2043,上海市,十五厂,细颗粒物(PM2.5),60,53,42,40,30,90,90,NA,NA,22,25,8,6,0.6,0.7
2026-06-18T0300,1143A,121.4673,31.3011,上海市,虹口,细颗粒物(PM2.5),64,65,39,42,30,21,21,NA,NA,62,21,7,4,0.6,0.7
2026-06-18T0300,1147A,121.4253,31.226,上海市,静安监测站,NA,NA,50,39,34,30,NA,NA,NA,NA,21,24,8,8,0.7,0.8
2026-06-18T0300,1148A,121.7029,31.1905,上海市,浦东川沙,颗粒物(PM10),52,52,39,34,29,43,43,NA,NA,36,24,8,8,0.9,1
2026-06-18T0300,1149A,121.5339,31.229,上海市,浦东新区监测站,细颗粒物(PM2.5),74,65,41,47,30,38,38,NA,NA,34,19,6,6,0.5,0.6
2026-06-18T0300,1150A,121.5776,31.2038,上海市,浦东张江,细颗粒物(PM2.5),60,60,39,40,28,25,25,NA,NA,56,21,8,7,0.2,0.5
2026-06-18T0300,3265A,121.4242,31.3303,上海市,宝山庙行,颗粒物(PM10),78,88,55,41,30,2,2,NA,NA,94,28,10,10,0.4,0.5
2026-06-18T0300,3266A,121.8789,31.4662,上海市,崇明上实东滩,,21,NA,20,13,22,66,66,NA,NA,4,6,8,8,0.2,0.2
2026-06-18T0300,3268A,121.316,31.2839,上海市,嘉定南翔,细颗粒物(PM2.5),74,62,40,47,30,61,61,NA,NA,33,26,5,6,0.4,0.5
2026-06-18T0300,3269A,121.3357,30.7455,上海市,金山新城,NA,NA,25,31,22,26,65,65,NA,NA,12,11,NA,4,0.7,0.8
2026-06-18T0300,3270A,121.4996,31.0741,上海市,闵行浦江,细颗粒物(PM2.5),72,57,40,46,31,66,66,NA,NA,17,18,6,6,0.3,0.4
2026-06-18T0300,3271A,121.2886,31.1663,上海市,青浦徐泾,细颗粒物(PM2.5),76,58,38,48,30,75,75,NA,NA,18,17,7,6,0.4,0.4
2026-06-18T0300,3272A,121.2193,31.0382,上海市,松江图书馆,细颗粒物(PM2.5),114,78,52,75,38,77,77,NA,NA,18,13,8,7,0.5,0.5
2026-06-18T0300,3273A,121.3904,31.206,上海市,长宁仙霞,NA,NA,38,36,36,30,101,101,NA,NA,12,22,NA,7,0.3,0.4
2026-06-18T0300,3274A,121.7964,31.0507,上海市,浦东惠南,细颗粒物(PM2.5),104,77,39,64,31,50,50,NA,NA,33,18,8,8,0.5,0.5
2026-06-18T0300,3544A,121.4891,30.925,上海市,奉贤南桥新城,NA,NA,61,37,53,30,45,45,NA,NA,26,22,NA,6,0.5,0.5
2026-06-18T0300,4183A,121.417401,31.16637,上海市,冠生园路458号,细颗粒物(PM2.5),58,52,38,39,29,50,50,NA,NA,32,21,5,5,0.8,0.7
2026-06-18T0300,4205A,121.541914,31.268301,上海市,宁武路151号,细颗粒物(PM2.5),60,57,46,40,31,20,20,NA,NA,66,33,7,7,0.3,0.4
2026-06-18T0300,2382A,117.9758,28.4439,上饶市,市监测站,NA,NA,25,33,14,18,NA,NA,NA,NA,2,6,6,7,/,/
2026-06-18T0300,2383A,117.9521,28.4637,上饶市,凤凰光学,NA,NA,21,29,13,17,NA,NA,NA,NA,9,8,13,9,0.6,0.6
2026-06-18T0300,3685A,117.897,28.4316,上饶市,双创科技城,NA,NA,30,33,22,17,NA,NA,NA,NA,13,11,11,8,0.6,0.6
2026-06-18T0300,4211A,118.190438,28.444845,上饶市,裕丰大道,,13,13,24,8,14,36,36,NA,NA,7,7,11,9,0.5,0.5
2026-06-18T0300,1669A,113.5821,24.7733,韶关市,市八中,,12,7,10,3,5,36,36,NA,NA,12,12,9,13,0.6,0.6
2026-06-18T0300,1671A,113.5916,24.7973,韶关市,园林处,,10,7,11,3,5,31,31,NA,NA,15,14,8,12,/,/
2026-06-18T0300,1673A,113.5971,24.6864,韶关市,曲江监测站,,10,10,10,3,5,31,31,NA,NA,10,11,7,7,0.5,0.7
2026-06-18T0300,2809A,113.6668,24.7756,韶关市,大学路288号,,12,12,13,6,7,36,36,NA,NA,12,9,8,11,/,/
2026-06-18T0300,3622A,113.5556,24.8082,韶关市,碧湖山庄,,12,6,9,3,3,38,38,NA,NA,10,12,5,10,0.5,0.6
2026-06-18T0300,2464A,111.5277,27.2442,邵阳市,市化工厂,NA,NA,NA,38,48,36,63,63,NA,NA,17,9,NA,8,0.5,0.5
2026-06-18T0300,2466A,111.4327,27.2276,邵阳市,市环保局,,50,NA,41,35,35,96,96,NA,NA,5,7,4,4,0.6,0.6
2026-06-18T0300,4218A,111.446,27.2472,邵阳市,北塔二期4-26地块,细颗粒物(PM2.5),66,NA,39,43,26,41,41,NA,NA,13,8,4,5,0.6,0.5
2026-06-18T0300,4219A,111.4739,27.2282,邵阳市,邵水西路287号,细颗粒物(PM2.5),60,40,38,40,33,93,93,NA,NA,4,6,5,6,0.5,0.5
2026-06-18T0300,1247A,120.6053,29.9927,绍兴市,城东开发委,,41,41,47,28,34,57,57,NA,NA,24,18,9,8,0.4,0.4
2026-06-18T0300,2921A,120.5482,30.0003,绍兴市,树下王站,颗粒物(PM10),56,58,51,25,34,71,71,NA,NA,16,17,8,8,0.4,0.4
2026-06-18T0300,3408A,120.5685,29.936,绍兴市,绍兴中专,NA,NA,50,39,36,27,32,32,NA,NA,26,16,NA,5,0.7,0.6
2026-06-18T0300,3409A,120.4905,30.086,绍兴市,柯桥区政府,细颗粒物(PM2.5),92,NA,50,56,52,61,61,NA,NA,25,21,6,6,0.6,0.6
2026-06-18T0300,3410A,120.8751,30.0249,绍兴市,重华小学,NA,NA,54,41,39,31,49,49,NA,NA,30,19,NA,9,0.8,0.8
2026-06-18T0300,3411A,120.837,30.0137,绍兴市,上虞中学,细颗粒物(PM2.5),66,63,44,43,31,70,70,NA,NA,16,15,8,8,0.6,0.5
2026-06-18T0300,3560A,120.4715,30.0414,绍兴市,柯桥妇保,颗粒物(PM10),52,52,60,26,41,39,39,NA,NA,16,19,6,6,0.5,0.5
2026-06-18T0300,3658A,120.6156,30.0762,绍兴市,袍江中学,NA,NA,NA,58,NA,38,NA,NA,172,NA,NA,18,NA,8,NA,0.5
2026-06-18T0300,1356A,114.0948,22.5506,深圳市,通心岭子站,,15,15,9,6,4,20,20,NA,NA,14,10,2,2,0.6,0.5
2026-06-18T0300,1357A,114.1153,22.5713,深圳市,洪湖,,14,14,12,3,4,25,25,NA,NA,11,11,5,5,0.3,0.3
2026-06-18T0300,1358A,113.9823,22.5398,深圳市,华侨城,,12,12,10,3,3,31,31,NA,NA,14,11,/,/,/,/
2026-06-18T0300,1359A,113.9181,22.517,深圳市,南海子站,,11,10,15,3,6,35,35,NA,NA,11,10,4,4,0.7,0.8
2026-06-18T0300,1360A,114.2345,22.565,深圳市,盐田,,17,15,11,3,3,10,10,NA,NA,33,23,6,5,0.2,0.2
2026-06-18T0300,1363A,114.4911,22.5381,深圳市,南澳,,14,14,11,3,0,33,33,NA,NA,12,6,/,/,/,/
2026-06-18T0300,1364A,114.41,22.6346,深圳市,葵涌,,15,10,13,3,3,45,45,NA,NA,8,9,7,6,0.6,0.6
2026-06-18T0300,1365A,114.2967,22.5978,深圳市,梅沙,,14,14,12,3,2,33,33,NA,NA,15,11,/,/,/,/
2026-06-18T0300,1366A,114.0563,22.7353,深圳市,观澜,NA,NA,28,13,16,6,NA,NA,NA,NA,38,20,6,6,0.6,0.4
2026-06-18T0300,3305A,114.0614,22.556,深圳市,莲花,,16,16,12,10,7,10,10,NA,NA,12,9,/,/,/,/
2026-06-18T0300,3306A,114.0144,22.6163,深圳市,民治,,18,18,10,10,5,28,28,NA,NA,15,9,/,/,/,/
2026-06-18T0300,3307A,114.1756,22.6421,深圳市,横岗,,17,17,10,10,6,16,16,NA,NA,31,20,/,/,/,/
2026-06-18T0300,3447A,114.344,22.7115,深圳市,坪山,,13,13,10,3,4,36,36,NA,NA,11,8,6,6,0.5,0.5
2026-06-18T0300,3623A,113.8952,22.586,深圳市,西乡,NA,NA,13,13,3,5,29,29,NA,NA,17,18,NA,5,0.4,0.6
2026-06-18T0300,4220A,114.214113,22.713717,深圳市,黄阁路,NA,NA,12,11,3,3,23,23,NA,NA,11,16,NA,6,0.5,0.5
2026-06-18T0300,1099A,123.5058,41.7084,沈阳市,浑南东路,细颗粒物(PM2.5),76,NA,24,48,26,13,13,NA,NA,47,27,3,4,0.9,0.7
2026-06-18T0300,1100A,123.4238,41.6992,沈阳市,新秀街,细颗粒物(PM2.5),64,58,35,42,24,43,43,NA,NA,23,17,20,13,0.8,0.6
2026-06-18T0300,1102A,123.5903,41.8412,沈阳市,东陵路,NA,NA,35,30,30,19,NA,NA,NA,NA,30,16,5,5,1.4,0.8
