timepoint,stationcode,longitude,latitude,area,positionname,primarypollutant,aqi,pm10,pm10_24h,pm2_5,pm2_5_24h,o3,o3_24h,o3_8h,o3_8h_24h,no2,no2_24h,so2,so2_24h,co,co_24h
2026-06-01T1500,2568A,102.2503,31.8896,阿坝藏族羌族自治州,马师校,,24,12,19,7,7,74,74,62,62,4,5,7,7,0.3,0.3
2026-06-01T1500,3994A,102.2174,31.9016,阿坝藏族羌族自治州,马尔康中学西区,,23,8,16,6,7,73,73,64,64,5,5,6,6,0.2,0.3
2026-06-01T1500,2695A,80.2899,41.1684,阿克苏地区,电视台,颗粒物(PM10),88,102,198,41,75,120,120,102,102,3,14,3,3,0.6,0.8
2026-06-01T1500,2696A,80.2592,41.1541,阿克苏地区,艺术中心,颗粒物(PM10),94,111,188,46,84,123,123,96,96,4,26,4,4,0.5,0.7
2026-06-01T1500,2205A,105.699,38.8409,阿拉善盟,蒙二幼,,42,27,33,13,9,132,132,127,127,2,3,8,8,0.2,0.3
2026-06-01T1500,2206A,105.7198,38.8508,阿拉善盟,环保局新楼,,40,28,32,6,6,126,126,125,125,2,3,10,10,0.3,0.3
2026-06-01T1500,2708A,88.1266,47.8515,阿勒泰地区,市站,,37,25,27,3,4,118,118,92,92,6,9,6,6,0.2,0.2
2026-06-01T1500,4166A,88.1198,47.7931,阿勒泰地区,阿勒泰路33号,,36,14,26,3,7,113,113,87,87,3,6,5,5,0.1,0.2
2026-06-01T1500,2630A,80.1171,32.4999,阿里地区,阿里监测站,,43,8,7,3,3,137,137,134,125,3,4,7,7,0.4,0.4
2026-06-01T1500,3192A,80.0906,32.5029,阿里地区,阿里藏医院,,43,6,5,3,3,137,137,135,130,2,2,8,8,0.4,0.4
2026-06-01T1500,2644A,109.0088,32.6974,安康市,汉滨区检察院,,44,44,43,29,26,85,85,40,40,11,12,11,30,0.5,0.6
2026-06-01T1500,4054A,109.0324,32.6913,安康市,市邮政管理局,,45,45,44,29,28,95,95,48,48,9,13,4,29,0.5,0.5
2026-06-01T1500,2291A,117.0806,30.5181,安庆市,环科院,臭氧1小时(O3_1h),109,59,68,30,42,217,217,138,138,8,60,9,10,0.7,0.9
2026-06-01T1500,2292A,117.0331,30.5118,安庆市,马山宾馆,臭氧1小时(O3_1h),116,64,65,33,44,231,231,141,141,11,58,11,11,0.7,0.8
2026-06-01T1500,2294A,116.9897,30.6146,安庆市,安庆大学,臭氧1小时(O3_1h),70,48,58,25,39,176,176,142,142,5,15,5,5,0.6,0.6
2026-06-01T1500,3173A,117.0598,30.5351,安庆市,市人大,臭氧1小时(O3_1h),108,69,69,30,44,215,215,151,151,9,35,7,9,0.6,0.9
2026-06-01T1500,3123A,105.9408,26.2431,安顺市,凤凰山,,32,26,23,18,16,100,100,91,91,6,6,7,6,0.7,0.7
2026-06-01T1500,3124A,105.9443,26.2567,安顺市,金钟山,,30,26,22,19,17,95,95,89,89,6,5,7,7,0.6,0.6
2026-06-01T1500,3125A,105.8983,26.248,安顺市,娄家坡,,32,29,24,19,16,102,102,94,94,7,6,10,9,0.7,0.7
2026-06-01T1500,1819A,114.3552,36.1017,安阳市,红庙街,臭氧1小时(O3_1h),116,60,65,26,26,232,232,166,166,5,8,7,8,0.5,0.5
2026-06-01T1500,1820A,114.361,36.0681,安阳市,银杏小区,臭氧1小时(O3_1h),120,78,73,28,28,240,240,173,173,7,11,5,11,0.4,0.4
2026-06-01T1500,3141A,114.3921,36.0879,安阳市,信访局,臭氧1小时(O3_1h),123,85,70,37,29,245,245,182,182,4,11,5,5,0.4,0.4
2026-06-01T1500,3669A,114.4706,36.0634,安阳市,左辅环卫站,臭氧1小时(O3_1h),104,79,82,40,31,208,208,159,159,9,16,4,4,0.7,0.6
2026-06-01T1500,4117A,114.2918,36.0769,安阳市,钢三路198号,臭氧1小时(O3_1h),109,66,67,33,28,217,217,147,147,6,13,7,7,0.5,0.6
2026-06-01T1500,1748A,123.0441,41.1201,鞍山市,深沟寺,臭氧1小时(O3_1h),52,46,53,21,20,161,161,134,134,10,10,8,8,0.6,0.5
2026-06-01T1500,1749A,123.011,41.0931,鞍山市,太阳城,臭氧1小时(O3_1h),55,36,47,19,22,164,164,139,139,9,10,9,9,0.8,0.7
2026-06-01T1500,1750A,123.0483,41.1445,鞍山市,太平,臭氧1小时(O3_1h),59,56,57,25,22,167,167,141,141,13,14,9,8,0.9,0.8
2026-06-01T1500,1751A,122.964,41.0968,鞍山市,铁西三道街,臭氧1小时(O3_1h),74,56,71,25,23,179,179,147,147,14,15,8,8,0.7,0.7
2026-06-01T1500,1753A,123.0219,41.0822,鞍山市,明达新区,,49,37,41,24,23,154,154,136,136,10,10,8,8,0.6,0.6
2026-06-01T1500,4201A,122.944647,41.082639,鞍山市,兴盛南路290号,臭氧1小时(O3_1h),60,59,62,27,23,168,168,143,143,13,14,8,8,0.8,0.8
2026-06-01T1500,2195A,107.4206,40.7609,巴彦淖尔市,附二中,颗粒物(PM10),70,78,60,19,18,127,127,118,118,4,8,8,8,0.3,0.4
2026-06-01T1500,2196A,107.37,40.7372,巴彦淖尔市,市环保大楼,颗粒物(PM10),68,75,59,20,17,130,130,122,122,5,8,7,7,0.4,0.4
2026-06-01T1500,1956A,86.1476,41.7529,巴音郭楞蒙古自治州,孔雀公园,颗粒物(PM10),169,287,327,107,137,92,92,53,46,9,16,5,4,0.2,0.2
2026-06-01T1500,1957A,86.1971,41.7166,巴音郭楞蒙古自治州,棉纺厂,颗粒物(PM10),198,346,415,119,160,95,95,66,63,13,10,/,/,/,/
2026-06-01T1500,1958A,86.236,41.7172,巴音郭楞蒙古自治州,经济开发区,细颗粒物(PM2.5),241,263,319,191,153,84,84,56,55,15,9,2,2,0.4,0.3
2026-06-01T1500,3181A,106.776805,31.852614,巴中市,市五中,细颗粒物(PM2.5),60,46,42,40,36,72,72,30,30,9,19,7,6,0.7,0.8
2026-06-01T1500,3183A,106.7419,31.8654,巴中市,圣泉水务公司,细颗粒物(PM2.5),62,47,42,41,34,72,72,33,33,8,19,7,8,0.7,0.7
2026-06-01T1500,3616A,106.7617,31.8343,巴中市,市中心医院,细颗粒物(PM2.5),64,53,46,42,36,77,77,38,38,10,20,7,7,0.8,0.9
2026-06-01T1500,2235A,122.7909,45.608,白城市,洮北区环保局,NA,NA,19,58,3,20,107,107,89,88,NA,5,3,4,0.3,0.2
2026-06-01T1500,2236A,122.8741,45.5725,白城市,市环保局,,31,14,58,3,11,97,97,77,77,9,9,5,4,0.2,0.2
2026-06-01T1500,2231A,126.4219,41.9172,白山市,喜丰,,47,31,40,6,8,148,148,153,137,7,7,10,11,0.6,0.6
2026-06-01T1500,2232A,126.4082,41.9416,白山市,环保局,,47,26,30,10,16,149,149,154,142,8,9,12,12,0.5,0.6
2026-06-01T1500,2647A,104.1727,36.5448,白银市,第三小学,,41,32,43,25,24,131,131,97,97,2,11,9,15,0.4,0.5
2026-06-01T1500,2648A,104.1467,36.5482,白银市,动力公司,,42,25,43,3,16,132,132,100,100,4,13,13,13,0.3,0.5
2026-06-01T1500,2512A,106.6102,23.901,百色市,市监测站,颗粒物(PM10),55,56,47,30,27,147,147,102,102,9,16,9,11,0.8,0.9
2026-06-01T1500,2513A,106.6524,23.8842,百色市,市中心血站,细颗粒物(PM2.5),82,NA,44,51,33,149,149,103,103,7,14,10,13,0.7,0.7
2026-06-01T1500,4133A,106.6273,23.8798,百色市,龙景西路,颗粒物(PM10),62,66,50,36,32,154,154,101,101,11,17,12,14,0.7,0.7
2026-06-01T1500,2270A,117.396,32.9389,蚌埠市,工人疗养院,臭氧1小时(O3_1h),108,53,60,24,26,216,216,172,172,13,19,6,8,0.4,0.5
2026-06-01T1500,2271A,117.3606,32.9428,蚌埠市,百货大楼,臭氧1小时(O3_1h),107,39,47,20,24,214,214,180,180,9,14,8,9,0.4,0.5
2026-06-01T1500,2273A,117.4183,32.8909,蚌埠市,蚌埠学院,臭氧1小时(O3_1h),105,44,56,19,27,209,209,170,170,6,15,6,7,0.4,0.4
2026-06-01T1500,2274A,117.3534,32.9672,蚌埠市,淮上区政府,臭氧1小时(O3_1h),117,44,50,24,25,233,233,177,177,9,16,7,8,0.3,0.4
2026-06-01T1500,2275A,117.3143,32.8977,蚌埠市,高新区,臭氧1小时(O3_1h),99,48,62,22,30,199,199,171,171,10,18,7,8,0.3,0.4
2026-06-01T1500,3715A,117.3091,32.9314,蚌埠市,蚌埠田家炳中学,臭氧1小时(O3_1h),114,50,57,22,24,228,228,182,182,8,13,8,9,0.5,0.5
2026-06-01T1500,1585A,109.8761,40.6533,包头市,市环境监测站,颗粒物(PM10),80,91,46,30,20,132,132,118,118,8,26,7,10,0.4,0.5
2026-06-01T1500,1587A,109.9992,40.5843,包头市,包头八中,颗粒物(PM10),63,68,57,17,22,125,125,100,100,8,33,7,14,0.2,0.5
2026-06-01T1500,1589A,109.8641,40.6288,包头市,惠龙物流,颗粒物(PM10),69,76,42,23,21,129,129,113,113,6,26,7,12,0.1,0.4
2026-06-01T1500,1590A,110.0376,40.5546,包头市,东河鸿龙湾,颗粒物(PM10),58,60,46,19,25,132,132,104,104,6,28,11,15,0.4,0.5
2026-06-01T1500,3283A,109.9154,40.5684,包头市,滨河大厦,颗粒物(PM10),65,70,39,18,18,125,125,100,100,5,37,6,9,0.2,0.4
2026-06-01T1500,3419A,109.9449,40.6259,包头市,包头市委党校,颗粒物(PM10),62,66,39,27,24,131,131,106,106,4,33,7,15,0.3,0.6
2026-06-01T1500,3683A,109.8332,40.6577,包头市,昆区政府,颗粒物(PM10),70,77,41,33,23,120,120,109,109,13,37,7,10,0.5,0.6
2026-06-01T1500,1931A,107.0802,34.3129,宝鸡市,竹园沟,,44,44,34,18,18,113,113,81,81,2,6,9,8,0.3,0.3
2026-06-01T1500,1933A,107.1429,34.3549,宝鸡市,监测站,颗粒物(PM10),76,86,36,22,18,125,125,83,83,4,11,5,7,0.4,0.4
2026-06-01T1500,1934A,107.1172,34.3759,宝鸡市,技工学校,颗粒物(PM10),57,59,40,19,22,131,131,86,86,5,8,5,5,0.3,0.6
2026-06-01T1500,1936A,107.2025,34.3518,宝鸡市,文理学院,,41,41,43,20,23,131,131,83,83,6,13,6,6,0.3,0.5
2026-06-01T1500,1937A,107.2396,34.3626,宝鸡市,三迪小学,颗粒物(PM10),63,67,47,25,24,138,138,89,89,7,16,7,7,0.3,0.5
2026-06-01T1500,4155A,107.1721,34.3558,宝鸡市,滨河北路,,45,45,42,16,22,127,127,77,77,4,10,9,8,0.4,0.6
2026-06-01T1500,4308A,107.3898,34.3601,宝鸡市,陈仓区北开路21号,颗粒物(PM10),53,54,52,22,26,128,128,81,81,9,21,9,42,0.2,0.5
2026-06-01T1500,1051A,115.4803,38.8568,保定市,游泳馆,,50,32,48,10,23,159,159,142,142,2,10,2,4,0.1,0.3
2026-06-01T1500,1052A,115.509,38.8895,保定市,华电二区,,46,NA,43,24,22,145,145,130,130,12,13,3,4,0.7,0.6
2026-06-01T1500,1053A,115.4588,38.9037,保定市,接待中心,,46,29,53,10,23,147,147,129,129,5,12,1,3,0.3,0.5
2026-06-01T1500,1054A,115.4484,38.8344,保定市,地表水厂,臭氧1小时(O3_1h),55,35,54,6,20,164,164,136,136,5,14,2,5,0.2,0.4
2026-06-01T1500,3581A,115.3136,38.9511,保定市,满城区生态环境分局,,50,39,36,8,18,159,159,130,130,2,5,2,3,0,0.2
2026-06-01T1500,3582A,115.4709,38.7628,保定市,清苑区第二中学,,50,43,75,11,25,160,160,138,138,1,17,4,6,0.2,0.4
2026-06-01T1500,3583A,115.6231,39.0223,保定市,徐水物探局,,45,32,72,6,28,143,143,134,134,6,18,3,4,0.2,0.5
2026-06-01T1500,4004A,115.4199,38.8665,保定市,双鹰农机,,49,36,61,6,23,155,155,133,133,4,11,3,4,0.2,0.3
2026-06-01T1500,4034A,115.515,38.8589,保定市,植保所站,,50,37,58,3,15,158,158,146,146,5,13,3,6,0.2,0.4
2026-06-01T1500,2594A,99.1589,25.1137,保山市,市环境监测站,,25,18,16,3,8,77,77,55,55,6,7,5,5,0.2,0.3
2026-06-01T1500,2595A,99.1616,25.1381,保山市,市环保局,,25,17,16,12,14,79,79,57,57,4,5,4,4,0.6,0.6
2026-06-01T1500,1867A,109.1435,21.4085,北海市,海滩公园,,25,14,23,3,14,77,77,65,65,5,6,1,1,0.3,0.3
2026-06-01T1500,1868A,109.0983,21.466,北海市,新市环保局,,25,18,21,10,22,77,77,70,69,4,6,2,2,0.3,0.4
2026-06-01T1500,1869A,109.1775,21.5232,北海市,北海工业园,,25,NA,31,11,22,78,78,61,61,2,9,2,2,0.4,0.5
2026-06-01T1500,3400A,109.1844,21.4396,北海市,龙潭自来水厂,,24,15,20,6,10,75,75,64,64,5,6,2,3,0.6,0.7
2026-06-01T1500,1001A,116.3611,39.8786,北京市,万寿西宫,臭氧1小时(O3_1h),53,30,40,11,16,162,162,128,128,14,22,4,5,0.1,0.3
2026-06-01T1500,1003A,116.4174,39.9289,北京市,东四,臭氧1小时(O3_1h),54,18,40,12,17,163,163,127,127,7,28,5,6,0.2,0.4
2026-06-01T1500,1004A,116.4073,39.8858,北京市,天坛,,45,29,37,6,16,142,142,119,119,18,24,1,2,0.1,0.3
2026-06-01T1500,1005A,116.4622,39.9364,北京市,农展馆,,49,32,39,9,15,155,155,122,122,8,28,3,5,0.1,0.3
2026-06-01T1500,1006A,116.3399,39.9293,北京市,官园,,43,29,43,3,16,137,137,113,113,2,30,6,7,0.1,0.2
2026-06-01T1500,1007A,116.2879,39.9613,北京市,海淀万柳,,44,33,44,8,16,140,140,107,107,12,28,3,4,0.1,0.4
2026-06-01T1500,1008A,116.6635,40.1349,北京市,顺义新城,臭氧1小时(O3_1h),75,30,56,7,35,180,180,143,143,8,17,4,5,0.3,0.5
2026-06-01T1500,1009A,116.6275,40.327,北京市,怀柔镇,臭氧1小时(O3_1h),74,37,40,12,18,179,179,139,139,10,10,1,3,0.2,0.3
2026-06-01T1500,1010A,116.2295,40.217,北京市,昌平镇,,47,33,33,7,12,150,150,115,115,9,19,4,4,0.4,0.5
2026-06-01T1500,1011A,116.3968,39.982,北京市,奥体中心,,44,33,43,12,18,138,138,99,99,13,30,3,3,0.1,0.3
2026-06-01T1500,3418A,116.8336,40.4095,北京市,密云新城,臭氧1小时(O3_1h),103,42,52,15,22,206,206,150,150,10,12,3,3,0.3,0.4
2026-06-01T1500,3671A,116.0879,39.9725,北京市,门头沟三家店,,44,30,42,7,16,140,140,103,103,7,20,1,3,0.3,0.3
2026-06-01T1500,3672A,116.1507,39.8246,北京市,丰台云岗,,47,37,47,11,17,150,150,111,111,7,15,3,4,0.3,0.4
2026-06-01T1500,3674A,115.9578,39.7602,北京市,房山燕山,,40,25,29,8,10,127,127,86,86,3,6,2,2,0.1,0.2
2026-06-01T1500,3675A,116.4669,39.7734,北京市,大兴旧宫,臭氧1小时(O3_1h),52,29,45,10,19,161,161,127,127,6,23,2,3,0.2,0.5
2026-06-01T1500,3694A,115.9859,40.4562,北京市,延庆石河营,,47,15,20,7,10,148,148,100,100,9,21,2,2,0.3,0.3
2026-06-01T1500,3695A,116.6151,40.3052,北京市,怀柔新城,臭氧1小时(O3_1h),70,28,34,3,4,176,176,138,138,10,10,4,5,0.3,0.5
2026-06-01T1500,3696A,116.2542,39.8764,北京市,丰台小屯,,43,30,49,15,19,135,135,105,105,8,24,3,3,0.1,0.3
2026-06-01T1500,3697A,116.8399,40.3843,北京市,密云镇,臭氧1小时(O3_1h),105,NA,29,15,25,209,209,153,153,9,17,4,4,0.4,0.6
2026-06-01T1500,4057A,115.9423,40.4431,北京市,延庆百泉,,47,30,28,8,8,149,149,101,101,5,14,1,1,0.3,0.3
2026-06-01T1500,4058A,116.6598,39.9164,北京市,通州新华,臭氧1小时(O3_1h),58,36,64,11,27,166,166,142,142,11,38,3,4,0.4,0.6
2026-06-01T1500,4182A,116.1942,39.9158,北京市,石景山八角,,44,44,46,9,14,140,140,106,106,8,18,2,4,0.0,0.2
2026-06-01T1500,4194A,117.078628,40.151726,北京市,平谷新城,臭氧1小时(O3_1h),116,72,57,35,27,232,232,153,153,10,13,5,4,0.7,0.5
2026-06-01T1500,1761A,123.8274146,41.31234549,本溪市,大峪,,50,36,44,19,21,158,158,131,131,6,7,8,7,0.6,0.5
2026-06-01T1500,1763A,123.7169,41.3094,本溪市,彩屯,,46,34,45,20,25,145,145,124,124,17,20,10,13,1.8,2.3
2026-06-01T1500,1764A,123.7672166,41.28649327,本溪市,东明,臭氧1小时(O3_1h),57,46,47,20,21,165,165,137,137,10,12,6,6,0.6,0.7
2026-06-01T1500,1765A,123.799345,41.266614,本溪市,新立屯,臭氧1小时(O3_1h),59,38,41,21,22,167,167,145,145,7,9,9,8,0.6,0.6
2026-06-01T1500,1766A,123.829144,41.336777,本溪市,威宁,,50,50,43,18,21,151,151,128,128,5,5,8,8,0.6,0.6
2026-06-01T1500,2587A,105.287,27.3133,毕节市,八中,,38,38,45,21,24,111,111,115,105,5,6,6,6,0.5,0.6
2026-06-01T1500,2588A,105.3079,27.2987,毕节市,师专,,35,35,42,20,24,104,104,111,101,5,6,5,6,0.7,0.6
2026-06-01T1500,4263A,105.3688,27.3598,毕节市,工业大道,,46,46,46,25,24,115,115,121,109,4,6,8,7,/,/
2026-06-01T1500,1629A,117.9961,37.3604,滨州市,第二水厂,臭氧1小时(O3_1h),115,102,83,32,30,230,230,182,182,6,16,8,11,0.3,0.4
2026-06-01T1500,1630A,117.9789,37.3931,滨州市,北中新校,臭氧1小时(O3_1h),117,66,60,24,26,234,234,183,183,12,18,8,10,0.4,0.5
2026-06-01T1500,3514A,117.9379,37.3959,滨州市,中海酒店,臭氧1小时(O3_1h),124,66,56,24,25,248,248,189,189,19,22,11,13,0.1,0.4
2026-06-01T1500,3515A,117.9381509,37.35547456,滨州市,开发区一中,臭氧1小时(O3_1h),114,51,54,29,32,228,228,177,177,14,24,8,11,0.4,0.6
2026-06-01T1500,3516A,118.0914,37.6938,滨州市,金海六路,臭氧1小时(O3_1h),107,80,79,25,33,214,214,172,172,9,25,8,8,0.4,0.5
2026-06-01T1500,4028A,117.9955,37.3752,滨州市,滨州市西街道办事处,臭氧1小时(O3_1h),115,73,70,26,27,229,229,185,185,6,16,7,10,0.6,0.7
2026-06-01T1500,2311A,115.8071,33.8399,亳州市,污水处理厂,,50,32,59,18,28,160,160,136,136,7,16,4,5,0.2,0.2
2026-06-01T1500,2312A,115.7789,33.8519,亳州市,三国揽胜宫,臭氧1小时(O3_1h),52,50,71,20,26,161,161,144,144,4,11,3,5,0.2,0.2
2026-06-01T1500,3332A,115.7631,33.803,亳州市,亳州学院,臭氧1小时(O3_1h),53,35,66,18,28,162,162,143,143,4,12,3,4,0.1,0.1
2026-06-01T1500,2693A,82.0482,44.8553,博尔塔拉蒙古自治州,市党校,NA,NA,NA,58,23,12,132,132,94,94,6,7,5,4,0.3,0.3
2026-06-01T1500,2694A,82.0805,44.8966,博尔塔拉蒙古自治州,市环保局,,38,38,46,3,8,114,114,86,86,2,10,3,7,0.5,0.3
2026-06-01T1500,1071A,116.8733,38.2922,沧州市,沧县城建局,臭氧1小时(O3_1h),109,55,71,38,32,218,218,172,172,9,15,9,8,0.6,0.5
2026-06-01T1500,1072A,116.8462,38.3189,沧州市,电视转播站,臭氧1小时(O3_1h),63,56,70,28,30,170,170,137,137,13,18,9,8,0.3,0.3
2026-06-01T1500,1073A,116.8588,38.3161,沧州市,市环保局,臭氧1小时(O3_1h),107,82,93,27,29,213,213,172,172,7,16,6,6,0.4,0.4
2026-06-01T1500,3324A,116.8011,38.294,沧州市,河北水利电力学院,臭氧1小时(O3_1h),84,70,64,32,30,187,187,154,154,10,17,7,7,0.4,0.4
2026-06-01T1500,2622A,97.1813,31.1289,昌都市,昌都监测站,,30,9,12,3,4,96,96,80,80,6,9,3,3,0.5,0.5
2026-06-01T1500,3719A,97.1707,31.1428,昌都市,昌都会议中心,,34,6,8,3,3,108,108,92,92,3,5,8,5,0.4,0.4
2026-06-01T1500,2692A,87.2722,44.0298,昌吉回族自治州,新区政务中心,,41,23,31,6,15,129,129,91,91,5,17,7,7,0.2,0.3
2026-06-01T1500,3613A,87.3069,44.0093,昌吉回族自治州,亚心广场,,47,34,46,11,16,150,150,107,107,8,29,8,7,0.1,0.3
2026-06-01T1500,4164A,87.2057,43.9289,昌吉回族自治州,财政所,,50,48,50,14,10,160,160,114,114,9,9,10,9,0.4,0.4
2026-06-01T1500,1120A,125.2874,43.9024,长春市,客车厂,,32,16,104,6,17,101,101,78,78,11,16,6,6,0.2,0.2
2026-06-01T1500,1121A,125.2943,43.8508,长春市,邮电学院,,35,9,70,6,15,111,111,83,83,8,12,6,7,0.4,0.4
2026-06-01T1500,1122A,125.3648,43.8745,长春市,劳动公园,,34,18,56,3,16,108,108,83,83,8,13,6,7,0.2,0.3
2026-06-01T1500,1123A,125.3233,43.8781,长春市,园林处,,35,19,56,10,19,110,110,84,84,8,11,3,3,0.3,0.4
2026-06-01T1500,1124A,125.4604,43.7904,长春市,净月潭,,32,12,40,6,14,101,101,83,83,7,10,5,5,0.2,0.3
2026-06-01T1500,1126A,125.38,43.8422,长春市,经开区环卫处,,32,8,58,3,13,102,102,83,83,8,12,5,5,0.2,0.3
2026-06-01T1500,1127A,125.234,43.7761,长春市,高新区管委会,,34,6,48,3,13,107,107,82,82,6,11,6,6,0.4,0.5
2026-06-01T1500,1128A,125.1695,43.83,长春市,岱山公园,,36,10,89,8,16,113,113,85,85,8,13,4,4,0.3,0.4
2026-06-01T1500,4281A,125.334645,43.916281,长春市,北亚泰大街1068号,,32,14,91,9,26,102,102,78,78,10,15,5,5,0.2,0.3
2026-06-01T1500,1335A,113.082,28.2421,长沙市,经开区环保局,NA,NA,45,58,22,34,161,161,134,134,NA,19,5,6,0.6,0.7
2026-06-01T1500,1336A,112.8873,28.2202,长沙市,高开区环保局,,49,37,61,22,39,155,155,124,124,2,21,14,10,0.5,0.8
2026-06-01T1500,1337A,113.0785,28.2012,长沙市,马坡岭,臭氧1小时(O3_1h),85,46,57,24,34,188,188,130,130,6,16,7,7,0.7,0.8
2026-06-01T1500,1338A,112.9448,28.1894,长沙市,湖南师范大学,颗粒物(PM10),57,59,57,13,33,150,150,129,129,1,13,6,7,0.5,0.8
2026-06-01T1500,1339A,113.0177,28.1322,长沙市,雨花区环保局,臭氧1小时(O3_1h),62,49,58,21,34,169,169,126,126,3,14,5,6,0.9,1.1
2026-06-01T1500,1340A,112.9795,28.2593,长沙市,伍家岭,,50,45,64,21,36,157,157,118,118,4,20,4,5,0.6,0.8
2026-06-01T1500,1341A,113.002,28.1944,长沙市,火车新站,,47,35,56,17,36,148,148,120,120,5,17,10,10,0.3,0.6
2026-06-01T1500,1342A,112.9846,28.1177,长沙市,天心区环保局,臭氧1小时(O3_1h),74,44,53,24,35,179,179,134,134,5,12,5,7,0.6,0.8
2026-06-01T1500,1343A,112.8906,28.1307,长沙市,湖南中医药大学,臭氧1小时(O3_1h),63,61,57,22,33,170,170,126,126,8,24,7,7,0.4,0.6
2026-06-01T1500,1727A,113.1146,36.1547,长治市,清华站,臭氧1小时(O3_1h),93,41,44,8,19,194,194,139,139,5,18,13,11,0.5,0.7
2026-06-01T1500,1730A,113.0887,36.2126,长治市,审计局,臭氧1小时(O3_1h),97,41,44,11,21,197,197,161,161,8,14,12,14,0.4,0.7
2026-06-01T1500,1731A,113.0845,36.1856,长治市,长治八中,臭氧1小时(O3_1h),93,40,54,14,20,194,194,152,152,10,20,15,14,0.4,0.7
2026-06-01T1500,2845A,113.1561,36.1912,长治市,德盛苑,臭氧1小时(O3_1h),93,47,42,10,22,194,194,144,144,9,16,13,14,0.3,0.5
2026-06-01T1500,3568A,113.0603,36.0464,长治市,向阳小学,臭氧1小时(O3_1h),84,75,76,6,20,187,187,142,142,6,15,15,15,0.5,0.8
2026-06-01T1500,3569A,112.8788,36.315,长治市,屯留一中,,48,24,36,6,17,151,151,121,121,11,18,11,11,0.6,0.9
2026-06-01T1500,4189A,113.113092,36.199482,长治市,英华南巷50号,臭氧1小时(O3_1h),94,48,50,13,21,195,195,148,148,4,14,11,11,0.6,0.8
2026-06-01T1500,4190A,113.23666,36.33435,长治市,学府街1号,臭氧1小时(O3_1h),106,46,42,16,17,212,212,136,136,10,19,11,9,0.9,0.8
2026-06-01T1500,1854A,111.696,28.9725,常德市,市二中,,41,32,39,12,29,130,130,99,99,3,9,7,8,1.0,1
2026-06-01T1500,3138A,111.7152,29.0288,常德市,武陵区永安,,44,41,47,13,23,138,138,104,104,2,6,6,7,0.8,0.8
2026-06-01T1500,3139A,111.6891,28.9881,常德市,鼎城区玉霞,,41,29,40,14,28,131,131,102,102,3,8,8,8,0.9,0.9
2026-06-01T1500,3140A,111.6651,29.0526,常德市,武陵区长庚,,45,38,43,23,28,143,143,104,104,3,7,9,9,0.7,0.7
2026-06-01T1500,1196A,119.9524,31.7586,常州市,市监测站,臭氧1小时(O3_1h),104,52,38,13,17,208,208,152,152,NA,23,6,4,0.3,0.3
2026-06-01T1500,1200A,119.9351,31.703,常州市,武进监测站,臭氧1小时(O3_1h),87,26,17,8,3,189,189,NA,NA,7,9,10,8,0.3,0.8
2026-06-01T1500,3002A,119.9701,31.813,常州市,行政中心,臭氧1小时(O3_1h),106,42,44,13,16,211,211,146,146,10,21,10,7,0.8,0.5
2026-06-01T1500,3003A,120.0434,31.7726,常州市,经开区,臭氧1小时(O3_1h),111,41,51,14,16,221,221,154,154,18,30,11,11,0.8,0.7
2026-06-01T1500,3010A,119.8919,31.7892,常州市,钟楼,臭氧1小时(O3_1h),101,33,34,8,12,202,202,152,152,11,19,8,9,0.4,0.5
2026-06-01T1500,3429A,119.8595,31.706,常州市,武进经发区,臭氧1小时(O3_1h),88,47,33,23,16,190,190,142,142,11,19,11,9,0.6,0.5
2026-06-01T1500,3430A,119.5812,31.7256,常州市,金坛城区,臭氧1小时(O3_1h),99,39,35,22,18,199,199,157,157,9,13,7,9,0.5,0.6
2026-06-01T1500,4089A,119.9551,31.863,常州市,崇义南街5-H号,臭氧1小时(O3_1h),114,44,47,12,17,228,228,153,153,12,23,10,10,0.8,0.6
2026-06-01T1500,2220A,120.4318,41.588,朝阳市,西梁,,45,41,62,3,10,143,143,121,121,10,16,7,10,0,0.4
2026-06-01T1500,2221A,120.452,41.565,朝阳市,河畔小区,,45,37,57,3,11,144,144,126,126,8,13,9,10,0.2,0.2
2026-06-01T1500,2222A,120.4176,41.5648,朝阳市,八里堡,,47,46,69,7,16,148,148,130,130,10,16,5,7,0.6,0.7
2026-06-01T1500,3026A,116.6179,23.6608,潮州市,市政府,臭氧1小时(O3_1h),93,69,53,33,24,194,194,148,148,10,11,8,10,0.7,0.6
2026-06-01T1500,4036A,116.646,23.676,潮州市,金山,臭氧1小时(O3_1h),90,64,44,29,22,192,192,141,141,8,9,5,5,0.6,0.5
2026-06-01T1500,2473A,113.0116,25.8228,郴州市,市职中,,34,28,47,17,26,106,106,84,84,4,16,6,6,0.9,1.1
2026-06-01T1500,2475A,113.0381,25.8074,郴州市,市审计局,,36,32,43,18,33,113,113,88,88,5,17,4,5,/,/
2026-06-01T1500,2476A,113.0348,25.7757,郴州市,市环保局,,36,NA,42,21,33,115,115,88,88,5,20,7,7,0.7,0.9
2026-06-01T1500,4252A,113.0138,25.8011,郴州市,好美居路49号,,38,28,42,26,26,116,116,92,92,4,18,6,7,/,/
2026-06-01T1500,1431A,103.9727,30.7242,成都市,金泉两河,,50,15,56,8,43,157,157,92,92,8,17,3,3,0.2,0.4
2026-06-01T1500,1432A,104.1423,30.6765,成都市,十里店,,43,15,64,11,41,137,137,88,88,6,19,4,6,0.3,0.5
2026-06-01T1500,1433A,104.0594,30.5765,成都市,三瓦窑,,45,26,63,7,44,142,142,96,96,5,23,5,6,0.4,0.7
2026-06-01T1500,1434A,104.1122,30.6306,成都市,沙河铺,,41,25,62,9,39,131,131,83,83,6,24,5,5,0.3,0.6
2026-06-01T1500,2880A,104.0219,30.6561,成都市,大石西路,,42,19,65,9,48,133,133,84,84,10,23,5,4,0.2,0.5
2026-06-01T1500,3136A,104.2724,30.559,成都市,龙泉驿区区政府,,42,17,52,8,43,133,133,100,100,3,17,6,7,0.5,0.7
2026-06-01T1500,3357A,104.0028,30.6891,成都市,金博路,,47,13,50,8,41,149,149,89,89,9,21,6,6,0.1,0.4
2026-06-01T1500,3359A,104.056,30.5228,成都市,华阳,,45,22,59,7,42,143,143,96,96,4,16,2,3,0.4,0.6
2026-06-01T1500,3488A,104.387954,30.746684,成都市,青白江技师分院,,40,28,68,11,47,128,128,88,88,2,19,3,5,0.5,0.7
2026-06-01T1500,3489A,104.0788,30.4054,成都市,科学城,,47,6,66,3,45,150,150,97,97,3,20,6,7,0.5,0.8
2026-06-01T1500,4011A,103.8505,30.6946,成都市,光华大道三段,,47,NA,56,6,37,150,150,97,97,6,14,4,4,0.2,0.4
2026-06-01T1500,4144A,104.3257,30.6406,成都市,八角井街185号,,40,28,64,10,42,127,127,86,86,7,18,7,7,0.4,0.6
2026-06-01T1500,4224A,104.2433276,30.53529463,成都市,鲸龙路1057号,,45,11,69,3,46,144,144,104,104,5,20,6,8,0.4,0.7
2026-06-01T1500,1062A,117.9531,40.908,承德市,铁路,,47,20,35,3,13,150,150,102,102,9,13,5,4,0.4,0.3
2026-06-01T1500,1063A,117.9397,40.9763,承德市,中国银行,,47,26,35,3,12,150,150,104,104,4,9,5,6,0.4,0.3
2026-06-01T1500,4073A,117.9462,40.95,承德市,杏林街1号,,50,33,35,18,18,160,160,109,109,7,13,5,5,0.4,0.3
2026-06-01T1500,4274A,117.7994,40.9605,承德市,滨河大街98号,,42,NA,40,3,15,132,132,104,104,3,12,3,10,0.2,0.4
2026-06-01T1500,2314A,117.4698,30.6617,池州市,池州学院,臭氧1小时(O3_1h),104,60,53,42,35,207,207,150,150,14,22,8,6,0.7,1
2026-06-01T1500,3237A,117.4918,30.6617,池州市,展览馆,臭氧1小时(O3_1h),108,60,58,35,32,216,216,156,156,9,17,6,4,0.6,0.7
2026-06-01T1500,3333A,117.5626,30.695,池州市,第八中学,臭氧1小时(O3_1h),90,53,53,36,34,192,192,140,140,11,17,6,5,0.4,0.4
2026-06-01T1500,3334A,117.5037,30.6242,池州市,第十二中学,臭氧1小时(O3_1h),100,61,51,35,33,200,200,142,142,9,23,6,6,0.7,1.1
2026-06-01T1500,1744A,118.9229,42.2816,赤峰市,松山一中,,41,26,53,6,8,130,130,100,100,12,16,10,11,0.3,0.3
2026-06-01T1500,1745A,118.9588,42.2733,赤峰市,哈达街,,38,30,45,3,10,119,119,93,93,12,16,10,12,0.3,0.4
2026-06-01T1500,1746A,118.8792,42.2551,赤峰市,天义路,,35,NA,28,12,10,110,110,91,91,10,13,5,6,0.4,0.4
2026-06-01T1500,3058A,119.2656,42.0356,赤峰市,银河街,,44,44,62,6,15,123,123,107,107,5,11,8,17,0.5,0.6
2026-06-01T1500,3286A,118.9359,42.3146,赤峰市,桥北物流园区,,37,10,32,10,8,116,116,92,92,12,18,3,6,0.2,0.2
2026-06-01T1500,2521A,107.3473,22.4137,崇左市,市环保局江州分局,,45,39,41,22,28,144,144,116,116,3,9,7,7,0.6,0.6
2026-06-01T1500,4256A,107.375,22.3736,崇左市,石景林东路7号,,42,33,34,15,27,132,132,114,114,4,9,3,3,0.6,0.7
2026-06-01T1500,3207A,118.31131,32.3033,滁州市,市政府原办公楼,臭氧1小时(O3_1h),113,48,48,37,38,226,226,188,188,6,17,7,8,0.5,0.5
2026-06-01T1500,3331A,118.3268,32.2633,滁州市,图书馆,臭氧1小时(O3_1h),107,52,51,16,23,213,213,168,168,6,17,9,9,0.5,0.5
2026-06-01T1500,4101A,118.3196,32.3335,滁州市,银山路666号,臭氧1小时(O3_1h),113,52,53,30,27,225,225,175,175,14,23,9,10,0.4,0.4
2026-06-01T1500,4102A,118.3426,32.2979,滁州市,黄山路555号,臭氧1小时(O3_1h),113,55,63,28,32,226,226,181,181,10,17,10,10,0.7,0.6
2026-06-01T1500,2606A,101.5379,25.0492,楚雄彝族自治州,市经济开发区,,20,7,13,6,10,64,64,48,48,3,10,2,2,0.5,0.6
2026-06-01T1500,4153A,101.5536,25.0343,楚雄彝族自治州,团结路562号,,22,10,10,3,8,70,70,56,56,2,5,4,4,0.5,0.6
2026-06-01T1500,2549A,107.5087,31.2186,达州市,市环境监测站,,28,28,32,18,15,55,55,22,22,25,28,7,6,0.6,0.5
2026-06-01T1500,2550A,107.4988,31.2132,达州市,凤凰小区,,34,34,35,21,16,49,49,21,21,22,28,6,5,0.5,0.5
2026-06-01T1500,2551A,107.5081,31.1987,达州市,达县机关宾馆,,27,27,34,17,17,54,54,20,20,30,36,5,5,0.4,0.4
2026-06-01T1500,2552A,107.4644,31.2124,达州市,市政中心,,32,32,39,16,15,64,64,29,29,16,32,4,7,0.5,0.6
2026-06-01T1500,2614A,100.2168,25.5818,大理白族自治州,大理市环境监测站,,23,9,9,7,6,71,71,63,63,6,6,4,3,0.4,0.4
2026-06-01T1500,2615A,100.1542,25.7055,大理白族自治州,大理古城,,24,10,11,8,6,76,76,67,67,4,7,8,7,0.6,0.6
2026-06-01T1500,1109A,121.6119,38.974,大连市,甘井子,臭氧1小时(O3_1h),60,54,46,25,21,168,168,130,122,26,16,10,9,0.5,0.5
2026-06-01T1500,1110A,121.565,38.9509,大连市,周水子,臭氧1小时(O3_1h),53,39,40,22,22,162,162,133,133,18,21,9,8,0.3,0.4
2026-06-01T1500,1111A,121.5637,38.8849,大连市,星海三站,,46,37,36,16,17,145,145,136,119,11,13,10,9,0.5,0.5
2026-06-01T1500,1112A,121.6301,38.9117,大连市,青泥洼桥,臭氧1小时(O3_1h),77,43,37,21,18,181,181,148,148,10,12,9,8,0.3,0.3
2026-06-01T1500,1113A,121.6248,38.8643,大连市,傅家庄,,45,43,34,20,16,142,142,132,112,9,13,8,7,0.3,0.3
2026-06-01T1500,1114A,121.5117,38.8636,大连市,七贤岭,,46,46,38,13,12,145,145,126,117,11,15,6,6,0.6,0.7
2026-06-01T1500,1116A,121.7507,39.1339,大连市,金州,臭氧1小时(O3_1h),60,45,40,21,21,168,168,141,138,21,16,9,9,0.5,0.5
2026-06-01T1500,1117A,121.7811,39.0495,大连市,开发区,臭氧1小时(O3_1h),57,37,38,20,21,165,165,122,112,16,24,10,8,0.3,0.4
2026-06-01T1500,1118A,121.9762,39.0631,大连市,双D港,,38,30,36,14,19,120,120,120,100,5,12,6,7,0.5,0.6
2026-06-01T1500,4082A,121.2548,38.8188,大连市,旅顺,NA,NA,44,21,17,19,136,136,124,122,11,13,NA,8,0.4,0.5
2026-06-01T1500,1789A,124.8085,46.0381,大庆市,大同区,,31,31,99,7,16,86,86,83,83,4,7,3,4,0.2,0.2
2026-06-01T1500,1790A,125.1166,46.5255,大庆市,龙凤区,,37,37,91,7,16,71,71,76,76,6,7,2,5,0.2,0.3
2026-06-01T1500,1791A,124.8894,46.4007,大庆市,红岗区,,49,49,98,7,18,69,69,67,NA,3,4,7,9,0.2,0.3
2026-06-01T1500,1792A,125.1391,46.578,大庆市,萨尔图区,,30,30,74,7,13,66,66,73,73,6,7,4,5,0.3,0.2
2026-06-01T1500,1793A,124.9026,46.6217,大庆市,让胡路区,,40,40,89,11,17,74,74,80,80,3,4,3,3,0.3,0.3
2026-06-01T1500,3481A,125.127,46.6277,大庆市,萨区政府监测点,,29,24,57,20,16,78,78,83,83,2,3,8,9,0.2,0.2
2026-06-01T1500,1723A,113.2926,40.0759,大同市,云冈宾馆,,40,31,43,12,14,128,128,92,92,6,21,6,8,0.5,0.8
2026-06-01T1500,1724A,113.3437,40.0921,大同市,大同大学,颗粒物(PM10),51,51,28,9,8,124,124,100,100,8,21,6,9,0.2,0.4
2026-06-01T1500,1725A,113.2637,40.129,大同市,安家小村,,43,43,45,12,8,126,126,93,93,6,16,11,12,0.2,0.6
2026-06-01T1500,3282A,113.3399,40.0586,大同市,大同市卫生学校,NA,NA,41,41,7,12,135,135,106,106,NA,24,7,9,0.0,0.4
2026-06-01T1500,3565A,113.1371,40.1122,大同市,云冈站,,39,32,42,7,9,124,124,94,94,4,22,5,8,0.3,0.4
2026-06-01T1500,3566A,113.1186,40.2556,大同市,图书馆,,39,39,33,3,6,115,115,102,102,8,12,6,6,0.4,0.4
2026-06-01T1500,3567A,113.5931,40.0459,大同市,区一中,颗粒物(PM10),55,57,36,7,7,133,133,110,110,7,11,7,9,0.2,0.2
2026-06-01T1500,4199A,113.2798248,40.09972476,大同市,魏都大道141号,,42,42,50,8,12,126,126,92,92,7,25,5,8,0.2,0.7
2026-06-01T1500,2269A,124.1068,50.4091,大兴安岭地区,科技局,,20,20,23,3,8,54,54,54,54,1,2,7,8,0.3,0.3
2026-06-01T1500,3663A,124.117,50.4279,大兴安岭地区,红旗社区,NA,NA,12,11,3,6,59,59,60,60,NA,2,7,8,0.2,0.3
2026-06-01T1500,1600A,124.33,40.0625,丹东市,江湾东路,,43,29,59,12,24,137,137,155,148,9,10,5,5,0.3,0.5
2026-06-01T1500,1601A,124.4242,40.1513,丹东市,临江后街,,44,27,45,9,22,139,139,144,140,5,8,4,5,0.4,0.5
2026-06-01T1500,1602A,124.3935,40.1461,丹东市,元宝山,,45,27,42,10,23,143,143,160,149,8,10,6,7,0.4,0.6
2026-06-01T1500,1603A,124.3634,40.1093,丹东市,民主桥,,43,31,51,11,26,135,135,149,145,4,8,6,7,0.5,0.6
2026-06-01T1500,3541A,109.5726195,19.51688767,儋州市,第一中学子站,,28,28,26,14,14,82,82,63,63,3,6,2,3,0.5,0.6
2026-06-01T1500,3542A,109.5567,19.5187,儋州市,东坡学校子站,,28,14,22,13,14,89,89,67,67,2,5,6,6,0.5,0.6
2026-06-01T1500,2616A,98.5611,24.4273,德宏傣族景颇族自治州,德宏州监测站,,25,NA,14,17,14,46,46,46,46,4,6,8,8,0.3,0.3
2026-06-01T1500,3677A,98.5887,24.4366,德宏傣族景颇族自治州,芒市人民政府综合楼,颗粒物(PM10),53,54,33,14,14,50,50,48,48,6,9,5,5,0.6,0.6
2026-06-01T1500,1901A,104.424,31.1209,德阳市,东山公园,,40,8,60,3,55,126,126,96,96,2,18,2,5,0.3,0.6
2026-06-01T1500,1902A,104.3827,31.1318,德阳市,西小区,,37,21,83,3,55,118,118,89,89,4,20,5,9,0.5,0.8
2026-06-01T1500,1904A,104.3553,31.1091,德阳市,耐火材料厂,,44,16,74,3,63,140,140,101,101,7,21,2,4,0.2,0.5
2026-06-01T1500,4145A,104.4144,31.1495,德阳市,市林业局,,44,14,75,3,56,140,140,103,103,3,21,6,9,0.4,0.8
2026-06-01T1500,1622A,116.3034,37.4675,德州市,儿童乐园,臭氧1小时(O3_1h),115,88,94,27,30,229,229,184,184,10,16,11,12,0.7,0.7
2026-06-01T1500,1624A,116.2992,37.4449,德州市,监理站,臭氧1小时(O3_1h),112,88,96,21,28,224,224,179,179,21,30,9,9,0.4,0.5
2026-06-01T1500,3066A,116.2722,37.438,德州市,九衢泉纯净水厂,臭氧1小时(O3_1h),109,78,88,24,27,217,217,170,170,12,23,9,12,0.7,0.8
2026-06-01T1500,3371A,116.3693,37.44,德州市,开发区人民医院,臭氧1小时(O3_1h),108,80,92,32,27,216,216,171,171,3,13,9,11,0.5,0.6
2026-06-01T1500,3511A,116.5687,37.3331,德州市,陵城艺术中心,臭氧1小时(O3_1h),119,90,90,24,28,238,238,184,184,10,15,10,10,0.7,0.6
2026-06-01T1500,4292A,116.352738,37.420875,德州市,新河东路,臭氧1小时(O3_1h),104,68,75,26,25,208,208,164,164,12,20,11,12,0.9,0.8
2026-06-01T1500,2621A,99.7054,27.8319,迪庆藏族自治州,迪庆州站,NA,NA,14,15,7,7,63,63,57,57,7,8,NA,7,0.5,0.5
2026-06-01T1500,3180A,99.7122,27.8129,迪庆藏族自治州,质量技术监督局,,20,16,14,6,6,64,64,58,58,12,9,9,9,0.3,0.3
2026-06-01T1500,4257A,104.6092,35.5962,定西市,将台街,,45,45,55,20,19,135,135,110,110,4,14,4,4,0.1,0.2
2026-06-01T1500,4309A,104.6159,35.5701,定西市,正龙路62号,,44,44,61,12,18,131,131,113,113,4,7,4,4,0.3,0.3
2026-06-01T1500,4071A,114.9883,38.5232,定州市,交通局,臭氧1小时(O3_1h),63,33,62,13,19,170,170,125,125,6,17,9,11,0.3,0.6
2026-06-01T1500,4072A,115.0045,38.5136,定州市,第五中学,NA,NA,47,75,NA,20,153,153,121,121,NA,14,5,6,0.3,0.6
2026-06-01T1500,1390A,113.7943,23.0132,东莞市,东城石井,臭氧1小时(O3_1h),57,36,34,24,21,165,165,130,130,20,18,2,3,0.8,0.8
2026-06-01T1500,1391A,113.7384,22.9659,东莞市,南城西平,臭氧1小时(O3_1h),73,32,35,19,19,178,178,124,124,10,13,1,1,0.6,0.7
2026-06-01T1500,3319A,113.7283,23.041,东莞市,万江金泰,臭氧1小时(O3_1h),62,39,38,26,23,169,169,122,122,18,17,7,6,0.6,0.5
2026-06-01T1500,4129A,113.8666,23.1062,东莞市,裕兴路,,45,35,44,22,25,143,143,148,148,19,20,7,7,0.8,0.8
2026-06-01T1500,4130A,114.0076,22.9739,东莞市,教育路1号,,41,33,44,19,26,131,131,142,142,10,20,4,5,0.7,0.7
2026-06-01T1500,4131A,113.7981,22.8124,东莞市,长怡路1号,,50,32,42,15,21,157,157,127,127,8,17,4,4,0.6,0.6
2026-06-01T1500,1666A,118.6612,37.4313,东营市,市环保局,臭氧1小时(O3_1h),116,66,71,11,25,232,232,183,183,5,17,6,14,0.2,0.4
2026-06-01T1500,3036A,118.6903,37.4337,东营市,开发区管委会,臭氧1小时(O3_1h),116,84,74,12,28,231,231,182,182,13,24,11,15,0.3,0.6
2026-06-01T1500,3365A,118.5721,37.5654,东营市,垦利区民丰路,臭氧1小时(O3_1h),120,75,73,7,29,239,239,190,190,11,19,13,14,0.4,0.6
2026-06-01T1500,3498A,118.5063,37.8606,东营市,河口城区,臭氧1小时(O3_1h),125,73,73,16,29,250,250,203,203,13,17,21,16,0.8,0.8
2026-06-01T1500,3646A,118.4979,37.4623,东营市,胜利站,臭氧1小时(O3_1h),113,NA,35,21,33,226,226,179,179,15,21,9,9,0.6,0.8
2026-06-01T1500,3734A,118.5753,37.4405,东营市,理想之城,臭氧1小时(O3_1h),117,61,62,25,29,234,234,183,183,19,23,15,14,0.7,0.6
2026-06-01T1500,1591A,110.0024,39.8127,鄂尔多斯市,综合楼,,37,29,59,3,19,117,117,102,102,9,25,7,7,0.5,0.5
2026-06-01T1500,1592A,109.9485,39.8259,鄂尔多斯市,巴音孟克林场办事处,,40,24,47,23,17,125,125,119,119,6,16,4,6,0.5,0.5
2026-06-01T1500,1593A,109.7734,39.5987,鄂尔多斯市,康泽苑,,40,24,39,3,9,125,125,109,109,5,14,6,6,0.2,0.2
2026-06-01T1500,1594A,109.8121,39.5987,鄂尔多斯市,华泰汽车城,,36,34,39,6,12,115,115,94,94,5,26,9,9,0.3,0.4
2026-06-01T1500,1595A,109.9734,39.7884,鄂尔多斯市,奥林花园,,38,31,58,8,15,120,120,117,117,5,30,4,5,0.2,0.3
2026-06-01T1500,2436A,114.894,30.3989,鄂州市,市政府,颗粒物(PM10),55,56,77,32,39,161,161,134,134,17,24,7,7,0.8,0.8
2026-06-01T1500,2437A,114.8986,30.3714,鄂州市,赵家坝,臭氧1小时(O3_1h),84,62,70,35,36,187,187,143,143,8,16,8,7,0.7,0.6
2026-06-01T1500,3654A,114.8093,30.4091,鄂州市,精准医疗中心,臭氧1小时(O3_1h),58,43,60,30,36,166,166,134,134,9,19,4,4,0.6,0.8
2026-06-01T1500,2454A,109.4978,30.2979,恩施土家族苗族自治州,湖北民院,,32,32,35,21,22,47,47,37,37,9,6,8,9,0.6,0.5
2026-06-01T1500,3549A,109.5061,30.3771,恩施土家族苗族自治州,龙凤新区,,36,36,24,20,15,23,23,22,22,17,9,7,7,0.6,0.5
2026-06-01T1500,2499A,108.3411,21.6159,防城港市,沙万,,19,19,31,6,14,59,59,67,67,8,12,3,3,0.7,0.8
2026-06-01T1500,2500A,108.3515,21.7733,防城港市,防城档案局,,23,15,30,7,21,73,73,68,68,3,6,5,6,0.4,0.6
2026-06-01T1500,2501A,108.3506,21.6414,防城港市,大海花园,,23,15,28,10,21,73,73,80,80,3,6,5,6,0.5,0.6
2026-06-01T1500,1371A,113.1293,23.0065,佛山市,湾梁,臭氧1小时(O3_1h),59,51,43,23,22,167,167,121,121,8,11,/,/,/,/
2026-06-01T1500,1372A,113.1082,23.0477,佛山市,华材职中,,47,31,38,22,25,148,148,120,120,4,6,6,6,0.4,0.8
2026-06-01T1500,1373A,113.1439,23.045,佛山市,南海气象局,颗粒物(PM10),51,51,41,24,25,154,154,114,114,13,15,/,/,/,/
2026-06-01T1500,1374A,113.2879,22.8094,佛山市,顺德苏岗,细颗粒物(PM2.5),56,NA,26,38,23,163,163,115,115,12,10,/,/,0.6,0.7
2026-06-01T1500,1376A,112.8384,22.8678,佛山市,高明孔堂,,35,29,27,18,18,111,111,96,96,4,8,/,/,/,/
2026-06-01T1500,1377A,112.8835,23.1584,佛山市,三水监测站,,38,27,34,21,30,120,120,94,94,16,24,5,7,0.6,0.8
2026-06-01T1500,1378A,112.8668,23.185,佛山市,三水云东海,,40,34,46,20,29,127,127,104,104,2,12,/,/,/,/
2026-06-01T1500,3625A,113.2568,22.7629,佛山市,容桂街道办,,48,39,31,33,22,152,152,112,112,11,12,/,/,/,/
2026-06-01T1500,1282A,119.2681,26.0506,福州市,师大,臭氧1小时(O3_1h),92,40,28,16,11,193,193,143,143,11,11,4,5,0.5,0.4
2026-06-01T1500,1283A,119.2983,26.1028,福州市,五四北路,臭氧1小时(O3_1h),102,41,27,28,14,204,204,148,148,15,15,5,5,0.2,0.2
2026-06-01T1500,1284A,119.2648,26.0769,福州市,杨桥西路,臭氧1小时(O3_1h),84,38,27,25,13,187,187,144,144,9,10,4,4,/,/
2026-06-01T1500,3048A,119.5799,26.0937,福州市,九龙,臭氧1小时(O3_1h),82,32,23,21,9,185,185,141,141,9,10,9,7,0.5,0.3
2026-06-01T1500,3526A,119.5188,25.9666,福州市,吴航,臭氧1小时(O3_1h),72,35,25,14,12,177,177,125,125,14,18,10,8,0.5,0.4
2026-06-01T1500,4104A,119.3106,26.0648,福州市,路通桥巷6号,臭氧1小时(O3_1h),100,46,29,17,17,200,200,154,154,10,10,/,/,/,/
2026-06-01T1500,1755A,123.7974,41.8494,抚顺市,望花区,,49,28,44,15,19,156,156,121,121,13,11,12,14,0.8,0.9
2026-06-01T1500,1756A,123.9161,41.8827,抚顺市,顺城区,,48,23,33,11,21,152,152,124,124,9,11,9,10,0.6,0.7
2026-06-01T1500,1757A,124.0437,41.8615,抚顺市,东洲区,,46,21,32,13,16,145,145,122,122,9,10,12,11,0.5,0.6
2026-06-01T1500,1758A,123.9246,41.8638,抚顺市,新抚区,臭氧1小时(O3_1h),52,24,37,14,18,161,161,131,131,9,11,8,8,0.4,0.5
2026-06-01T1500,1759A,124.0972,41.8961,抚顺市,大伙房水库,,46,18,39,10,18,146,146,123,123,9,11,9,9,0.5,0.5
2026-06-01T1500,1760A,123.708,41.8386,抚顺市,沈抚新城,臭氧1小时(O3_1h),68,32,41,19,18,174,174,136,136,19,19,10,9,0.7,0.7
2026-06-01T1500,2377A,116.3544,27.9833,抚州市,市站,细颗粒物(PM2.5),78,60,71,49,54,126,126,109,109,5,8,12,14,0.8,0.8
2026-06-01T1500,2378A,116.3562,27.9631,抚州市,血防站,细颗粒物(PM2.5),76,54,68,48,56,128,128,112,112,5,10,3,4,0.6,0.7
2026-06-01T1500,2379A,116.3561,28.0007,抚州市,采茶剧团,细颗粒物(PM2.5),84,63,73,52,57,126,126,107,107,3,10,10,10,0.8,0.9
2026-06-01T1500,2380A,116.3854,27.9648,抚州市,医学分院,细颗粒物(PM2.5),68,60,71,44,53,113,113,103,103,4,6,7,10,1.2,1.2
2026-06-01T1500,2207A,121.6095,41.9978,阜新市,工业园区,"颗粒物(PM10),臭氧1小时(O3_1h)",52,52,108,16,17,161,161,126,126,10,19,8,10,0.3,0.4
2026-06-01T1500,2208A,121.6567,42.0188,阜新市,长青街,臭氧1小时(O3_1h),72,39,77,12,14,177,177,129,129,10,13,8,9,0.5,0.5
2026-06-01T1500,2209A,121.6672,42.07,阜新市,农业园区,臭氧1小时(O3_1h),67,47,85,15,13,173,173,129,129,13,15,7,8,0.5,0.5
2026-06-01T1500,2211A,121.6343,42.0455,阜新市,玉龙新城,颗粒物(PM10),88,103,90,10,15,168,168,126,126,8,18,7,9,0.6,0.6
2026-06-01T1500,2301A,115.8276,32.8929,阜阳市,市监测站,,50,50,66,16,31,159,159,144,144,9,20,6,6,0.2,0.3
2026-06-01T1500,2303A,115.8551,32.8606,阜阳市,开发区,颗粒物(PM10),53,54,76,14,31,158,158,147,147,35,22,4,5,0.6,0.5
2026-06-01T1500,2875A,115.783962,32.889217,阜阳市,阜阳职业技术学院,,50,50,62,14,27,156,156,155,155,4,10,6,6,0.4,0.4
2026-06-01T1500,3468A,115.79,32.8614,阜阳市,市规划展馆,,50,47,64,16,34,160,160,155,155,5,16,6,7,0.5,0.5
2026-06-01T1500,3469A,115.835101,32.918568,阜阳市,枣园社区,NA,NA,50,64,NA,34,160,160,148,148,6,21,6,6,0.3,0.5
2026-06-01T1500,2669A,102.9097,34.9841,甘南藏族自治州,州政府,,48,48,134,24,58,102,102,74,74,4,13,3,2,0.3,0.3
2026-06-01T1500,3380A,102.8915,34.9618,甘南藏族自治州,甘肃民族师范学院,颗粒物(PM10),60,63,148,21,52,107,107,81,81,11,19,2,2,0.2,0.3
2026-06-01T1500,2570A,101.96,30.048,甘孜藏族自治州,水桥子,,30,9,10,3,7,94,94,88,88,4,8,6,6,0.2,0.2
2026-06-01T1500,3065A,101.9534,29.9976,甘孜藏族自治州,州环保局,,30,19,12,3,7,94,94,88,88,7,11,4,4,0.5,0.5
2026-06-01T1500,2363A,114.9368,25.8663,赣州市,地委,细颗粒物(PM2.5),64,61,58,42,41,124,124,100,100,5,7,2,4,0.9,1
2026-06-01T1500,2364A,114.946,25.8483,赣州市,气象台,细颗粒物(PM2.5),56,NA,52,38,44,115,115,93,93,6,11,4,4,0.3,0.5
2026-06-01T1500,2365A,114.932,25.8332,赣州市,市图书馆,细颗粒物(PM2.5),64,44,53,42,38,131,131,102,102,4,8,5,5,0.7,0.9
2026-06-01T1500,2366A,114.8905,25.8472,赣州市,华坚鞋城,细颗粒物(PM2.5),72,61,55,46,39,137,137,104,104,9,12,1,2,0.3,0.3
2026-06-01T1500,3109A,115.0094,25.8614,赣州市,赣县区卫计委,,48,NA,55,33,38,115,115,99,99,2,12,2,3,0.4,0.5
2026-06-01T1500,2684A,106.2753,36.0057,固原市,监测站,颗粒物(PM10),63,67,56,16,18,135,135,107,107,7,15,8,8,0.2,0.3
2026-06-01T1500,2685A,106.2384,36.0189,固原市,新区,颗粒物(PM10),71,79,56,18,15,129,129,101,101,7,16,7,6,0.2,0.4
2026-06-01T1500,2544A,106.6307,30.4577,广安市,市委,,30,17,34,11,29,94,94,68,68,8,14,8,9,0.3,0.4
2026-06-01T1500,2545A,106.6266,30.4662,广安市,友谊中学,,31,22,33,10,27,99,99,75,75,10,15,8,9,0.5,0.7
2026-06-01T1500,2547A,106.6386,30.4551,广安市,广电花园,,30,18,31,11,28,95,95,65,65,10,16,7,8,0.4,0.6
2026-06-01T1500,2902A,106.6347,30.4868,广安市,北辰小学,,30,21,35,13,28,94,94,76,76,9,15,9,10,0.4,0.5
2026-06-01T1500,2524A,105.8211,32.4444,广元市,老城,,33,28,49,21,31,103,103,65,65,5,16,4,5,1.8,0.7
2026-06-01T1500,2526A,105.8629,32.429,广元市,监测站,NA,NA,42,54,23,30,99,99,68,68,NA,18,8,8,0.5,0.7
2026-06-01T1500,3617A,105.8047,32.4167,广元市,经开区,,42,42,51,25,31,98,98,55,55,7,23,7,7,0.5,0.6
2026-06-01T1500,1345A,113.2346,23.1423,广州市,广雅中学,臭氧1小时(O3_1h),62,45,38,27,22,169,169,113,113,9,12,1,2,0.5,0.6
2026-06-01T1500,1346A,113.2611,23.105,广州市,市五中,NA,NA,48,35,29,23,193,193,133,133,NA,12,3,3,/,/
2026-06-01T1500,1348A,113.3477,23.0916,广州市,广东商学院,臭氧1小时(O3_1h),70,41,35,25,20,176,176,126,126,9,14,4,5,0.6,0.6
2026-06-01T1500,1349A,113.4332,23.105,广州市,市八十六中,臭氧1小时(O3_1h),83,36,30,23,18,186,186,122,122,17,18,6,6,/,/
2026-06-01T1500,1350A,113.3506,22.9488,广州市,番禺中学,臭氧1小时(O3_1h),53,46,40,24,21,162,162,121,121,8,11,5,5,0.6,0.5
2026-06-01T1500,1351A,113.2147,23.3918,广州市,花都师范,,45,41,37,26,22,142,142,106,106,7,16,7,7,0.9,0.8
2026-06-01T1500,1352A,113.2599,23.1329,广州市,市监测站,臭氧1小时(O3_1h),65,40,38,24,20,172,172,119,119,7,10,2,2,/,/
2026-06-01T1500,1353A,113.5618,23.3119,广州市,九龙镇镇龙,,50,27,33,19,23,158,158,86,86,13,21,6,6,0.8,0.8
2026-06-01T1500,1354A,113.2764,23.1544,广州市,麓湖,臭氧1小时(O3_1h),64,38,35,27,22,171,171,135,135,8,10,7,6,0.7,0.8
2026-06-01T1500,2846A,113.3209,23.1323,广州市,体育西,臭氧1小时(O3_1h),59,42,38,23,21,167,167,120,120,14,15,4,4,0.7,0.6
2026-06-01T1500,3298A,113.5718,23.5493,广州市,从化街口,,43,31,37,24,27,136,136,95,95,9,13,5,6,0.8,0.9
2026-06-01T1500,3299A,113.3463,23.369,广州市,白云竹料,臭氧1小时(O3_1h),60,41,36,24,27,168,168,103,103,12,17,2,2,0.7,0.7
2026-06-01T1500,3300A,113.2981,23.2365,广州市,白云嘉禾,臭氧1小时(O3_1h),63,47,40,27,26,170,170,117,117,16,18,7,8,/,/
2026-06-01T1500,3301A,113.4256,23.1716,广州市,黄埔科学城,NA,NA,59,43,29,24,170,170,112,112,NA,12,7,7,0.6,0.5
2026-06-01T1500,3302A,113.3942,23.0485,广州市,番禺大学城,臭氧1小时(O3_1h),97,42,36,22,20,197,197,136,136,15,15,5,6,0.5,0.5
2026-06-01T1500,3303A,113.4923,22.8169,广州市,南沙黄阁,臭氧1小时(O3_1h),53,42,39,33,18,162,162,132,132,7,10,6,6,/,/
2026-06-01T1500,3304A,113.534,22.7893,广州市,南沙街,,46,28,37,19,19,146,146,125,125,7,12,7,7,0.4,0.4
2026-06-01T1500,3443A,113.2905,23.5541,广州市,花都梯面,,40,36,42,21,27,128,128,93,93,8,13,8,8,/,/
2026-06-01T1500,3445A,113.786,23.7479,广州市,从化良口,,39,25,25,18,19,122,122,93,93,6,9,4,4,/,/
2026-06-01T1500,3446A,113.805,23.2614,广州市,增城荔城,,46,20,40,13,24,146,146,117,117,10,16,6,7,0.9,0.9
2026-06-01T1500,2506A,109.604387,23.066791,贵港市,江南子站,,35,24,32,15,22,111,111,90,90,5,14,3,3,0.5,0.6
2026-06-01T1500,2508A,109.5669,23.1065,贵港市,荷城子站,,32,22,30,18,23,102,102,82,82,6,12,3,3,0.5,0.6
2026-06-01T1500,3405A,109.5886,23.1172,贵港市,新世纪学校,,36,22,36,14,24,114,114,93,93,7,13,/,/,0.4,0.6
2026-06-01T1500,4260A,109.5933,23.095,贵港市,中山路155-3号,,39,26,40,14,24,122,122,100,100,4,11,/,/,0.5,0.6
2026-06-01T1500,1439A,106.6863,26.6035,贵阳市,马鞍山,,25,22,16,11,10,78,78,81,81,6,8,3,7,/,/
2026-06-01T1500,1441A,106.6241,26.6266,贵阳市,鉴湖路,,34,34,30,12,10,93,93,93,93,6,9,5,6,0,0.3
2026-06-01T1500,1442A,106.7468,26.6344,贵阳市,燕子冲,,36,36,29,18,11,99,99,83,83,9,10,10,8,0.9,0.9
2026-06-01T1500,1443A,106.6556,26.4362,贵阳市,碧云窝,,37,34,29,13,11,118,118,95,95,9,7,5,6,/,/
2026-06-01T1500,1445A,106.6963,26.6063,贵阳市,红边门,,35,19,20,10,11,109,109,92,92,7,10,5,7,/,/
2026-06-01T1500,1446A,106.7162383,26.56964667,贵阳市,新华路,,36,36,27,12,9,106,106,90,90,10,12,24,58,0.5,0.5
2026-06-01T1500,1447A,106.6742,26.542,贵阳市,太慈桥,,31,22,18,15,10,97,97,78,78,11,8,2,5,/,/
2026-06-01T1500,4230A,106.688212,26.56952,贵阳市,花果园大街66号,NA,NA,NA,7,NA,10,92,92,78,78,8,9,3,3,/,/
2026-06-01T1500,4231A,106.687268,26.516892,贵阳市,漓江路57号,,33,14,17,12,11,103,103,81,81,11,9,2,2,0.7,0.6
2026-06-01T1500,1864A,110.3091,25.2705,桂林市,龙隐路小学,,37,33,32,22,20,117,117,82,82,4,8,4,4,0.4,0.5
2026-06-01T1500,1865A,110.2849361,25.22909545,桂林市,八中,,40,40,36,10,17,123,123,88,88,6,12,4,10,0.4,0.5
2026-06-01T1500,3531A,110.296,25.1254,桂林市,旅游学院,,42,23,33,20,22,133,133,88,88,1,8,9,8,0.4,0.4
2026-06-01T1500,4222A,110.1835,25.2444,桂林市,环湖路276号,,45,27,30,25,24,141,141,89,89,5,13,4,5,0.5,0.5
2026-06-01T1500,4301A,110.2803,25.2773,桂林市,信义路13号,,38,28,35,8,19,121,121,78,78,2,10,4,5,0.5,0.6
2026-06-01T1500,2674A,100.2262,34.4854,果洛藏族自治州,玛沁县大武镇,,29,21,15,6,6,91,91,83,83,2,2,18,18,0.3,0.3
2026-06-01T1500,1130A,126.5557,45.8109,哈尔滨市,松北商大,,31,31,53,13,17,81,81,77,77,6,8,4,4,0.4,0.3
2026-06-01T1500,1132A,126.6162,45.719,哈尔滨市,南岗学府路,,44,44,147,7,20,84,84,79,79,6,8,5,5,0.3,0.4
2026-06-01T1500,1133A,126.6894,45.7733,哈尔滨市,太平宏伟公园,颗粒物(PM10),63,67,124,7,20,85,85,79,79,9,11,6,6,0.3,0.3
2026-06-01T1500,1134A,126.6361,45.7672,哈尔滨市,道外承德广场,颗粒物(PM10),70,77,119,11,23,76,76,75,75,15,12,6,5,0.6,0.5
2026-06-01T1500,1136A,126.644,45.7261,哈尔滨市,动力和平路,NA,NA,NA,80,NA,23,253,253,105,105,95,17,16,6,0.2,0.3
2026-06-01T1500,1137A,126.5933,45.7479,哈尔滨市,道里建国路,,43,43,69,19,21,88,88,83,83,8,10,3,4,0.4,0.5
2026-06-01T1500,1138A,126.6127,45.6119,哈尔滨市,平房东轻厂,,25,8,23,3,18,80,80,76,76,3,10,1,5,0.2,0.2
2026-06-01T1500,1139A,126.5875,45.9827,哈尔滨市,呼兰师专,颗粒物(PM10),61,65,118,12,19,75,75,75,73,5,9,4,6,0.2,0.2
2026-06-01T1500,1140A,126.6299,45.6799,哈尔滨市,省农科院,颗粒物(PM10),84,97,191,6,30,62,62,70,70,14,7,5,5,0.4,0.4
2026-06-01T1500,4282A,126.6769,45.7379,哈尔滨市,华山路1号,,48,48,109,7,14,90,90,84,84,6,8,5,5,0.3,0.2
2026-06-01T1500,4283A,126.9717,45.5356,哈尔滨市,解放大街52号,,32,32,38,3,14,82,82,81,81,7,12,2,3,0.5,0.6
2026-06-01T1500,2688A,93.5124,42.8176,哈密市,地区监测站,,39,34,22,16,17,124,124,99,99,3,15,5,3,0.5,0.6
2026-06-01T1500,2689A,93.5014,42.8312,哈密市,哈密师范学校,,39,34,32,12,15,124,124,95,95,5,26,5,4,0.1,0.3
2026-06-01T1500,2671A,100.9016,36.9464,海北藏族自治州,海晏县西海镇,,45,13,28,3,17,141,141,118,118,1,3,6,7,0.3,0.4
2026-06-01T1500,3867A,102.074,36.5056,海东市,平安区公安局北苑,细颗粒物(PM2.5),107,NA,54,67,38,148,148,106,106,5,13,5,10,0.4,0.6
2026-06-01T1500,4163A,102.0984,36.5119,海东市,滨河路,,40,NA,49,6,29,128,128,90,90,6,24,4,7,0.5,0.7
2026-06-01T1500,1410A,110.3189,20.0596,海口市,海南大学,,36,22,18,15,10,115,115,79,79,5,5,6,5,0.4,0.3
2026-06-01T1500,1411A,110.2827,20.0051,海口市,秀英海南医院,,35,17,16,15,12,110,110,75,75,4,10,6,6,0.3,0.3
2026-06-01T1500,1412A,110.3391,19.9979,海口市,海南师范大学,,43,20,18,14,12,137,137,79,79,7,6,5,3,0.4,0.4
2026-06-01T1500,1413A,110.3303,20.0359,海口市,龙华路环保局宿舍,,38,17,17,12,11,120,120,80,80,4,4,/,/,0.3,0.3
2026-06-01T1500,3539A,110.5111,19.9737,海口市,桂林洋子站,,29,19,20,10,11,92,92,68,68,2,5,/,/,/,/
2026-06-01T1500,4134A,110.1952,20.0451,海口市,长滨二路9号,,34,18,17,16,10,106,106,73,73,3,4,/,/,/,/
2026-06-01T1500,2673A,100.6158,36.2985,海南藏族自治州,共和县恰卜恰镇,,40,10,38,7,21,127,127,107,107,2,4,9,10,0.4,0.4
2026-06-01T1500,2676A,97.373,37.376,海西蒙古族藏族自治州,德令哈市,,45,25,20,12,8,144,144,128,128,2,2,18,18,0.4,0.3
2026-06-01T1500,1049A,114.492,36.5712,邯郸市,矿院,臭氧1小时(O3_1h),120,41,46,9,21,239,239,196,196,5,10,4,3,0.4,0.4
2026-06-01T1500,1050A,114.4839,36.6136,邯郸市,丛台公园,臭氧1小时(O3_1h),117,44,43,23,19,234,234,191,191,5,9,8,5,0.4,0.4
2026-06-01T1500,3458A,114.7893,36.5592,邯郸市,香泉濮院小区,臭氧1小时(O3_1h),120,99,84,36,30,239,239,175,175,12,16,2,2,0.5,0.3
2026-06-01T1500,3580A,114.1998,36.4439,邯郸市,峰峰矿区临水派出所,臭氧1小时(O3_1h),108,31,42,22,21,215,215,165,165,8,14,8,12,0.5,0.9
2026-06-01T1500,4068A,114.5209,36.7697,邯郸市,建安街268号,臭氧1小时(O3_1h),107,40,62,18,22,214,214,180,180,9,17,3,2,0.3,0.4
2026-06-01T1500,4069A,114.5488,36.6177,邯郸市,丛台东路558号,臭氧1小时(O3_1h),111,56,54,16,22,221,221,180,180,5,15,5,5,0.4,0.5
2026-06-01T1500,2635A,107.0155,33.0707,汉中市,市监测站,细颗粒物(PM2.5),74,76,70,47,53,147,147,80,80,11,15,6,7,0.6,0.7
2026-06-01T1500,2636A,107.0083,33.114,汉中市,鑫源开发区,颗粒物(PM10),65,71,68,21,52,138,138,68,68,8,18,8,8,0.7,0.9
2026-06-01T1500,2637A,107.0072,33.0323,汉中市,南郑大河坎水厂,颗粒物(PM10),60,63,66,30,49,141,141,70,70,8,13,6,5,0.8,0.8
2026-06-01T1500,1223A,120.2073,30.2111,杭州市,滨江,臭氧1小时(O3_1h),114,46,50,21,26,228,228,178,178,17,24,10,10,0.6,0.6
2026-06-01T1500,1224A,120.0625,30.2737,杭州市,西溪,臭氧1小时(O3_1h),123,54,40,22,21,246,246,168,168,13,17,4,4,0.2,0.1
2026-06-01T1500,1226A,120.3417,30.315,杭州市,下沙,臭氧1小时(O3_1h),112,38,45,29,24,224,224,169,169,14,28,9,8,0.4,0.5
2026-06-01T1500,1227A,120.1252,30.2465,杭州市,卧龙桥,臭氧1小时(O3_1h),125,56,38,29,21,250,250,179,179,12,16,10,9,0.2,0.2
2026-06-01T1500,1228A,120.1902,30.2691,杭州市,浙江农大,臭氧1小时(O3_1h),108,36,44,23,24,215,215,164,164,17,26,8,8,0.4,0.4
2026-06-01T1500,1230A,120.1195,30.3121,杭州市,和睦小学,臭氧1小时(O3_1h),123,50,39,31,25,246,246,177,177,15,19,10,8,0.6,0.5
2026-06-01T1500,1231A,120.3076,30.4146,杭州市,临平镇,臭氧1小时(O3_1h),110,33,41,20,21,220,220,171,171,11,15,10,9,NA,0.3
2026-06-01T1500,1232A,120.2753,30.1839,杭州市,城厢镇,臭氧1小时(O3_1h),132,73,59,47,31,264,264,182,182,17,28,9,8,0.5,0.6
2026-06-01T1500,1233A,120.0883,30.1808,杭州市,云栖,臭氧1小时(O3_1h),116,58,43,26,20,231,231,164,164,17,26,10,9,0.7,0.7
2026-06-01T1500,3557A,119.9463,30.0496,杭州市,镇二中,臭氧1小时(O3_1h),99,37,45,21,25,199,199,157,157,16,28,6,6,0.5,0.5
2026-06-01T1500,3558A,119.7184,30.2367,杭州市,市府大楼,臭氧1小时(O3_1h),82,38,31,20,20,185,185,162,162,10,17,8,8,0.5,0.6
2026-06-01T1500,3656A,120.1554,30.2863,杭州市,消防大队,臭氧1小时(O3_1h),114,53,42,24,24,228,228,167,167,14,21,8,7,0.5,0.5
2026-06-01T1500,1270A,117.1957,31.7845,合肥市,明珠广场,臭氧1小时(O3_1h),102,48,65,26,41,203,203,165,165,8,23,8,9,0.5,0.6
2026-06-01T1500,1271A,117.307,31.8765,合肥市,三里街,臭氧1小时(O3_1h),111,63,70,31,41,222,222,162,162,17,28,11,10,0.6,0.6
2026-06-01T1500,1272A,117.2587,31.8703,合肥市,琥珀山庄,臭氧1小时(O3_1h),110,70,69,26,38,220,220,170,170,11,21,8,8,0.8,0.9
2026-06-01T1500,1275A,117.2593,31.9376,合肥市,庐阳区,臭氧1小时(O3_1h),113,63,75,29,39,225,225,168,168,16,35,11,10,0.7,0.7
2026-06-01T1500,1276A,117.345251,31.861615,合肥市,瑶海区,臭氧1小时(O3_1h),119,73,76,33,39,237,237,177,177,15,30,11,10,0.6,0.6
2026-06-01T1500,1277A,117.3033,31.7967,合肥市,包河区,臭氧1小时(O3_1h),93,58,71,29,36,194,194,155,155,13,52,11,11,0.6,0.6
2026-06-01T1500,1278A,117.278,31.7392,合肥市,滨湖新区,臭氧1小时(O3_1h),97,56,67,28,36,197,197,156,156,9,15,11,10,0.7,0.7
2026-06-01T1500,1279A,117.1324,31.8395,合肥市,高新区,臭氧1小时(O3_1h),104,58,68,27,37,208,208,168,168,8,21,7,7,0.5,0.5
2026-06-01T1500,3464A,117.3802,31.9148,合肥市,高教基地,臭氧1小时(O3_1h),112,56,69,20,36,224,224,168,168,6,20,11,11,0.6,0.6
2026-06-01T1500,4098A,117.2518,31.8404,合肥市,中国科学技术大学,臭氧1小时(O3_1h),119,56,67,22,36,238,238,183,183,11,20,11,11,0.6,0.7
2026-06-01T1500,3614A,79.9241,37.0878,和田地区,地区环保局,颗粒物(PM10),100,119,153,36,47,109,109,88,88,3,5,2,3,0.2,0.3
2026-06-01T1500,3615A,79.9132,37.1137,和田地区,市环保局,颗粒物(PM10),103,126,138,29,36,122,122,98,98,1,11,1,2,0.1,0.2
2026-06-01T1500,2517A,108.0496,24.6957,河池市,市环保站,,46,46,32,20,17,109,109,99,99,8,10,6,8,0.7,0.7
2026-06-01T1500,4302A,108.0901,24.6945,河池市,上任中路54号,,38,38,32,19,14,118,118,104,104,4,14,8,9,0.9,0.9
2026-06-01T1500,1697A,114.6962,23.7538,河源市,东埔,细颗粒物(PM2.5),54,NA,32,37,26,135,135,135,135,7,11,4,4,0.7,0.8
2026-06-01T1500,1698A,114.6895,23.7232,河源市,老城,,50,50,40,28,22,134,134,133,133,12,15,5,5,0.5,0.7
2026-06-01T1500,3374A,115.5562,35.089,菏泽市,定陶老年大学,臭氧1小时(O3_1h),73,68,98,16,30,178,178,154,154,11,18,4,5,0.3,0.4
2026-06-01T1500,4114A,115.4239,35.2593,菏泽市,黄河路600号,臭氧1小时(O3_1h),67,69,106,20,36,173,173,144,144,14,20,5,9,0.3,0.4
2026-06-01T1500,4115A,115.5025,35.2727,菏泽市,菏泽市人社局,臭氧1小时(O3_1h),59,52,86,16,30,167,167,140,140,7,14,6,9,0.2,0.2
2026-06-01T1500,4184A,115.479691,35.244011,菏泽市,永昌路1号,臭氧1小时(O3_1h),75,63,86,16,32,180,180,154,154,15,18,6,9,0.5,0.5
2026-06-01T1500,4193A,115.471542,35.280012,菏泽市,长城路999号,臭氧1小时(O3_1h),80,57,96,22,36,184,184,155,155,6,14,6,9,0.1,0.2
2026-06-01T1500,2514A,111.5264,24.4178,贺州市,环保小区,,41,25,29,14,17,130,130,92,92,4,9,7,8,0.3,0.4
2026-06-01T1500,2515A,111.561,24.4074,贺州市,政协大楼,,44,20,21,16,19,138,138,96,96,8,14,10,11,0.6,0.7
2026-06-01T1500,3534A,111.4744,24.455,贺州市,西湾,,35,21,36,3,3,111,111,80,80,5,12,11,10,0.5,0.6
2026-06-01T1500,2385A,114.17,35.9019,鹤壁市,市监测站,臭氧1小时(O3_1h),115,73,49,40,32,229,229,180,180,10,13,10,10,0.8,0.8
2026-06-01T1500,2386A,114.2953,35.7512,鹤壁市,市交警支队,臭氧1小时(O3_1h),112,68,70,34,34,223,223,164,164,11,18,8,7,0.6,0.6
2026-06-01T1500,2387A,114.2877,35.7302,鹤壁市,迎宾馆,臭氧1小时(O3_1h),118,97,85,24,28,235,235,170,170,11,16,10,11,0.5,0.5
2026-06-01T1500,3474A,114.2616,35.6824,鹤壁市,大新区,臭氧1小时(O3_1h),116,85,86,40,43,231,231,168,168,12,24,7,11,0.6,0.4
2026-06-01T1500,3596A,114.1573,35.9607,鹤壁市,南山宾馆,臭氧1小时(O3_1h),112,82,65,39,39,224,224,166,166,11,13,11,12,0.8,0.8
2026-06-01T1500,2244A,130.2537,47.3416,鹤岗市,哈啤分公司,,37,37,57,9,22,83,83,113,89,6,12,11,12,0.0,0.1
2026-06-01T1500,2245A,130.2683,47.3087,鹤岗市,斯达机电,,41,41,60,3,19,89,89,118,93,4,8,10,10,0.4,0.4
2026-06-01T1500,2246A,130.3114,47.3388,鹤岗市,东山纸板厂,,46,46,73,10,17,84,84,102,90,6,10,9,10,0.3,0.3
2026-06-01T1500,2263A,127.4832,50.2524,黑河市,交通局,,23,23,35,15,12,42,42,60,45,7,8,7,6,0.0,0.1
2026-06-01T1500,2264A,127.5146,50.2339,黑河市,环保局,,14,NA,8,7,11,44,44,66,47,5,7,4,4,0.2,0.2
2026-06-01T1500,1074A,115.6839,37.754,衡水市,电机北厂,臭氧1小时(O3_1h),119,102,92,42,29,237,237,178,178,10,16,5,5,0.6,0.3
2026-06-01T1500,1075A,115.6303,37.7318,衡水市,市监测站,臭氧1小时(O3_1h),117,80,73,28,23,233,233,172,172,9,15,5,4,0.8,0.6
2026-06-01T1500,3188A,115.6684,37.7216,衡水市,市城管局,臭氧1小时(O3_1h),120,102,89,30,27,239,239,172,172,10,16,12,9,0.5,0.3
2026-06-01T1500,3459A,115.599,37.5491,衡水市,地表水厂,臭氧1小时(O3_1h),121,95,86,37,28,241,241,173,173,5,19,14,10,0.5,0.4
2026-06-01T1500,2457A,112.6209,26.9268,衡阳市,衡阳化工总厂,,41,38,58,21,39,131,131,114,114,6,16,5,6,0.9,1
2026-06-01T1500,2458A,112.621,26.8957,衡阳市,珠晖区环保局,臭氧1小时(O3_1h),68,48,55,19,33,174,174,124,124,6,21,7,7,1.2,1
2026-06-01T1500,2459A,112.628,26.8654,衡阳市,市委党校,,49,43,51,18,34,156,156,113,113,6,10,10,10,1.2,0.9
2026-06-01T1500,2460A,112.6007,26.8977,衡阳市,市监测站,颗粒物(PM10),57,59,53,24,34,155,155,121,121,8,15,7,8,1.2,1
2026-06-01T1500,2461A,112.5658,26.9013,衡阳市,真空机电公司,颗粒物(PM10),52,52,50,16,35,144,144,112,112,7,18,7,7,1.0,1.2
2026-06-01T1500,3399A,112.6703,26.8817,衡阳市,师范学院,,46,42,50,32,32,144,144,107,107,4,8,8,9,0.9,0.8
2026-06-01T1500,3038A,103.3757,23.3679,红河哈尼族彝族自治州,州图书馆,,23,9,17,9,14,72,72,70,70,3,4,1,3,0.2,0.2
2026-06-01T1500,4154A,103.401,23.3561,红河哈尼族彝族自治州,蒙自市朝阳路,,23,11,14,8,11,71,71,69,69,2,4,5,5,0.2,0.2
2026-06-01T1500,1090A,111.6506,40.7517,呼和浩特市,呼市一监,颗粒物(PM10),80,92,31,3,7,136,136,95,95,10,18,12,11,0.2,0.2
2026-06-01T1500,1094A,111.7516,40.8369,呼和浩特市,如意水处理厂,颗粒物(PM10),55,56,27,15,9,132,132,91,91,16,18,13,9,0.5,0.4
2026-06-01T1500,1095A,111.727798,40.806187,呼和浩特市,二十九中,颗粒物(PM10),52,52,28,11,10,126,126,83,83,17,21,14,10,0.2,0.3
2026-06-01T1500,1097A,111.717,40.7617,呼和浩特市,化肥厂生活区,颗粒物(PM10),56,58,34,12,14,129,129,84,84,14,24,12,10,0.3,0.4
2026-06-01T1500,3699A,111.6519,40.8389,呼和浩特市,海东办,颗粒物(PM10),72,80,29,3,4,127,127,86,86,16,24,10,8,0.3,0.6
2026-06-01T1500,4275A,111.591512,40.827312,呼和浩特市,成吉思汗西街8号,颗粒物(PM10),65,70,35,17,8,123,123,77,77,22,31,7,6,0.3,0.2
2026-06-01T1500,4276A,111.6597,40.8077,呼和浩特市,公园东路75号,颗粒物(PM10),67,73,29,15,8,121,121,87,87,18,18,11,10,0.4,0.4
2026-06-01T1500,4277A,111.5427,40.7846,呼和浩特市,金海路35号,颗粒物(PM10),66,72,35,6,11,118,118,76,76,21,23,8,7,0.3,0.3
2026-06-01T1500,3061A,119.7511,49.1576,呼伦贝尔市,国华电力东,,25,25,54,7,12,70,70,64,64,5,4,4,5,0.3,0.3
2026-06-01T1500,4279A,119.7569,49.2222,呼伦贝尔市,伊敏大街东7号,,21,12,48,3,14,67,67,59,59,5,5,5,5,0.3,0.3
2026-06-01T1500,1250A,120.075,30.867,湖州市,城西水厂,臭氧1小时(O3_1h),113,35,37,23,21,225,225,166,166,10,12,7,7,0.4,0.5
2026-06-01T1500,2873A,120.083,30.8929,湖州市,仁皇山新区,臭氧1小时(O3_1h),117,42,36,29,20,233,233,164,164,16,16,7,7,0.5,0.4
2026-06-01T1500,2907A,120.1846,30.8592,湖州市,吴兴区站,臭氧1小时(O3_1h),106,43,36,24,20,211,211,154,154,11,13,8,8,0.4,0.4
2026-06-01T1500,3562A,120.4146,30.8538,湖州市,南浔区站,臭氧1小时(O3_1h),82,32,36,23,21,185,185,153,153,11,19,8,9,0.5,0.5
2026-06-01T1500,1607A,120.904878,40.721091,葫芦岛市,龙港区,颗粒物(PM10),51,51,64,22,31,141,141,161,161,7,13,10,15,0.5,0.6
2026-06-01T1500,1608A,120.8382,40.7521,葫芦岛市,化工街,臭氧1小时(O3_1h),57,46,69,22,27,165,165,171,171,16,22,16,16,0.6,0.6
2026-06-01T1500,1609A,120.8339,40.7078,葫芦岛市,新区,,50,50,58,25,30,142,142,158,158,8,14,9,11,0.6,0.7
2026-06-01T1500,1610A,120.8697,40.7679,葫芦岛市,东城区,"颗粒物(PM10),细颗粒物(PM2.5)",58,60,67,39,32,164,164,170,170,10,16,10,12,1.1,0.9
2026-06-01T1500,2483A,109.9297,27.5383,怀化市,河西地税局,NA,NA,36,37,18,22,98,98,83,83,NA,12,11,7,/,/
2026-06-01T1500,2484A,109.9783,27.5342,怀化市,市四医院,,32,23,30,3,12,101,101,78,78,5,12,8,8,0.4,0.5
2026-06-01T1500,2485A,109.9971,27.5579,怀化市,监测楼,NA,NA,29,31,14,18,111,111,86,86,NA,9,7,6,0.5,0.5
2026-06-01T1500,1210A,119.0566,33.5991,淮安市,钵池山,,43,27,46,7,25,136,136,132,132,11,19,12,15,0.2,0.4
2026-06-01T1500,1211A,119.0083,33.578,淮安市,北京南路,,49,31,51,10,27,155,155,141,141,6,16,7,10,0.5,0.7
2026-06-01T1500,1212A,118.9938,33.6083,淮安市,市监测站,,48,22,40,9,24,153,153,143,143,8,19,7,10,0.4,0.5
2026-06-01T1500,1213A,119.135,33.5038,淮安市,楚州区监测站,,41,17,54,6,32,130,130,129,129,8,20,6,8,0.2,0.4
2026-06-01T1500,3426A,118.8757,33.2897,淮安市,新华书店,臭氧1小时(O3_1h),54,36,54,14,26,163,163,133,133,11,23,9,10,0.5,0.7
2026-06-01T1500,4092A,119.119691,33.550006,淮安市,枚皋中路89号,,42,24,49,6,26,134,134,134,134,7,15,8,10,0.5,0.8
2026-06-01T1500,4206A,119.028838,33.631911,淮安市,承德北路606号,,45,22,50,9,25,143,143,130,130,6,15,7,9,0.5,0.7
2026-06-01T1500,2282A,116.8005,33.9749,淮北市,监测站,臭氧1小时(O3_1h),106,59,78,35,35,212,212,183,183,8,17,7,8,0.6,0.8
2026-06-01T1500,2283A,116.8094,33.9008,淮北市,烈山区政府,臭氧1小时(O3_1h),108,52,94,15,30,215,215,182,182,3,16,8,11,0.2,0.4
2026-06-01T1500,4017A,116.7926,33.9534,淮北市,市博物馆,臭氧1小时(O3_1h),109,65,72,28,33,217,217,189,189,5,14,5,6,0.3,0.5
2026-06-01T1500,4100A,116.8322,33.9884,淮北市,杜集区第一实验学校,臭氧1小时(O3_1h),113,57,89,16,28,226,226,195,195,6,15,5,8,0.3,0.4
2026-06-01T1500,2277A,116.8304,32.7726,淮南市,潘集区政府,臭氧1小时(O3_1h),106,43,74,22,35,212,212,174,174,10,23,9,12,0.5,0.6
2026-06-01T1500,2279A,116.8569,32.5949,淮南市,谢家集区政府,臭氧1小时(O3_1h),105,45,67,25,44,210,210,177,177,11,26,8,11,0.4,0.4
2026-06-01T1500,2280A,116.8279,32.6333,淮南市,八公山区政府,臭氧1小时(O3_1h),109,53,75,24,38,217,217,178,178,9,16,6,8,0.3,0.4
2026-06-01T1500,2894A,117.0561,32.6536,淮南市,经济技术开发区消防队,臭氧1小时(O3_1h),109,53,62,27,35,217,217,181,181,12,20,9,11,0.5,0.5
2026-06-01T1500,3329A,117.011,32.5891,淮南市,山南新区,臭氧1小时(O3_1h),102,54,70,22,37,203,203,178,178,8,15,10,12,0.4,0.4
2026-06-01T1500,4209A,117.003137,32.644456,淮南市,国庆中路369号,臭氧1小时(O3_1h),104,42,57,27,31,208,208,171,171,8,12,6,8,0.4,0.4
2026-06-01T1500,2446A,114.9021,30.474,黄冈市,职工中心,,50,46,50,35,38,160,160,131,131,2,4,5,5,0.7,0.8
2026-06-01T1500,2929A,114.8858,30.4519,黄冈市,红卫路,,50,42,46,33,37,160,160,131,131,2,3,8,8,0.3,0.4
2026-06-01T1500,3398A,114.9134,30.4446,黄冈市,市林业局,细颗粒物(PM2.5),60,48,56,40,42,161,161,128,128,5,13,4,4,0.4,0.4
2026-06-01T1500,2672A,102.02,35.5101,黄南藏族自治州,同仁县隆务镇,,46,25,101,10,45,145,145,113,113,1,1,8,8,0.1,0.1
2026-06-01T1500,2295A,118.2905,29.6965,黄山市,延安路89号,,50,42,44,27,32,157,157,102,102,7,11,6,6,0.4,0.4
2026-06-01T1500,2297A,118.1369,30.2755,黄山市,黄山区政府5号楼,,48,48,42,20,30,120,120,88,88,4,6,3,3,0.4,0.5
2026-06-01T1500,4210A,118.335445,29.720283,黄山市,滨江东路7-2号,,47,46,49,25,29,150,150,116,116,5,10,/,/,/,/
2026-06-01T1500,2423A,115.0547,30.2332,黄石市,沈家营,颗粒物(PM10),64,69,82,32,46,159,159,131,131,5,16,4,5,0.2,0.4
2026-06-01T1500,2426A,114.899,30.211,黄石市,铁山,,43,43,63,30,45,136,136,121,121,3,12,3,5,0.5,0.8
2026-06-01T1500,2427A,115.0259,30.2108,黄石市,团城山,颗粒物(PM10),55,57,77,35,49,158,158,142,142,4,10,4,5,0.6,0.9
2026-06-01T1500,3149A,115.0174,30.1591,黄石市,笔架山北路,臭氧1小时(O3_1h),65,69,97,32,44,172,172,150,150,6,12,4,6,0.3,0.6
2026-06-01T1500,4185A,115.078022,30.21118,黄石市,磁湖东路29号,颗粒物(PM10),57,59,83,36,46,161,161,133,133,5,13,4,4,0.3,0.4
2026-06-01T1500,1392A,114.4181,23.0528,惠州市,河南岸金山湖子站,,50,46,41,30,23,157,157,139,139,7,10,7,8,0.8,0.8
2026-06-01T1500,1393A,114.4055,23.0824,惠州市,下埔横江三路子站,臭氧1小时(O3_1h),57,45,45,25,23,165,165,138,138,7,10,4,4,0.6,0.8
2026-06-01T1500,1395A,114.4645,22.7832,惠州市,惠阳区承修路船湖子站,,38,35,42,15,18,120,120,148,126,7,9,3,4,0.6,0.6
2026-06-01T1500,1396A,114.5316,22.7423,惠州市,大亚湾管委会子站,,36,35,37,14,17,113,113,149,118,7,10,4,5,0.5,0.5
2026-06-01T1500,3314A,114.4334,22.8134,惠州市,惠阳秋长,,42,36,39,14,19,132,132,148,139,5,7,/,/,/,/
2026-06-01T1500,3452A,114.6521,22.7755,惠州市,大亚湾霞涌,,38,38,38,17,18,109,109,118,113,2,5,/,/,/,/
2026-06-01T1500,4300A,114.4089,23.1147,惠州市,文华一路1号,臭氧1小时(O3_1h),62,41,41,26,23,169,169,149,149,5,8,/,/,/,/
2026-06-01T1500,2240A,130.9618,45.2926,鸡西市,环保局,颗粒物(PM10),54,55,40,9,16,94,94,142,127,6,10,7,8,0.2,0.3
2026-06-01T1500,2243A,130.9294,45.2959,鸡西市,第一中学,颗粒物(PM10),58,61,40,11,14,90,90,136,121,2,5,8,8,0.2,0.4
2026-06-01T1500,3707A,131.0069,45.2988,鸡西市,欧美日汽修厂,,30,29,37,12,15,93,93,130,116,2,7,5,6,0.3,0.4
2026-06-01T1500,2367A,114.9753,27.0803,吉安市,红声器材厂,,36,33,71,25,46,112,112,117,117,5,11,2,4,0.5,0.7
2026-06-01T1500,2369A,114.9903,27.1313,吉安市,市环境监测站,颗粒物(PM10),59,62,71,25,44,98,98,104,104,4,9,10,13,/,/
2026-06-01T1500,2370A,115.009527,27.096792,吉安市,青原区法院,,38,38,71,26,49,112,112,115,115,4,11,8,9,0.5,0.6
2026-06-01T1500,1772A,126.54,43.8622,吉林市,哈达湾,,31,18,43,3,14,99,99,96,84,6,9,4,6,0.3,0.4
2026-06-01T1500,1773A,126.5843,43.8358,吉林市,东局子,,33,NA,18,3,11,103,103,104,88,14,12,4,4,0.4,0.6
2026-06-01T1500,1774A,126.5051,43.8243,吉林市,电力学院,,35,7,34,3,12,112,112,106,95,8,12,4,5,0.4,0.5
2026-06-01T1500,1775A,126.6133,43.8971,吉林市,江北,,31,17,35,3,11,98,98,90,82,8,11,5,6,0.3,0.4
2026-06-01T1500,1776A,126.5549,43.8304,吉林市,江南公园,,32,18,39,7,17,102,102,98,86,8,9,6,7,0.2,0.3
2026-06-01T1500,2868A,126.4737,43.953,吉林市,九站,,33,24,46,3,12,105,105,91,88,8,12,2,2,0.3,0.4
2026-06-01T1500,1299A,116.9866,36.6118,济南市,科干所,臭氧1小时(O3_1h),103,53,52,29,23,205,205,178,178,11,12,7,7,0.6,0.5
2026-06-01T1500,1300A,116.9379,36.6652,济南市,农科所,臭氧1小时(O3_1h),100,68,64,18,21,200,200,177,177,9,13,4,4,0.3,0.4
2026-06-01T1500,1301A,117.1265,36.6736,济南市,开发区,臭氧1小时(O3_1h),101,73,65,27,23,202,202,167,167,8,9,6,6,0.5,0.4
2026-06-01T1500,1303A,117.0616,36.6865,济南市,省种子仓库,臭氧1小时(O3_1h),101,75,73,21,24,202,202,167,167,8,15,7,6,0.5,0.5
2026-06-01T1500,1304A,116.9495185,36.644937,济南市,机床二厂,臭氧1小时(O3_1h),95,81,78,20,22,196,196,173,173,12,16,6,7,0.4,0.4
2026-06-01T1500,1305A,117.0496,36.6629,济南市,市监测站,臭氧1小时(O3_1h),103,71,70,22,21,206,206,172,172,9,11,4,5,0.4,0.3
2026-06-01T1500,1306A,116.7674,36.5458,济南市,长清党校,臭氧1小时(O3_1h),105,81,76,14,20,210,210,181,181,9,13,6,7,0.3,0.2
2026-06-01T1500,1961A,117.5323,36.6865,济南市,东山小学,臭氧1小时(O3_1h),98,71,66,18,22,198,198,177,177,9,14,4,6,0.2,0.3
2026-06-01T1500,3059A,117.7181,36.205,济南市,泰兴公司,臭氧1小时(O3_1h),103,78,66,22,24,205,205,175,175,13,24,15,13,0.3,0.3
2026-06-01T1500,3064A,117.6861,36.2172,济南市,莱芜战役纪念馆,臭氧1小时(O3_1h),105,78,59,20,22,209,209,180,180,14,18,20,11,0.3,0.3
2026-06-01T1500,3494A,117.1673,36.9782,济南市,济阳区政府,臭氧1小时(O3_1h),101,78,94,20,25,202,202,161,161,10,26,8,9,0.3,0.2
2026-06-01T1500,3495A,117.1168,36.6299,济南市,锦屏中学,臭氧1小时(O3_1h),95,73,69,23,22,196,196,162,162,7,7,8,8,0.5,0.4
2026-06-01T1500,4108A,117.7107,36.2385,济南市,山财大街5号,臭氧1小时(O3_1h),106,73,61,23,24,211,211,176,176,11,19,8,10,0.4,0.5
2026-06-01T1500,4109A,116.9744,36.6889,济南市,无影山路12号,臭氧1小时(O3_1h),89,58,63,21,22,191,191,167,167,10,14,2,3,0.4,0.4
2026-06-01T1500,1653A,116.6229,35.4288,济宁市,火炬城,臭氧1小时(O3_1h),92,75,66,18,22,193,193,164,164,14,18,4,5,0.5,0.5
2026-06-01T1500,3500A,116.5808,35.3703,济宁市,北湖一中,臭氧1小时(O3_1h),105,77,66,24,24,209,209,175,175,1,4,6,7,0.6,0.5
2026-06-01T1500,3501A,116.8251,35.5592,济宁市,服务中心,臭氧1小时(O3_1h),112,71,75,16,21,223,223,188,188,5,13,2,4,0.5,0.5
2026-06-01T1500,3678A,116.5907,35.4054,济宁市,市第七中学,臭氧1小时(O3_1h),106,84,82,22,25,211,211,178,178,1,7,6,6,0.4,0.4
2026-06-01T1500,4111A,116.6075,35.4566,济宁市,任和路,臭氧1小时(O3_1h),105,76,77,23,19,210,210,NA,NA,6,7,3,3,0.4,0.4
2026-06-01T1500,4112A,116.5648,35.3921,济宁市,文体南路1号,臭氧1小时(O3_1h),101,64,70,7,8,201,201,170,170,3,10,5,6,0.6,0.5
2026-06-01T1500,4122A,112.6071,35.1015,济源市,市委党校,臭氧1小时(O3_1h),95,74,61,17,22,196,196,145,145,8,18,13,12,0.5,0.7
2026-06-01T1500,4123A,112.596,35.0702,济源市,沁园中路1号,臭氧1小时(O3_1h),95,65,55,25,25,196,196,151,151,10,28,9,8,0.7,0.9
2026-06-01T1500,2255A,130.2749,46.8028,佳木斯市,佳纺,颗粒物(PM10),63,67,70,12,16,97,97,126,95,4,6,2,3,0.2,0.2
2026-06-01T1500,2257A,130.3258,46.7975,佳木斯市,环保局,颗粒物(PM10),59,62,72,8,21,98,98,129,96,4,6,2,3,0.1,0.2
2026-06-01T1500,4285A,130.363,46.806,佳木斯市,顺和街,颗粒物(PM10),60,63,78,8,19,94,94,124,92,6,7,1,1,0.1,0.1
2026-06-01T1500,4286A,130.3952,46.8268,佳木斯市,长安路196号,颗粒物(PM10),105,132,115,11,23,100,100,130,99,2,6,4,4,0.1,0.2
2026-06-01T1500,1252A,120.7439,30.778,嘉兴市,清河小学,臭氧1小时(O3_1h),70,39,38,16,17,176,176,132,132,15,18,10,10,0.3,0.4
2026-06-01T1500,1253A,120.7261,30.7477,嘉兴市,嘉兴学院,臭氧1小时(O3_1h),65,32,35,19,17,172,172,136,136,8,13,6,7,0.4,0.4
2026-06-01T1500,2872A,120.7845,30.7524,嘉兴市,南湖区残联,臭氧1小时(O3_1h),106,47,32,24,18,211,211,148,148,14,15,9,10,0.5,0.5
2026-06-01T1500,3407A,120.6915,30.7741,嘉兴市,秀洲住建,臭氧1小时(O3_1h),83,36,34,15,14,186,186,144,144,11,16,8,9,0.4,0.4
2026-06-01T1500,1945A,98.291,39.7705,嘉峪关市,气象局,,40,24,37,9,13,128,128,114,114,5,13,13,11,0.6,0.5
2026-06-01T1500,2884A,98.2672,39.7978,嘉峪关市,酒钢宾馆,,44,39,45,22,17,139,139,122,122,2,9,14,22,0.2,0.4
2026-06-01T1500,3248A,98.2644,39.7723,嘉峪关市,雄关区,,42,29,38,13,13,133,133,118,118,6,17,8,10,0.1,0.2
2026-06-01T1500,1383A,113.1063,22.6058,江门市,北街,,40,40,34,20,19,123,123,101,101,9,9,/,/,/,/
2026-06-01T1500,1384A,113.073,22.5835,江门市,西区,,40,37,35,21,19,126,126,106,106,8,9,/,/,/,/
2026-06-01T1500,1385A,113.0218,22.531,江门市,圭峰西,,44,44,41,19,21,118,118,102,102,7,10,/,/,/,/
2026-06-01T1500,1386A,113.0826,22.5947,江门市,东湖,,41,35,35,20,18,129,129,108,108,7,8,5,7,0.4,0.4
2026-06-01T1500,3311A,113.1077,22.5647,江门市,江海富民,,41,41,49,16,19,131,131,109,109,6,8,/,/,0.6,0.6
2026-06-01T1500,3449A,113.0496,22.4669,江门市,新会银湖,,38,38,38,14,20,106,106,102,102,8,13,2,2,0.6,0.6
2026-06-01T1500,3335A,113.3137,35.2643,焦作市,马村街道办,臭氧1小时(O3_1h),115,78,63,32,30,229,229,163,163,12,18,15,12,0.6,0.7
2026-06-01T1500,3336A,113.2464,35.2374,焦作市,焦作技师学院,臭氧1小时(O3_1h),110,71,57,41,29,220,220,163,163,16,22,16,14,0.5,0.6
2026-06-01T1500,3477A,113.1656,35.2536,焦作市,中站许衡医院,臭氧1小时(O3_1h),106,88,58,34,26,211,211,160,160,10,17,13,12,0.6,0.7
2026-06-01T1500,3981A,113.2456,35.18,焦作市,原李万街道办,臭氧1小时(O3_1h),104,53,56,26,25,207,207,153,153,12,21,13,11,0.6,0.6
2026-06-01T1500,4264A,113.234,35.219,焦作市,新安路1731号,臭氧1小时(O3_1h),115,68,63,35,29,230,230,166,166,15,22,17,14,0.7,0.7
2026-06-01T1500,4295A,113.2722,35.2121,焦作市,人民路3066号,臭氧1小时(O3_1h),101,59,64,31,27,202,202,149,149,9,21,12,9,0.5,0.5
2026-06-01T1500,1708A,116.3701,23.5345,揭阳市,新兴,颗粒物(PM10),53,53,45,25,22,143,143,132,132,7,9,7,7,0.8,0.7
2026-06-01T1500,1709A,116.3261,23.5442,揭阳市,西马,,42,39,44,22,20,134,134,131,131,7,10,5,5,0.7,0.6
2026-06-01T1500,1710A,116.361,23.5627,揭阳市,东兴,颗粒物(PM10),52,52,42,26,21,145,145,130,130,7,10,2,4,/,/
2026-06-01T1500,1711A,116.4151,23.5295,揭阳市,渔湖,,49,49,41,27,19,146,146,133,133,5,7,3,4,/,/
2026-06-01T1500,3320A,116.4028,23.5699,揭阳市,曲溪,臭氧1小时(O3_1h),63,49,41,28,20,170,170,141,141,15,10,5,6,0.8,0.8
2026-06-01T1500,1944A,102.1691,38.5166,金昌市,天庆家园,,43,29,45,3,15,135,135,118,118,7,14,11,14,0.3,0.4
2026-06-01T1500,4022A,102.1648,38.5369,金昌市,金川区人防中心,,45,NA,31,10,13,141,141,127,127,4,9,11,12,0.3,0.4
2026-06-01T1500,4239A,102.193042,38.531887,金昌市,长春路96号,,44,13,40,9,25,140,140,124,124,3,10,5,13,0.4,0.4
2026-06-01T1500,1262A,119.6478,29.0773,金华市,十五中,臭氧1小时(O3_1h),88,40,44,18,21,190,190,156,156,9,21,2,2,0.4,0.4
2026-06-01T1500,1263A,119.6859,29.1032,金华市,监测站,臭氧1小时(O3_1h),70,37,47,16,20,176,176,147,147,11,29,4,5,0.4,0.5
2026-06-01T1500,3659A,119.656,29.1132,金华市,气象局,臭氧1小时(O3_1h),97,44,44,19,21,197,197,156,156,12,27,4,4,0.1,0.2
2026-06-01T1500,1767A,121.1114,41.0879,锦州市,南山,臭氧1小时(O3_1h),83,84,65,26,27,186,186,181,181,12,16,6,7,0.7,0.6
2026-06-01T1500,1768A,121.060361,40.842794,锦州市,开发区,颗粒物(PM10),70,77,82,31,34,162,162,176,176,13,14,6,8,0.6,0.6
2026-06-01T1500,1769A,121.1836,41.1118,锦州市,百股街道,臭氧1小时(O3_1h),97,67,66,30,29,197,197,187,187,8,12,8,8,0.7,0.6
2026-06-01T1500,1770A,121.1176,41.1224,锦州市,天安街道,NA,NA,NA,70,29,27,190,190,180,180,13,16,7,7,0.5,0.9
2026-06-01T1500,1771A,121.1303,41.1385,锦州市,北湖公园,臭氧1小时(O3_1h),95,73,67,29,27,196,196,186,186,9,14,7,8,0.5,0.5
2026-06-01T1500,2160A,112.8496,35.5051,晋城市,自来水公司,臭氧1小时(O3_1h),103,68,58,19,14,205,205,162,162,16,19,9,9,0.3,0.7
2026-06-01T1500,2162A,112.8509,35.4886,晋城市,市环保局,臭氧1小时(O3_1h),101,54,53,15,16,201,201,166,166,9,18,9,9,0.5,0.7
2026-06-01T1500,3620A,112.8258,35.4804,晋城市,泽州一中,臭氧1小时(O3_1h),98,63,54,17,16,198,198,162,162,8,15,8,8,0.6,0.8
2026-06-01T1500,4078A,112.8246,35.5152,晋城市,前书院路,臭氧1小时(O3_1h),84,79,56,10,12,187,187,150,150,6,14,10,8,1.1,1.2
2026-06-01T1500,4079A,112.8864,35.4773,晋城市,祥云街666号,臭氧1小时(O3_1h),83,68,55,28,24,186,186,154,154,12,17,12,10,0.8,0.9
2026-06-01T1500,2174A,112.6992,37.6984,晋中市,榆次区政府,,50,41,87,10,27,160,160,126,126,7,18,8,10,0.4,0.6
2026-06-01T1500,2865A,112.7195,37.683,晋中市,榆次三中,,49,46,93,11,24,156,156,128,128,3,23,8,10,0,0.1
2026-06-01T1500,4080A,112.7375,37.7215,晋中市,广安街188号,臭氧1小时(O3_1h),60,49,108,6,27,168,168,135,135,5,29,8,10,0.1,0.3
2026-06-01T1500,4200A,112.7478,37.6954,晋中市,迎宾街26号,,50,36,86,11,24,157,157,128,128,6,20,7,9,0.1,0.2
2026-06-01T1500,2439A,112.2012,31.048,荆门市,竹园小学,臭氧1小时(O3_1h),55,52,56,35,34,164,164,138,138,8,12,4,4,0.7,0.7
2026-06-01T1500,2440A,112.1968,30.9892,荆门市,掇刀,臭氧1小时(O3_1h),57,46,53,32,35,165,165,138,138,6,11,13,10,0.5,0.7
2026-06-01T1500,3012A,112.1849,31.0361,荆门市,西山林语,,49,38,40,31,29,156,156,126,126,6,10,8,8,0.9,0.9
2026-06-01T1500,3547A,112.1631,31.0134,荆门市,龙泉中学南校,臭氧1小时(O3_1h),60,30,44,23,28,168,168,103,NA,5,6,6,7,0.6,0.5
2026-06-01T1500,4124A,112.2213,31.0654,荆门市,新台西路6号,臭氧1小时(O3_1h),69,51,58,36,40,175,175,138,138,9,17,14,12,0.6,0.6
2026-06-01T1500,1844A,112.2493,30.3198,荆州市,市图书馆,臭氧1小时(O3_1h),55,53,50,30,32,164,164,152,152,7,17,6,7,0.4,0.4
2026-06-01T1500,1845A,112.2009,30.3543,荆州市,市委党校,,45,38,49,24,32,144,144,125,125,7,13,8,9,0.5,0.6
2026-06-01T1500,3194A,112.2749,30.3124,荆州市,管委会,,48,40,49,33,33,152,152,137,137,8,14,10,10,0.6,0.6
2026-06-01T1500,4268A,112.1722,30.3366,荆州市,学苑路85号,,50,NA,43,27,33,159,159,133,133,3,19,5,4,0.4,0.5
2026-06-01T1500,2343A,117.2114,29.2931,景德镇市,老干部活动中心,细颗粒物(PM2.5),56,45,48,38,44,139,139,102,102,3,11,6,5,0.9,0.9
2026-06-01T1500,2344A,117.1893,29.2789,景德镇市,兽医站,细颗粒物(PM2.5),78,60,53,49,39,168,168,116,116,11,12,5,4,0.7,0.6
2026-06-01T1500,2346A,117.246,29.2958,景德镇市,陶研所,细颗粒物(PM2.5),56,41,42,38,35,126,126,93,93,7,14,4,4,0.9,0.7
2026-06-01T1500,4289A,117.154766,29.256967,景德镇市,青少年活动中心,细颗粒物(PM2.5),84,68,62,52,43,150,150,90,90,18,23,20,18,/,/
2026-06-01T1500,1803A,115.9873,29.6816,九江市,十里,臭氧1小时(O3_1h),93,90,78,51,45,194,194,171,171,14,23,4,4,1.2,1.2
2026-06-01T1500,1804A,115.9583,29.7047,九江市,茅山头,臭氧1小时(O3_1h),104,69,69,38,48,208,208,185,185,9,16,4,4,0.7,0.7
2026-06-01T1500,1805A,115.9877,29.7295,九江市,西园,臭氧1小时(O3_1h),92,65,65,27,50,193,193,162,162,12,44,5,6,0.9,1
2026-06-01T1500,1808A,115.9112,29.6038,九江市,综合工业园,臭氧1小时(O3_1h),115,57,60,31,43,229,229,197,197,15,23,6,7,0.8,0.9
2026-06-01T1500,3190A,116.0254,29.6995,九江市,外国语学校,臭氧1小时(O3_1h),103,66,56,48,44,205,205,170,170,11,20,10,10,0.8,0.8
2026-06-01T1500,4253A,116.010205,29.659402,九江市,莲花大道8号,细颗粒物(PM2.5),86,62,55,53,44,176,176,144,144,11,11,6,5,0.8,0.8
2026-06-01T1500,4240A,98.495752,39.733935,酒泉市,玉门东路5号,,48,17,39,3,14,151,151,122,122,3,11,6,8,0.2,0.3
2026-06-01T1500,4241A,98.5099,39.7506,酒泉市,北大街108号,NA,NA,NA,46,8,16,146,146,114,114,4,13,10,10,0.2,0.3
2026-06-01T1500,2698A,76.0071,39.466,喀什地区,巡警大队,颗粒物(PM10),80,92,141,38,60,131,131,76,76,7,30,5,6,0.3,0.4
2026-06-01T1500,2699A,75.9756,39.4693,喀什地区,吾办,颗粒物(PM10),83,96,123,41,54,128,128,82,82,6,17,11,10,0.2,0.4
2026-06-01T1500,4027A,75.9485,39.4688,喀什地区,老干局,颗粒物(PM10),82,94,119,27,38,129,129,83,83,4,17,4,4,0.2,0.3
2026-06-01T1500,1824A,114.3389,34.778,开封市,肿瘤医院,臭氧1小时(O3_1h),104,86,92,44,43,208,208,146,146,9,28,8,8,0.7,0.7
2026-06-01T1500,1826A,114.2884,34.7966,开封市,世纪星幼儿园,臭氧1小时(O3_1h),110,83,91,40,40,220,220,156,156,1,14,7,7,0.5,0.6
2026-06-01T1500,3147A,114.3434,34.8101,开封市,龙亭公园,臭氧1小时(O3_1h),112,110,104,38,35,224,224,168,168,9,19,9,8,0.7,0.8
2026-06-01T1500,3210A,114.3645,34.7955,开封市,汴京公园,臭氧1小时(O3_1h),112,65,74,42,38,224,224,160,160,10,27,9,9,0.6,0.6
2026-06-01T1500,3473A,114.2485,34.8306,开封市,技师学院,臭氧1小时(O3_1h),109,83,94,36,37,217,217,158,158,10,24,9,9,0.6,0.6
2026-06-01T1500,3592A,114.4518,34.7503,开封市,祥符区生态环境局,臭氧1小时(O3_1h),111,83,94,39,42,222,222,169,169,18,29,11,11,0.6,0.7
2026-06-01T1500,1951A,84.886,45.6029,克拉玛依市,长征新村,,40,36,22,3,6,128,128,99,91,5,10,4,4,0.2,0.3
2026-06-01T1500,1952A,84.8894,45.5827,克拉玛依市,南林小区,,39,31,35,3,7,122,122,81,81,3,15,3,4,0.1,0.2
2026-06-01T1500,1954A,84.896,44.3328,克拉玛依市,独山子区,,44,44,45,13,10,113,113,106,106,4,11,6,8,0.2,0.3
2026-06-01T1500,1955A,85.6888,46.0909,克拉玛依市,乌尔禾区商贸楼,,39,NA,30,19,13,122,122,77,77,5,12,7,6,0.1,0.1
2026-06-01T1500,3612A,85.1045,45.6895,克拉玛依市,白碱滩区新站,,41,21,18,3,6,130,130,100,100,7,9,11,11,0.1,0.1
2026-06-01T1500,2697A,76.1457,39.7143,克孜勒苏柯尔克孜自治州,市人民政府,颗粒物(PM10),83,95,132,37,50,133,133,100,100,1,8,6,8,0.1,0.1
2026-06-01T1500,3665A,76.1654,39.7157,克孜勒苏柯尔克孜自治州,克州文化中心,细颗粒物(PM2.5),109,94,132,69,55,137,137,102,102,3,10,5,6,0.2,0.2
2026-06-01T1500,1450A,102.8203,24.889,昆明市,呈贡新区,,31,17,17,8,10,98,98,80,80,3,14,2,7,0.5,0.7
2026-06-01T1500,1452A,102.7253,25.0904,昆明市,龙泉镇,,31,6,23,3,11,99,99,66,66,7,21,7,6,0.4,0.4
2026-06-01T1500,1453A,102.7267,25.0378,昆明市,东风东路,,34,15,18,9,10,107,107,73,73,10,18,3,2,0.3,0.3
2026-06-01T1500,1454A,102.6744,25.0671,昆明市,金鼎山,,34,24,23,14,12,108,108,71,71,7,14,6,5,0.5,0.5
2026-06-01T1500,1455A,102.6643,25.0401,昆明市,碧鸡广场,,31,NA,19,12,11,99,99,70,70,7,15,4,3,0.5,0.5
2026-06-01T1500,3179A,102.7491,25.012,昆明市,官渡区博物馆,,34,15,19,9,10,108,108,76,76,7,13,5,5,0.4,0.5
2026-06-01T1500,3375A,102.8016,24.8336,昆明市,青年创业园,,30,12,18,3,9,95,95,74,74,2,14,5,8,0.3,0.4
2026-06-01T1500,3550A,102.8,24.9787,昆明市,昆明学院,,32,14,16,3,6,102,102,73,73,6,10,5,5,0.5,0.6
2026-06-01T1500,3551A,102.5969,24.6738,昆明市,晋宁区生态环境分局,,26,13,18,3,10,83,83,70,70,2,5,4,4,0.3,0.4
2026-06-01T1500,3552A,102.6673,24.9861,昆明市,云天化总部,,33,6,15,6,8,104,104,73,73,8,18,5,5,0.4,0.4
2026-06-01T1500,1456A,91.132,29.6515,拉萨市,八廓街,,45,10,13,3,6,141,141,120,120,4,6,6,5,0.2,0.2
2026-06-01T1500,1457A,91.1221,29.6748,拉萨市,市环保局,,44,11,13,6,6,139,139,120,120,6,8,6,6,0.2,0.2
2026-06-01T1500,1458A,91.0874,29.6476,拉萨市,区监测站,,44,10,10,3,7,140,140,119,119,6,10,5,5,0.1,0.2
2026-06-01T1500,1459A,91.1774,29.6541,拉萨市,西藏大学,,44,8,11,3,6,139,139,116,116,7,9,6,5,0.2,0.2
2026-06-01T1500,1460A,90.9798,29.6586,拉萨市,区辐射站,,40,10,13,3,7,128,128,111,111,10,10,6,5,0.3,0.3
2026-06-01T1500,1461A,91.0831,29.6292,拉萨市,拉萨火车站,,45,20,11,6,6,142,142,122,122,5,5,3,4,0.2,0.3
2026-06-01T1500,2520A,109.2203,23.7252,来宾市,来宾技工学校,,48,37,38,33,23,139,139,113,113,3,16,7,9,0.6,0.7
2026-06-01T1500,3535A,109.1781,23.7293,来宾市,兴宾区政府,,45,32,36,26,21,142,142,105,105,5,23,6,10,0.6,0.7
2026-06-01T1500,4002A,109.2312,23.7428,来宾市,中南小学,,47,37,34,26,24,148,148,121,121,4,19,6,7,0.5,0.6
2026-06-01T1500,1479A,103.8309,36.0467,兰州市,铁路设计院,,49,27,67,19,29,155,155,106,106,10,25,6,9,0.5,0.7
2026-06-01T1500,3241A,103.7439,36.0841,兰州市,百合公园,,47,33,58,8,23,149,149,107,107,6,29,8,9,0.8,0.7
2026-06-01T1500,3242A,103.9613,35.9985,兰州市,和平,,49,33,62,22,26,155,155,113,113,3,10,10,12,0.3,0.4
2026-06-01T1500,4236A,103.629272,36.093822,兰州市,庄浪东路808号,,46,31,63,21,29,145,145,103,103,6,14,8,12,0.3,0.3
2026-06-01T1500,4237A,103.7251,36.104344,兰州市,安宁西路88号,,45,23,64,10,24,143,143,105,105,3,22,9,11,0.3,0.3
2026-06-01T1500,4238A,103.846982,36.067567,兰州市,北滨河东路1号,,48,35,55,16,24,152,152,99,99,12,40,12,13,0.3,0.4
2026-06-01T1500,1067A,116.6712,39.5109,廊坊市,药材公司,臭氧1小时(O3_1h),79,35,60,16,30,183,183,154,154,7,23,2,4,0.3,0.5
2026-06-01T1500,1068A,116.7215,39.5592,廊坊市,开发区,臭氧1小时(O3_1h),85,44,60,16,34,188,188,161,161,7,27,3,3,0.2,0.5
2026-06-01T1500,1070A,116.7246,39.5273,廊坊市,北华航天学院,臭氧1小时(O3_1h),87,51,65,13,29,189,189,171,171,4,26,1,3,0.2,0.5
2026-06-01T1500,2919A,116.7022,39.5454,廊坊市,河北工业大学,臭氧1小时(O3_1h),88,42,61,12,28,190,190,163,163,9,24,2,3,0.2,0.5
2026-06-01T1500,2536A,103.7629,29.5844,乐山市,牛耳桥,,46,42,50,22,35,146,146,NA,NA,13,18,6,8,0.6,0.7
2026-06-01T1500,2537A,103.7501,29.6002,乐山市,市第三水厂,,44,44,48,22,34,132,132,78,78,13,18,6,7,0.9,1
2026-06-01T1500,2538A,103.7571,29.5664,乐山市,市监测站,,49,41,50,19,33,156,156,90,90,9,14,4,6,0.9,1.1
2026-06-01T1500,3361A,103.7313,29.563,乐山市,理工大学,,50,41,47,20,35,160,160,91,91,10,15,3,4,0.7,0.8
2026-06-01T1500,2599A,100.2497,26.8802,丽江市,丽江古城,,25,12,13,6,7,80,80,64,64,8,8,11,8,0.5,0.5
2026-06-01T1500,2600A,100.2203,26.8906,丽江市,市中心,,24,14,10,3,6,74,74,62,62,5,6,5,5,0.4,0.5
2026-06-01T1500,1267A,119.9141,28.4513,丽水市,监测站大楼,,49,33,32,14,14,155,155,132,132,7,12,5,5,0.2,0.2
2026-06-01T1500,1268A,119.93,28.4589,丽水市,莲都小学,,50,36,31,13,14,160,160,137,137,5,11,/,/,/,/
2026-06-01T1500,1269A,119.8794,28.4232,丽水市,余庄前,,49,29,26,13,14,154,154,131,131,6,14,4,4,0.4,0.4
2026-06-01T1500,1173A,119.1759,34.5885,连云港市,市环境监测站,臭氧1小时(O3_1h),69,22,36,7,20,175,175,143,143,7,12,10,11,0.4,0.4
2026-06-01T1500,3000A,119.3577,34.6971,连云港市,德源药业,,50,44,45,22,20,160,160,130,130,14,14,7,6,0.6,0.6
2026-06-01T1500,3007A,119.178,34.8442,连云港市,新城一中,,50,48,48,20,21,160,160,128,128,12,20,6,5,0.5,0.5
2026-06-01T1500,3008A,119.3607,34.7519,连云港市,胡沟管理处,,45,34,24,14,14,143,143,134,134,25,15,15,13,0.5,0.4
2026-06-01T1500,3009A,119.1478,34.5913,连云港市,矿山设计院,臭氧1小时(O3_1h),63,31,43,12,18,170,170,137,137,5,10,5,6,0.2,0.2
2026-06-01T1500,3434A,119.2414,34.6539,连云港市,工贸学校,臭氧1小时(O3_1h),68,35,35,19,19,174,174,144,144,9,10,4,5,0.4,0.5
2026-06-01T1500,3664A,119.4171,34.734,连云港市,连云街道,,47,39,39,18,21,148,148,137,137,14,11,10,10,0.5,0.5
2026-06-01T1500,2573A,102.2629,27.8981,凉山彝族自治州,西昌市政府,,31,21,21,11,14,97,97,75,75,6,9,8,9,0.6,0.7
2026-06-01T1500,2574A,102.2686,27.885,凉山彝族自治州,凉山州政府,,28,23,22,11,13,88,88,70,70,7,9,5,6,0.6,0.7
2026-06-01T1500,4229A,102.2342,27.8859,凉山彝族自治州,凯乐南路30号,,27,17,20,11,13,84,84,70,70,9,11,5,8,0.5,0.7
2026-06-01T1500,2212A,123.1978,41.2036,辽阳市,宏伟区,,50,44,61,21,22,157,157,135,135,12,9,6,7,0.6,0.6
2026-06-01T1500,2213A,123.1684,41.2497,辽阳市,新华园,臭氧1小时(O3_1h),73,51,49,19,22,178,178,148,148,8,10,8,8,0.6,0.5
2026-06-01T1500,2214A,123.2355,41.2663,辽阳市,滨河路,,49,44,46,18,22,154,154,132,132,11,11,7,7,0.4,0.4
2026-06-01T1500,4083A,123.153,41.2874,辽阳市,铁西路150号,臭氧1小时(O3_1h),53,48,55,18,21,162,162,140,140,9,10,7,7,0.4,0.4
2026-06-01T1500,2227A,125.1359,42.8845,辽源市,环保局,,36,11,27,3,7,115,115,101,101,6,9,8,8,0.4,0.5
2026-06-01T1500,4085A,125.0998,42.9134,辽源市,安宁大街333号,,36,21,36,3,7,115,115,99,99,9,12,3,3,0.3,0.4
2026-06-01T1500,1625A,115.9789,36.4372,聊城市,区政府,臭氧1小时(O3_1h),98,85,92,20,28,198,198,176,176,2,10,8,10,0.4,0.4
2026-06-01T1500,3200A,115.9772,36.4986,聊城市,监控中心,臭氧1小时(O3_1h),100,84,102,30,30,200,200,163,163,7,12,9,11,0.3,0.4
2026-06-01T1500,3513A,116.0443,36.436,聊城市,九州社区,臭氧1小时(O3_1h),103,75,85,14,26,205,205,170,170,4,15,4,6,0.4,0.4
2026-06-01T1500,4018A,116.0564,36.4609,聊城市,星美广场,臭氧1小时(O3_1h),108,72,82,23,27,215,215,175,175,7,10,9,11,0.3,0.3
2026-06-01T1500,4113A,116.0091,36.4495,聊城市,利民路,臭氧1小时(O3_1h),107,58,64,19,26,214,214,173,173,3,12,10,11,0.3,0.3
2026-06-01T1500,2632A,94.3683,29.6373,林芝市,林芝监测站,,28,11,9,3,6,87,87,61,61,5,4,4,4,0.4,0.4
2026-06-01T1500,2633A,94.3616,29.6634,林芝市,林芝人民医院,,30,6,11,3,6,95,95,66,66,4,5,3,3,0.2,0.2
2026-06-01T1500,2603A,100.0779,23.8981,临沧市,市环保局,,19,13,19,10,13,60,60,44,44,6,8,6,7,0.6,0.6
2026-06-01T1500,2604A,100.0894,23.882,临沧市,市气象局,NA,NA,16,18,13,13,67,67,48,48,5,7,8,6,NA,1.4
2026-06-01T1500,1733A,111.5552,36.0791,临汾市,临钢医院,臭氧1小时(O3_1h),79,71,73,12,22,183,183,136,136,9,17,9,9,0.5,0.9
2026-06-01T1500,1734A,111.4984,36.0734,临汾市,技工学校,"颗粒物(PM10),臭氧1小时(O3_1h)",64,69,76,10,31,171,171,136,136,11,20,10,13,0.3,0.9
2026-06-01T1500,1736A,111.5017,36.0857,临汾市,市委,臭氧1小时(O3_1h),67,67,84,14,26,173,173,137,137,8,23,10,13,0.5,0.9
2026-06-01T1500,3018A,111.5048,36.1015,临汾市,唐尧大酒店,臭氧1小时(O3_1h),67,65,90,16,25,173,173,131,131,12,21,9,12,0.4,0.8
2026-06-01T1500,4244A,111.4879,36.053,临汾市,启星学校,臭氧1小时(O3_1h),57,45,72,14,30,165,165,134,134,10,22,8,10,0.3,0.9
2026-06-01T1500,4271A,103.2464,35.6123,临夏回族自治州,滨河东路1号,颗粒物(PM10),58,60,90,7,28,120,120,83,83,4,14,10,11,0.2,0.3
2026-06-01T1500,4310A,103.207136,35.599807,临夏回族自治州,新华街21号,NA,NA,NA,88,26,39,111,111,79,79,4,8,10,11,0.4,0.5
2026-06-01T1500,1618A,118.3429,35.0532,临沂市,沂河小区,臭氧1小时(O3_1h),106,58,66,31,29,211,211,169,169,15,22,16,22,0.2,0.3
2026-06-01T1500,1619A,118.2962,35.0568,临沂市,鲁南制药厂,臭氧1小时(O3_1h),110,58,67,15,28,219,219,174,174,20,24,16,22,0.1,0.4
2026-06-01T1500,1620A,118.2793,34.9976,临沂市,新光毛纺厂,臭氧1小时(O3_1h),106,48,68,13,30,212,212,169,169,11,24,14,20,0.3,0.4
2026-06-01T1500,1621A,118.3955,35.0889,临沂市,河东保险公司,臭氧1小时(O3_1h),111,41,56,15,25,222,222,170,170,12,19,12,20,0.2,0.2
2026-06-01T1500,3370A,118.3563,35.0215,临沂市,十里堡居委,臭氧1小时(O3_1h),108,48,65,15,26,216,216,169,169,15,22,17,26,0.4,0.5
2026-06-01T1500,3496A,118.359,35.1067,临沂市,南坊新区,臭氧1小时(O3_1h),107,53,67,14,28,214,214,162,162,10,18,16,22,0.3,0.3
2026-06-01T1500,3860A,118.3915,35.0297,临沂市,皇山花园小区,臭氧1小时(O3_1h),108,51,75,15,36,216,216,150,150,9,26,15,26,0.2,0.4
2026-06-01T1500,1870A,109.4854,24.3898,柳州市,柳东小学,,47,34,29,23,29,149,149,120,120,5,18,4,14,0.6,0.7
2026-06-01T1500,1871A,109.4109,24.3304,柳州市,环保监测站,,47,31,32,15,21,150,150,119,119,10,18,7,9,0.7,0.9
2026-06-01T1500,1872A,109.3886,24.3408,柳州市,河西水厂,臭氧1小时(O3_1h),54,32,41,23,26,163,163,120,120,8,20,7,10,0.7,0.8
2026-06-01T1500,1873A,109.4263,24.2951,柳州市,市四中,,49,45,39,19,23,154,154,122,122,7,17,7,9,0.7,0.9
2026-06-01T1500,1874A,109.396,24.3658,柳州市,市九中,,46,23,40,18,24,146,146,110,110,7,17,6,8,0.7,0.7
2026-06-01T1500,1875A,109.4912,24.3164,柳州市,古亭山,,44,37,30,16,19,140,140,115,115,5,19,4,4,0.6,0.7
2026-06-01T1500,3402A,109.5422,24.3994,柳州市,市二中,,49,44,36,18,23,154,154,123,123,5,21,7,25,0.6,0.7
2026-06-01T1500,2307A,116.5078,31.7369,六安市,监测大楼,臭氧1小时(O3_1h),85,48,50,35,43,188,188,152,152,7,13,4,4,0.5,0.5
2026-06-01T1500,2308A,116.4738,31.7642,六安市,皖西学院,臭氧1小时(O3_1h),85,58,55,35,40,188,188,148,148,4,10,6,6,0.4,0.4
2026-06-01T1500,2309A,116.4997,31.7904,六安市,朝阳厂,臭氧1小时(O3_1h),73,47,51,33,46,178,178,144,144,10,16,8,8,0.4,0.4
2026-06-01T1500,2310A,116.5566,31.7885,六安市,开发区,臭氧1小时(O3_1h),97,39,60,27,46,197,197,157,157,8,23,6,7,0.3,0.4
2026-06-01T1500,2577A,104.8293,26.592,六盘水市,黄土坡,,29,28,37,19,25,91,91,88,79,9,10,2,3,0.3,0.3
2026-06-01T1500,2579A,104.8481,26.5898,六盘水市,民中,,36,25,31,25,25,84,84,86,76,14,11,1,1,0.4,0.4
2026-06-01T1500,2580A,104.9541,26.5506,六盘水市,双水,,29,29,32,19,24,88,88,85,83,10,8,4,4,0.3,0.3
2026-06-01T1500,4151A,104.8899,26.5685,六盘水市,钟山大道中段564号,颗粒物(PM10),51,51,42,20,24,92,92,92,89,7,7,4,4,0.8,0.8
2026-06-01T1500,2336A,117.022,25.1031,龙岩市,龙岩市监测站,,33,33,30,20,24,83,83,73,73,3,9,6,7,0.4,0.5
2026-06-01T1500,2337A,117.0257,25.0662,龙岩市,闽西职业技术学院,,39,39,36,22,25,83,83,68,68,2,7,5,6,0.6,0.7
2026-06-01T1500,2338A,117.0195,25.0306,龙岩市,龙岩学院,,38,38,36,19,22,80,80,66,66,2,6,3,3,/,/
2026-06-01T1500,2885A,104.9344,33.3827,陇南市,滨江中学,颗粒物(PM10),63,68,58,21,22,119,119,64,64,4,16,4,4,0.5,0.6
2026-06-01T1500,3247A,104.9551,33.3709,陇南市,市总工会,NA,NA,NA,39,17,18,123,123,71,71,5,10,7,7,0.4,0.5
2026-06-01T1500,2488A,111.9984,27.7346,娄底市,市监测站,颗粒物(PM10),53,54,61,21,38,150,150,99,99,6,27,10,16,1.1,1.3
2026-06-01T1500,2491A,111.9888,27.7035,娄底市,市政府,,44,30,45,18,37,140,140,93,93,5,10,4,3,0.9,0.7
2026-06-01T1500,4127A,111.9812,27.7591,娄底市,涟钢职大,臭氧1小时(O3_1h),78,28,45,18,27,182,182,122,122,7,13,10,8,1.0,0.9
2026-06-01T1500,4128A,112.0303,27.7457,娄底市,娄底体校,臭氧1小时(O3_1h),79,42,51,20,37,183,183,129,129,6,12,7,6,0.9,0.8
2026-06-01T1500,1894A,105.4427,28.9063,泸州市,小市上码头,,32,20,37,8,17,100,100,76,76,9,15,5,6,0.3,0.4
2026-06-01T1500,1895A,105.4241,28.8573,泸州市,兰田宪桥,,33,33,51,17,28,104,104,68,68,14,20,4,4,0.4,0.5
2026-06-01T1500,1896A,105.4378,28.8833,泸州市,市环监站,,30,22,30,11,17,95,95,70,70,12,17,7,7,0.7,0.7
2026-06-01T1500,4272A,105.3689,28.7783,泸州市,纳溪中医医院,,32,31,52,21,37,102,102,54,54,12,17,6,6,0.6,0.7
2026-06-01T1500,2183A,111.1447,37.5212,吕梁市,环保局,,45,45,99,3,25,136,136,103,103,6,21,8,9,0.2,0.3
2026-06-01T1500,2185A,111.1285,37.5338,吕梁市,自来水公司,颗粒物(PM10),52,52,106,3,30,138,138,104,104,8,23,3,5,0.2,0.4
2026-06-01T1500,2867A,111.1225,37.5093,吕梁市,马茂庄小学,颗粒物(PM10),55,56,108,3,30,136,136,102,102,4,22,2,5,0.1,0.4
2026-06-01T1500,1812A,112.3934,34.6517,洛阳市,市委党校,臭氧1小时(O3_1h),104,64,48,21,22,208,208,151,151,11,16,12,9,0.6,0.5
2026-06-01T1500,1815A,112.494,34.6883,洛阳市,河南林校,臭氧1小时(O3_1h),110,63,51,20,21,219,219,163,163,11,17,15,12,0.7,0.6
2026-06-01T1500,1816A,112.3843,34.623,洛阳市,开发区管委会,臭氧1小时(O3_1h),110,60,42,22,21,219,219,159,159,6,13,12,10,0.5,0.4
2026-06-01T1500,1817A,112.4263,34.6249,洛阳市,市委新办公区,臭氧1小时(O3_1h),104,60,43,23,21,207,207,148,148,8,13,15,11,0.3,0.2
2026-06-01T1500,3340A,112.6005,34.6323,洛阳市,伊滨,臭氧1小时(O3_1h),102,60,47,25,21,204,204,149,149,9,12,13,12,0.6,0.5
2026-06-01T1500,3341A,112.495,34.6338,洛阳市,中移产业园,臭氧1小时(O3_1h),102,61,46,20,22,204,204,149,149,9,13,12,11,0.6,0.6
2026-06-01T1500,3593A,112.5736,34.8993,洛阳市,吉利监测站,臭氧1小时(O3_1h),117,77,46,28,19,233,233,160,160,8,10,14,9,0.4,0.3
2026-06-01T1500,3635A,112.3678,34.6623,洛阳市,河科大西苑校区,臭氧1小时(O3_1h),107,64,47,24,24,214,214,157,157,12,17,14,11,0.9,0.7
2026-06-01T1500,3636A,112.4387,34.678,洛阳市,英才小学,臭氧1小时(O3_1h),104,61,50,19,23,208,208,148,148,5,14,13,10,0.6,0.5
2026-06-01T1500,4214A,112.460027,34.694929,洛阳市,春都路1号院,臭氧1小时(O3_1h),108,66,50,28,25,215,215,157,157,9,15,11,9,0.4,0.3
2026-06-01T1500,2399A,114.051,33.5721,漯河市,三五一五工厂,臭氧1小时(O3_1h),113,89,74,32,33,225,225,186,186,11,19,6,6,0.4,0.5
2026-06-01T1500,2400A,114.0055,33.5698,漯河市,漯河大学,臭氧1小时(O3_1h),115,90,72,58,40,230,230,186,186,12,18,7,6,0.4,0.4
2026-06-01T1500,2401A,114.0134,33.5826,漯河市,市水利局,臭氧1小时(O3_1h),112,100,73,48,38,224,224,182,182,13,16,6,6,0.3,0.4
2026-06-01T1500,2402A,114.0261,33.5697,漯河市,市广电局,臭氧1小时(O3_1h),116,95,71,39,34,232,232,187,187,13,16,6,6,0.4,0.4
2026-06-01T1500,3478A,113.9691,33.568,漯河市,市图书馆,臭氧1小时(O3_1h),109,88,71,40,36,218,218,176,176,14,19,7,7,0.4,0.5
2026-06-01T1500,4250A,114.089259,33.588274,漯河市,韶山路11号,臭氧1小时(O3_1h),104,100,71,36,35,208,208,174,174,11,14,7,8,0.4,0.5
2026-06-01T1500,1798A,118.5084,31.6838,马鞍山市,湖东路四小,臭氧1小时(O3_1h),117,79,58,36,26,234,234,171,171,13,20,10,16,0.5,0.5
2026-06-01T1500,1799A,118.5019,31.6449,马鞍山市,开发区,臭氧1小时(O3_1h),117,73,74,33,34,234,234,170,170,10,21,11,15,0.7,0.7
2026-06-01T1500,3633A,118.4914,31.681,马鞍山市,雨山,臭氧1小时(O3_1h),119,70,59,42,30,237,237,182,182,12,20,9,16,NA,0.4
2026-06-01T1500,4191A,118.527362,31.722269,马鞍山市,慈湖高新区,臭氧1小时(O3_1h),105,60,51,32,26,209,209,158,158,16,24,6,12,0.5,0.4
2026-06-01T1500,1686A,111.0285,21.469,茂名市,电白南海,,26,17,22,9,11,82,82,83,79,5,6,5,5,0.9,0.9
2026-06-01T1500,1687A,110.9294,21.6533,茂名市,茂石化七小,,26,17,28,8,19,82,82,81,81,7,10,6,10,0.4,0.5
2026-06-01T1500,1688A,110.9108,21.6688,茂名市,健康路,,27,9,18,9,17,86,86,86,86,6,9,4,8,0.6,0.6
2026-06-01T1500,1689A,110.8592,21.6826,茂名市,高岭,,25,24,28,10,16,77,77,78,78,7,9,3,6,/,/
2026-06-01T1500,3450A,111.0101,21.5165,茂名市,电白水东,,26,NA,14,8,12,82,82,82,81,4,5,2,2,/,/
2026-06-01T1500,2540A,103.8414,30.0871,眉山市,气象局,细颗粒物(PM2.5),66,NA,59,43,43,171,171,81,81,19,35,10,10,0.8,0.8
2026-06-01T1500,3148A,103.829,30.0563,眉山市,区人社局,颗粒物(PM10),57,59,67,24,27,151,151,80,80,21,30,10,10,0.7,0.7
2026-06-01T1500,4148A,103.8836,30.0695,眉山市,眉职院,颗粒物(PM10),70,77,75,39,38,149,149,76,76,13,24,11,9,0.7,0.8
2026-06-01T1500,1690A,116.1248,24.3307,梅州市,梅江月梅,,38,38,39,21,30,106,106,100,100,6,10,/,/,/,/
2026-06-01T1500,1691A,116.0798,24.2719,梅州市,梅县新城,,36,35,38,25,30,102,102,100,100,6,12,8,10,0.5,0.6
2026-06-01T1500,3315A,116.1234,24.2994,梅州市,梅龙,,35,29,35,21,26,109,109,106,106,4,10,6,6,0.7,0.7
2026-06-01T1500,1878A,104.7775,31.4741,绵阳市,富乐山,,44,23,39,11,21,140,140,93,93,5,11,9,9,0.6,0.7
2026-06-01T1500,1880A,104.6698,31.4668,绵阳市,高新区自来水公司,,45,20,37,8,20,142,142,104,104,6,11,8,9,0.6,0.6
2026-06-01T1500,3491A,104.6899,31.5324,绵阳市,西科大附属小学,,43,21,39,12,20,135,135,91,91,6,15,5,5,0.5,0.6
2026-06-01T1500,3492A,104.5647,31.5343,绵阳市,安州区旅游局,,45,18,37,7,17,142,142,111,111,2,6,2,4,0.5,0.5
2026-06-01T1500,4146A,104.7092,31.4972,绵阳市,科技城新区公安局,,46,20,43,8,20,146,146,101,101,7,13,8,9,0.5,0.5
2026-06-01T1500,4226A,104.765114,31.453094,绵阳市,绵阳市气象局,,40,26,42,10,20,126,126,97,93,14,15,8,8,0.4,0.4
2026-06-01T1500,1784A,129.61,44.561,牡丹江市,环保大楼,,30,17,30,7,12,95,95,142,114,5,9,4,5,0.2,0.2
2026-06-01T1500,1787A,129.6364,44.6075,牡丹江市,机车工厂,,29,22,33,10,16,91,91,131,106,6,10,5,6,0.1,0.2
2026-06-01T1500,1788A,129.6386,44.5462,牡丹江市,第一中学,,30,26,32,3,13,94,94,140,112,4,8,6,7,0.2,0.3
2026-06-01T1500,4287A,129.5992,44.5964,牡丹江市,东晓云街98号,,30,19,38,8,15,95,95,139,111,3,8,4,5,0.2,0.2
2026-06-01T1500,2531A,105.0703,29.61,内江市,市监测站,,36,24,39,15,32,115,115,73,69,7,18,10,11,0.5,0.7
2026-06-01T1500,2533A,105.0657,29.5807,内江市,内江二中,,36,19,34,13,32,113,113,76,70,10,18,9,9,0.3,0.5
2026-06-01T1500,2534A,105.0407,29.5828,内江市,内江日报社,,36,23,35,14,31,114,114,78,78,11,21,12,13,0.5,0.6
2026-06-01T1500,4147A,105.0433,29.6105,内江市,玉峰路西段888号,,34,16,38,12,31,108,108,71,71,9,18,8,10,0.5,0.6
2026-06-01T1500,2628A,92.0653,31.4846,那曲市,那曲监测站,,41,18,23,3,12,130,130,99,99,6,11,5,6,0.3,0.5
2026-06-01T1500,4243A,92.0515,31.4787,那曲市,那曲市委宣传部,,42,7,15,3,8,132,132,94,94,5,10,6,6,0.3,0.4
2026-06-01T1500,1291A,115.8887,28.7006,南昌市,省林业公司,颗粒物(PM10),62,66,69,40,49,156,156,135,135,5,21,5,5,0.6,0.8
2026-06-01T1500,1292A,115.813,28.7443,南昌市,林科所,细颗粒物(PM2.5),62,61,60,41,48,164,164,137,137,3,14,8,8,0.8,0.8
2026-06-01T1500,1294A,115.8518,28.687,南昌市,建工学校,细颗粒物(PM2.5),60,60,64,40,49,158,158,124,124,3,15,8,9,0.9,0.9
2026-06-01T1500,1295A,115.8926,28.6425,南昌市,象湖,颗粒物(PM10),55,56,65,35,53,153,153,130,130,9,20,8,9,0.8,0.9
2026-06-01T1500,3046A,115.9084,28.6062,南昌市,机电学校,颗粒物(PM10),67,73,73,39,52,159,159,138,138,9,21,6,6,0.8,0.8
2026-06-01T1500,3690A,115.9718,28.7032,南昌市,外国语学校,颗粒物(PM10),58,60,68,33,52,143,143,120,120,2,13,11,12,0.8,0.8
2026-06-01T1500,4106A,115.7923,28.6873,南昌市,工业二路,颗粒物(PM10),69,76,77,44,61,162,162,126,126,4,16,6,6,0.8,0.9
2026-06-01T1500,4192A,115.931587,28.686774,南昌市,南京东路235号,颗粒物(PM10),52,52,56,35,51,159,159,135,135,8,19,5,6,1.0,1.1
2026-06-01T1500,1906A,106.0791,30.8022,南充市,南充市委,,25,24,32,15,20,78,78,62,62,10,17,6,6,0.2,0.3
2026-06-01T1500,1907A,106.1038,30.8215,南充市,南充炼油厂,,27,26,36,17,20,85,85,67,67,12,17,7,7,0.3,0.4
2026-06-01T1500,4227A,106.108336,30.788436,南充市,梨树横街98号,,27,23,34,14,21,84,84,64,64,9,18,7,9,0.1,0.3
2026-06-01T1500,4304A,106.1172,30.843,南充市,清泉寺北路188号,,32,32,35,17,20,79,79,65,65,10,15,8,8,0.3,0.4
2026-06-01T1500,4305A,106.067,30.7616,南充市,同庆路1号,,26,23,32,15,21,82,82,64,64,8,16,7,7,0.2,0.4
2026-06-01T1500,1151A,118.8033,32.1085,南京市,迈皋桥,臭氧1小时(O3_1h),118,32,35,20,17,236,236,192,192,9,13,6,7,0.5,0.4
2026-06-01T1500,1152A,118.7487,32.057,南京市,草场门,臭氧1小时(O3_1h),119,44,42,24,17,237,237,197,197,13,16,5,6,0.5,0.4
2026-06-01T1500,1154A,118.770105,32.004342,南京市,中华门,臭氧1小时(O3_1h),107,41,41,19,14,214,214,175,175,4,7,6,6,0.5,0.3
2026-06-01T1500,1155A,118.8059,32.0329,南京市,瑞金路,臭氧1小时(O3_1h),106,41,40,16,16,211,211,170,170,9,14,4,4,0.5,0.4
2026-06-01T1500,1156A,118.7946,32.0774,南京市,玄武湖,臭氧1小时(O3_1h),101,43,39,17,13,201,201,164,164,11,15,4,7,0.4,0.4
2026-06-01T1500,1157A,118.6415,32.0964,南京市,浦口,臭氧1小时(O3_1h),103,47,42,18,16,206,206,174,174,13,22,4,6,0.4,0.4
2026-06-01T1500,1158A,118.730129,32.000956,南京市,奥体中心,臭氧1小时(O3_1h),111,52,50,20,16,222,222,178,178,13,19,7,8,0.1,0.1
2026-06-01T1500,1159A,118.9072,32.1047,南京市,仙林大学城,臭氧1小时(O3_1h),107,46,43,18,15,213,213,176,176,6,12,6,6,0.5,0.6
2026-06-01T1500,3422A,118.8443,31.919,南京市,江宁彩虹桥,臭氧1小时(O3_1h),88,50,49,17,16,190,190,160,160,4,12,3,5,0.5,0.5
2026-06-01T1500,3427A,118.8497,32.3599,南京市,六合雄州,臭氧1小时(O3_1h),116,50,47,22,19,232,232,166,166,20,31,3,4,0.6,0.6
2026-06-01T1500,4086A,118.7641,32.0841,南京市,新模范马路66号,臭氧1小时(O3_1h),115,48,39,18,12,230,230,193,193,5,6,3,4,0.5,0.4
2026-06-01T1500,4249A,118.8707617,31.34017673,南京市,汶溪路181号,臭氧1小时(O3_1h),94,34,41,24,19,195,195,174,174,8,20,6,9,0.6,0.4
2026-06-01T1500,4312A,119.019,31.6512,南京市,中山西路1号,臭氧1小时(O3_1h),75,48,44,23,17,180,180,136,136,13,21,4,4,0.5,0.3
2026-06-01T1500,1401A,108.3098,22.788,南宁市,二十一中,,35,19,31,18,24,110,110,98,98,5,9,2,2,0.6,0.7
2026-06-01T1500,1402A,108.3135,22.8529,南宁市,北湖,,39,38,30,8,20,122,122,105,105,8,10,3,3,0.9,1.1
2026-06-01T1500,1403A,108.3205,22.8222,南宁市,市监测站,,41,36,35,17,22,131,131,116,116,3,6,4,4,0.7,0.8
2026-06-01T1500,1404A,108.3828,22.8038,南宁市,大自然花园,,40,19,30,13,23,128,128,105,105,6,8,4,4,0.9,1
2026-06-01T1500,1406A,108.2397,22.8462,南宁市,区农职院,,40,34,38,18,21,125,125,106,106,4,10,3,3,0.6,0.8
2026-06-01T1500,1407A,108.3285,22.7356,南宁市,英华嘉园,,38,31,35,13,24,121,121,102,102,5,12,4,4,0.6,0.8
2026-06-01T1500,3401A,108.4829,22.762,南宁市,红星社区,,40,24,31,14,23,126,126,100,100,4,9,6,7,0.4,0.5
2026-06-01T1500,4132A,108.2927,23.1477,南宁市,起凤路9号,臭氧1小时(O3_1h),57,44,40,30,28,165,165,130,130,11,15,5,6,0.7,0.9
2026-06-01T1500,4221A,108.2177,22.7774,南宁市,乐贤路16号,,40,32,37,18,24,126,126,108,108,7,17,4,5,0.6,0.7
2026-06-01T1500,2332A,118.1682,26.6371,南平市,南平市监测站,,34,31,34,18,22,107,107,109,109,4,9,5,6,0.6,0.6
2026-06-01T1500,2334A,118.1757,26.6276,南平市,南平七中,,46,46,36,17,20,106,106,104,104,5,9,5,4,0.5,0.6
2026-06-01T1500,1168A,120.9056,31.9669,南通市,狼山街道,,49,26,30,8,19,156,156,118,118,12,11,6,6,0.6,0.6
2026-06-01T1500,1170A,120.8635,32.0231,南通市,城中,,45,29,40,3,19,144,144,115,115,12,13,8,8,0.3,0.5
2026-06-01T1500,1171A,120.9376,31.9301,南通市,星湖花园,NA,NA,NA,34,9,18,156,156,114,114,NA,11,6,6,0.5,0.6
2026-06-01T1500,1172A,120.8053,32.046,南通市,紫琅学院,,49,28,28,8,18,156,156,114,114,11,12,8,8,0.7,0.7
2026-06-01T1500,3291A,121.0631,32.0644,南通市,通州监测站,颗粒物(PM10),53,53,44,17,29,125,125,111,111,4,7,9,7,0.9,0.6
2026-06-01T1500,3432A,120.9348,31.9874,南通市,环境教育馆,,45,29,43,9,21,142,142,110,110,8,16,6,7,0.4,0.5
2026-06-01T1500,4091A,120.8692,31.9885,南通市,洪江路,,47,41,33,14,21,149,149,116,116,23,9,9,5,0.7,0.7
2026-06-01T1500,2404A,112.5338,33.0086,南阳市,瓦房庄,臭氧1小时(O3_1h),67,63,160,23,150,173,173,170,170,6,22,9,9,0.8,1
2026-06-01T1500,2405A,112.5002,32.9734,南阳市,汉画馆,颗粒物(PM10),69,76,205,19,163,159,159,138,138,14,34,9,9,0.6,0.8
2026-06-01T1500,2406A,112.5778,33.0144,南阳市,气象站,颗粒物(PM10),60,64,170,18,118,164,164,152,152,11,23,10,10,0.3,0.6
2026-06-01T1500,2407A,112.548,32.9687,南阳市,理工学院,臭氧1小时(O3_1h),64,67,161,23,143,171,171,152,152,9,30,11,10,0.5,0.7
2026-06-01T1500,4008A,112.5233,32.9921,南阳市,卧龙区政府,,50,33,208,28,164,160,160,151,151,16,26,10,9,0.8,0.9
2026-06-01T1500,1234A,121.8352,29.9111,宁波市,区环保大楼,臭氧1小时(O3_1h),54,53,46,26,21,163,163,120,120,22,41,11,10,0.4,0.4
2026-06-01T1500,1235A,121.5595,29.8208,宁波市,万里学院,臭氧1小时(O3_1h),118,62,33,37,17,235,235,143,143,17,16,17,8,0.7,0.6
2026-06-01T1500,1236A,121.713,29.9564,宁波市,龙赛医院,颗粒物(PM10),68,75,54,29,23,136,136,125,125,13,28,12,11,0.5,0.5
2026-06-01T1500,1240A,121.5855,29.8635,宁波市,太古小学,臭氧1小时(O3_1h),103,69,40,39,19,206,206,136,136,17,16,10,6,0.4,0.1
2026-06-01T1500,1241A,121.5239,29.8673,宁波市,市环境监测中心,臭氧1小时(O3_1h),122,58,37,45,19,244,244,141,141,17,20,17,12,0.6,0.4
2026-06-01T1500,2871A,121.6156,29.9015,宁波市,万里国际学校,臭氧1小时(O3_1h),103,44,34,30,18,206,206,152,152,14,14,12,8,0.4,0.3
2026-06-01T1500,3710A,121.5593,29.8976,宁波市,白沙活动中心,臭氧1小时(O3_1h),120,NA,27,46,20,240,240,156,156,20,17,15,9,0.6,0.4
2026-06-01T1500,4095A,121.8962,29.7529,宁波市,中科路88号,,38,37,34,23,20,121,121,118,118,8,21,7,10,0.3,0.3
2026-06-01T1500,2341A,119.5387,26.6611,宁德市,宁德市监测站,,45,43,24,18,11,142,142,127,127,9,12,4,5,0.5,0.5
2026-06-01T1500,3209A,119.5231,26.6562,宁德市,宁德一中,,45,16,18,15,12,144,144,132,132,6,8,8,8,0.6,0.6
2026-06-01T1500,2618A,98.859,25.8541,怒江傈僳族自治州,州监测站,,25,15,19,8,12,80,80,54,54,7,10,5,4,0.4,0.4
2026-06-01T1500,2619A,98.8607,25.8168,怒江傈僳族自治州,泸水一中,,22,13,23,9,15,69,69,45,45,7,10,4,4,0.5,0.6
2026-06-01T1500,1888A,101.6891,26.571,攀枝花市,弄弄坪,NA,NA,15,19,3,4,86,86,79,79,4,7,1,3,NA,0.3
2026-06-01T1500,1889A,101.577,26.5914,攀枝花市,河门口,,30,14,19,8,9,93,93,82,82,5,11,7,16,0.6,1.1
2026-06-01T1500,1891A,101.7365,26.4986,攀枝花市,仁和,,25,9,12,6,6,79,79,63,63,3,6,5,6,0.3,0.4
2026-06-01T1500,2835A,101.7222,26.567,攀枝花市,四十中小,,26,16,25,6,5,83,83,75,75,4,5,8,9,0.5,0.6
2026-06-01T1500,1604A,122.0303,41.1489,盘锦市,开发区,臭氧1小时(O3_1h),104,61,52,24,24,208,208,181,181,10,10,8,8,0.3,0.4
2026-06-01T1500,1605A,122.0486,41.0883,盘锦市,兴隆台,臭氧1小时(O3_1h),78,59,51,36,32,182,182,161,161,11,13,9,8,0.5,0.6
2026-06-01T1500,1606A,121.8297,41.1026,盘锦市,新生街道,臭氧1小时(O3_1h),68,48,44,33,36,174,174,153,153,12,12,9,9,0.5,0.5
2026-06-01T1500,1832A,113.3257,33.7423,平顶山市,新华旅馆,臭氧1小时(O3_1h),106,52,81,29,44,212,212,160,160,9,15,6,4,0.6,0.6
2026-06-01T1500,1833A,113.2917,33.737,平顶山市,规划设计院,臭氧1小时(O3_1h),100,54,82,26,45,200,200,154,154,9,14,12,9,0.5,0.5
2026-06-01T1500,1834A,113.182,33.7738,平顶山市,平顶山工学院,NA,NA,NA,64,NA,37,195,195,147,147,8,14,9,6,0.5,0.5
2026-06-01T1500,3594A,112.8736,33.9068,平顶山市,石龙区,臭氧1小时(O3_1h),102,82,81,33,36,204,204,141,141,9,25,16,12,0.4,0.4
2026-06-01T1500,4116A,113.284,33.7139,平顶山市,姚电大道23号,臭氧1小时(O3_1h),105,40,90,18,45,210,210,159,159,6,16,9,8,0.5,0.6
2026-06-01T1500,2656A,106.6633,35.5338,平凉市,聚贤嘉苑,颗粒物(PM10),76,86,79,26,25,143,143,115,115,7,14,10,9,0.5,0.5
2026-06-01T1500,2657A,106.7021,35.5307,平凉市,博物馆,颗粒物(PM10),68,75,69,18,24,149,149,118,118,6,13,11,10,0.4,0.4
2026-06-01T1500,2348A,113.8384,27.6436,萍乡市,中医院,,45,41,55,23,35,141,141,107,107,9,16,7,8,0.6,1
2026-06-01T1500,2350A,113.8677,27.6438,萍乡市,市环保局,,42,NA,52,29,40,134,134,103,103,4,10,11,10,0.9,1.1
2026-06-01T1500,2351A,113.8663,27.6202,萍乡市,安源区政府,,43,35,56,28,38,136,136,103,103,4,11,7,8,0.5,0.7
2026-06-01T1500,4107A,113.8686,27.6668,萍乡市,联洪村委会,,44,44,57,26,39,115,115,86,86,4,12,6,8,0.8,0.9
2026-06-01T1500,2319A,119.0142,25.4324,莆田市,荔城区仓后路,臭氧1小时(O3_1h),75,26,30,12,15,180,180,145,145,9,10,/,/,/,/
2026-06-01T1500,2320A,119.0016,25.4553,莆田市,莆田市监测站,臭氧1小时(O3_1h),70,34,26,7,12,176,176,146,146,11,5,4,3,0.6,0.6
2026-06-01T1500,2321A,119.112,25.4561,莆田市,涵江区六中,臭氧1小时(O3_1h),72,28,28,14,12,177,177,142,142,10,11,/,/,0.8,0.6
2026-06-01T1500,2322A,119.1014,25.3215,莆田市,秀屿区政府,臭氧1小时(O3_1h),70,33,27,20,13,176,176,139,139,10,10,7,6,0.5,0.5
2026-06-01T1500,2392A,115.0312,35.7636,濮阳市,环保局,臭氧1小时(O3_1h),94,62,66,20,20,195,195,145,145,4,10,5,5,0.8,0.8
2026-06-01T1500,3021A,115,35.7667,濮阳市,濮水河管理处,臭氧1小时(O3_1h),65,53,61,34,26,172,172,124,124,11,15,5,6,0.5,0.6
2026-06-01T1500,4118A,115.0552,35.7816,濮阳市,中原东路68号,臭氧1小时(O3_1h),99,64,72,22,20,199,199,147,147,9,13,4,5,0.8,0.8
2026-06-01T1500,4216A,115.0923632,35.76857718,濮阳市,任丘路479号,臭氧1小时(O3_1h),102,66,76,24,28,204,204,145,145,5,14,4,4,0.4,0.4
2026-06-01T1500,2601A,100.9801,22.7634,普洱市,市环保局,,23,23,35,8,15,53,53,45,45,3,8,5,5,0.7,0.8
2026-06-01T1500,2602A,100.9763,22.8237,普洱市,普洱第二中学,,26,26,42,11,13,67,67,53,53,4,11,6,6,0.5,0.7
2026-06-01T1500,3345A,131.0413,45.7795,七台河市,中波台,,48,48,74,10,22,93,93,119,107,5,10,3,4,0.5,0.5
2026-06-01T1500,3637A,131.0136,45.7688,七台河市,人民广场,,35,35,65,6,12,97,97,123,108,7,10,4,5,0.3,0.4
2026-06-01T1500,3684A,130.8639,45.8144,七台河市,新建矿广场,,29,27,81,7,18,90,90,103,98,11,15,4,5,0,0.2
2026-06-01T1500,1779A,123.9307,47.3641,齐齐哈尔市,安居小区,,22,14,50,3,8,69,69,65,65,2,2,3,3,0.2,0.2
2026-06-01T1500,1780A,123.9497,47.3389,齐齐哈尔市,中心广场,,21,NA,55,3,8,67,67,63,63,9,8,4,4,0.4,0.4
2026-06-01T1500,1781A,123.9483,47.3229,齐齐哈尔市,农牧车辆厂,,23,22,60,3,8,72,72,69,69,4,4,8,8,0.4,0.4
2026-06-01T1500,1783A,123.9442,47.2994,齐齐哈尔市,市环境监测站,,22,21,66,3,7,69,69,66,66,5,4,2,2,0.4,0.4
2026-06-01T1500,3662A,123.6341,47.2079,齐齐哈尔市,富区青少年活动中心,细颗粒物(PM2.5),104,NA,72,64,18,70,70,71,70,NA,14,4,10,0.3,0.6
2026-06-01T1500,2591A,107.9765,26.5724,黔东南苗族侗族自治州,市环境监测站,,32,32,32,22,21,48,48,41,41,8,12,3,3,0.5,0.5
2026-06-01T1500,2881A,107.8909,26.531,黔东南苗族侗族自治州,凯里学院,,29,27,26,20,19,44,44,42,42,11,8,3,3,0.6,0.5
2026-06-01T1500,2593A,107.5223,26.2371,黔南布依族苗族自治州,小围寨,,23,19,18,16,14,65,65,62,59,9,6,6,6,0.9,0.8
2026-06-01T1500,3538A,107.5175,26.2977,黔南布依族苗族自治州,沙坝,,21,12,23,8,16,65,65,47,47,6,7,3,4,1.0,0.9
2026-06-01T1500,2589A,104.9022,25.0943,黔西南布依族苗族自治州,场坝街,,30,10,20,10,12,95,95,84,84,4,5,6,6,0.4,0.4
2026-06-01T1500,2590A,104.8812,25.0994,黔西南布依族苗族自治州,坪东大道,,29,NA,19,12,14,90,90,79,79,3,5,5,5,0.3,0.3
2026-06-01T1500,2502A,108.6238,21.9667,钦州市,市环保站,,37,29,30,14,18,117,117,102,102,6,9,2,2,0.8,0.8
2026-06-01T1500,2503A,108.655,21.9481,钦州市,沙埠小学,,42,33,39,18,24,133,133,111,111,4,14,4,4,0.6,0.7
2026-06-01T1500,2504A,108.5989,21.7435,钦州市,港区一小,,44,44,42,18,21,86,86,81,81,5,12,3,4,0.6,0.7
2026-06-01T1500,3404A,108.5959,21.9634,钦州市,北职校,,38,28,32,16,19,120,120,94,94,5,9,4,4,0.6,0.6
2026-06-01T1500,1046A,119.5247,39.9346,秦皇岛市,建设大厦,臭氧1小时(O3_1h),80,78,70,23,25,184,184,129,129,4,10,7,7,0.4,0.4
2026-06-01T1500,3132A,119.5979,39.938,秦皇岛市,文明里,臭氧1小时(O3_1h),82,80,78,30,27,185,185,136,136,14,13,8,7,0.4,0.3
2026-06-01T1500,4066A,119.7458,39.9952,秦皇岛市,南园路157号,颗粒物(PM10),70,77,73,27,27,173,173,128,128,16,17,9,9,0.4,0.3
2026-06-01T1500,4067A,119.5131,39.8858,秦皇岛市,翠岛大街1号,臭氧1小时(O3_1h),69,47,60,35,25,175,175,124,124,7,10,12,11,0.5,0.3
2026-06-01T1500,4198A,119.509013,39.825305,秦皇岛市,北戴河轮滑馆,臭氧1小时(O3_1h),89,79,71,38,28,191,191,132,132,10,10,9,9,0.5,0.4
2026-06-01T1500,1310A,120.404,36.0625,青岛市,市南区东部子站,,43,19,30,9,12,135,135,126,126,5,8,6,6,0.3,0.3
2026-06-01T1500,1311A,120.362344,36.10282,青岛市,四方区子站,,46,14,28,9,12,146,146,144,144,8,9,8,8,0.6,0.6
2026-06-01T1500,1312A,120.294373,36.054183,青岛市,市南区西部子站,,38,17,30,8,9,121,121,115,115,17,16,6,5,0.7,0.7
2026-06-01T1500,1313A,120.4581,36.0858,青岛市,崂山区子站,,48,17,29,10,11,151,151,139,139,10,12,8,7,0.3,0.3
2026-06-01T1500,1315A,120.3945,36.3083,青岛市,城阳区子站,,49,39,35,12,15,156,156,146,146,18,16,8,8,0.4,0.4
2026-06-01T1500,3642A,120.3454,36.0735,青岛市,市北区南部,,47,35,37,9,11,150,150,148,148,2,5,4,4,0.7,0.7
2026-06-01T1500,3643A,120.3897,36.18,青岛市,李沧区北部,,41,22,29,7,12,129,129,128,128,11,11,11,11,0.4,0.5
2026-06-01T1500,4110A,120.5222,36.4089,青岛市,盟旺路653号,臭氧1小时(O3_1h),69,33,33,11,14,175,175,159,159,9,8,8,7,0.5,0.5
2026-06-01T1500,4290A,120.196923,35.954556,青岛市,珠江路669号,,41,24,29,13,11,131,131,135,135,15,11,5,5,0.5,0.5
2026-06-01T1500,4291A,120.0424,35.8656,青岛市,黄岛区人民政府广场,,42,24,32,9,12,134,134,134,134,8,10,10,10,0.5,0.5
2026-06-01T1500,1703A,113.0218,23.7086,清远市,凤城街办,,29,20,35,16,22,90,90,87,87,6,13,/,/,/,/
2026-06-01T1500,3025A,113.0479,23.6343,清远市,技师学院,,30,15,34,11,23,95,95,107,107,10,13,4,6,0.4,0.5
2026-06-01T1500,3318A,112.9898,23.7403,清远市,清新太和,,40,40,40,25,29,98,98,98,98,10,12,8,9,0.5,0.5
2026-06-01T1500,3455A,113.076,23.72,清远市,清城东城,,32,30,40,16,28,100,100,92,92,7,13,/,/,/,/
2026-06-01T1500,2661A,107.6325,35.7357,庆阳市,庆阳五中,颗粒物(PM10),90,105,85,34,26,134,134,101,101,8,12,6,5,0.3,0.3
2026-06-01T1500,2662A,107.6361,35.7067,庆阳市,市环保局,颗粒物(PM10),75,85,84,31,26,135,135,101,101,10,14,6,6,0.4,0.4
2026-06-01T1500,1916A,103.7897,25.5036,曲靖市,环境监测站,,33,16,18,9,9,105,105,74,74,6,9,5,5,0.3,0.4
2026-06-01T1500,1917A,103.8013,25.5357,曲靖市,烟厂办公区,,32,NA,16,9,8,100,100,72,72,6,8,4,4,0.3,0.5
2026-06-01T1500,3376A,103.7926,25.4651,曲靖市,南苑二区,,32,11,11,10,7,100,100,71,71,6,6,4,4,0.5,0.5
2026-06-01T1500,3377A,103.7442,25.5259,曲靖市,曲靖师范学院,,33,NA,18,11,14,103,103,73,73,6,11,4,5,0.4,0.5
2026-06-01T1500,1264A,118.8694,28.94,衢州市,环保大楼,臭氧1小时(O3_1h),72,38,52,22,30,177,177,144,144,11,22,/,/,/,/
2026-06-01T1500,1266A,118.8622,28.9809,衢州市,衢州学院,臭氧1小时(O3_1h),60,31,47,19,29,168,168,137,137,11,22,7,8,0.4,0.5
2026-06-01T1500,4097A,118.9646,28.9832,衢州市,衢州三中,臭氧1小时(O3_1h),72,32,48,19,29,177,177,142,142,10,26,6,6,0.4,0.5
2026-06-01T1500,1611A,118.5818,24.9116,泉州市,涂山街,臭氧1小时(O3_1h),99,38,33,16,17,199,199,158,158,13,12,5,5,0.5,0.5
2026-06-01T1500,1612A,118.597,24.8976,泉州市,津头埔,臭氧1小时(O3_1h),101,45,35,15,17,201,201,158,158,11,12,4,3,0.5,0.5
2026-06-01T1500,1613A,118.6669,24.9422,泉州市,万安,臭氧1小时(O3_1h),75,54,36,15,17,180,180,156,156,12,11,5,5,0.5,0.5
2026-06-01T1500,4105A,118.6355,24.9148,泉州市,霞新路6号,臭氧1小时(O3_1h),87,26,32,17,16,189,189,158,158,13,18,/,/,0.4,0.5
2026-06-01T1500,2626A,88.8873,29.2723,日喀则市,日喀则监测站,,46,6,11,3,4,147,147,124,124,3,4,6,5,0.5,0.5
2026-06-01T1500,3726A,88.8775,29.2425,日喀则市,林业技术推广中心,,43,6,13,3,1,136,136,116,116,2,2,6,6,0.3,0.3
2026-06-01T1500,1659A,119.4711,35.421,日照市,监测站,臭氧1小时(O3_1h),60,44,47,16,17,168,168,126,126,24,24,13,12,0.5,0.6
2026-06-01T1500,1660A,119.523,35.4216,日照市,市政府广场,臭氧1小时(O3_1h),67,46,46,19,16,173,173,136,136,17,23,7,7,0.7,0.7
2026-06-01T1500,1661A,119.5511,35.4113,日照市,港务局,,50,34,47,19,17,159,159,135,135,11,18,8,7,0.7,0.8
2026-06-01T1500,3507A,119.5326,35.4627,日照市,职业技术学院,臭氧1小时(O3_1h),73,34,43,21,16,178,178,139,139,20,22,10,9,0.6,0.6
2026-06-01T1500,3604A,119.3267,35.1043,日照市,岚山环保分局,臭氧1小时(O3_1h),62,53,52,23,18,169,169,143,143,21,19,14,12,0.6,0.6
2026-06-01T1500,1835A,111.1922,34.7752,三门峡市,市政府,臭氧1小时(O3_1h),75,68,48,28,23,180,180,120,120,11,26,15,12,0.4,0.3
2026-06-01T1500,1836A,111.1588,34.794,三门峡市,开发区,臭氧1小时(O3_1h),75,59,49,32,26,180,180,131,131,14,17,14,10,0.5,0.4
2026-06-01T1500,3039A,111.1911,34.7829,三门峡市,三门峡市第一小学,"颗粒物(PM10),臭氧1小时(O3_1h)",78,88,53,22,25,182,182,122,122,14,28,16,12,0.3,0.3
2026-06-01T1500,3598A,111.1031,34.719,三门峡市,富达温泉假日酒店,颗粒物(PM10),73,82,67,26,34,177,177,118,118,20,26,19,16,0.7,0.7
2026-06-01T1500,2324A,117.621,26.2626,三明市,三钢,,45,45,39,27,28,124,124,90,90,9,13,10,7,1.3,0.8
2026-06-01T1500,2325A,117.6352,26.2714,三明市,三明二中,,43,43,44,30,28,122,122,92,92,8,11,6,4,1.3,0.8
2026-06-01T1500,2326A,117.6028,26.2377,三明市,三元区政府,,50,48,39,35,28,112,112,85,85,6,11,6,5,0.9,1
2026-06-01T1500,1877A,109.4962,18.2682,三亚市,河西子站,,17,10,15,9,11,52,52,53,53,1,4,4,4,0.5,0.5
2026-06-01T1500,3540A,109.7348,18.3443,三亚市,君悦子站,,15,12,16,3,9,45,45,42,42,4,8,2,1,0.4,0.4
2026-06-01T1500,4135A,109.1714,18.3739,三亚市,城东小学站,,30,30,24,10,13,46,46,44,44,4,6,/,/,/,/
2026-06-01T1500,2624A,91.7592,29.234,山南市,山南监测站,,29,6,8,3,3,90,90,90,85,2,3,7,7,0.2,0.2
2026-06-01T1500,2625A,91.7701,29.2436,山南市,山南人民医院,,45,6,11,3,3,141,141,116,116,2,2,4,5,0.2,0.2
2026-06-01T1500,1674A,116.6795,23.3666,汕头市,金平子站,臭氧1小时(O3_1h),69,36,35,22,16,175,175,154,154,9,9,4,4,0.6,0.6
2026-06-01T1500,1675A,116.7248,23.3632,汕头市,龙湖子站,,50,48,36,18,17,157,157,139,139,6,6,8,7,/,/
2026-06-01T1500,1676A,116.7257,23.2774,汕头市,濠江子站,,50,35,36,17,15,160,160,136,136,8,10,9,8,/,/
2026-06-01T1500,1677A,116.7518,23.4712,汕头市,澄海子站,臭氧1小时(O3_1h),63,45,39,19,18,170,170,160,160,8,8,6,6,0.6,0.6
2026-06-01T1500,1678A,116.6088,23.2539,汕头市,潮阳子站,臭氧1小时(O3_1h),53,37,31,18,17,162,162,142,142,6,7,8,7,0.6,0.5
2026-06-01T1500,3444A,116.4539,23.2684,汕头市,潮南峡山,臭氧1小时(O3_1h),57,46,38,25,19,165,165,151,151,9,9,9,8,0.7,0.8
