timepoint,stationcode,longitude,latitude,area,positionname,primarypollutant,aqi,pm10,pm10_24h,pm2_5,pm2_5_24h,o3,o3_24h,o3_8h,o3_8h_24h,no2,no2_24h,so2,so2_24h,co,co_24h
2026-06-29T0000,2568A,102.2503,31.8896,阿坝藏族羌族自治州,马师校,,24,24,23,7,8,23,23,55,42,8,6,3,3,0.3,0.3
2026-06-29T0000,3994A,102.2174,31.9016,阿坝藏族羌族自治州,马尔康中学西区,,13,13,9,8,7,36,36,68,61,5,5,2,2,0.3,0.2
2026-06-29T0000,2695A,80.2899,41.1684,阿克苏地区,电视台,颗粒物(PM10),68,74,67,24,14,97,97,136,129,20,8,3,3,0.8,0.7
2026-06-29T0000,2696A,80.2592,41.1541,阿克苏地区,艺术中心,颗粒物(PM10),81,93,52,31,18,57,57,142,127,25,4,4,4,1.0,0.6
2026-06-29T0000,2205A,105.699,38.8409,阿拉善盟,蒙二幼,颗粒物(PM10),96,114,123,48,47,102,102,130,114,3,3,10,10,0.3,0.3
2026-06-29T0000,2206A,105.7198,38.8508,阿拉善盟,环保局新楼,颗粒物(PM10),91,107,122,34,38,112,112,121,110,2,12,9,12,0.4,0.5
2026-06-29T0000,2708A,88.1266,47.8515,阿勒泰地区,市站,,36,36,19,9,3,79,79,130,107,16,11,7,7,0.3,0.3
2026-06-29T0000,4166A,88.1198,47.7931,阿勒泰地区,阿勒泰路33号,,35,35,16,7,3,91,91,123,116,12,5,6,6,0.4,0.4
2026-06-29T0000,2630A,80.1171,32.4999,阿里地区,阿里监测站,,48,19,13,10,4,152,152,144,144,2,5,5,5,0.3,0.3
2026-06-29T0000,3192A,80.0906,32.5029,阿里地区,阿里藏医院,,50,18,12,8,3,157,157,148,148,1,2,7,7,0.5,0.5
2026-06-29T0000,2644A,109.0088,32.6974,安康市,汉滨区检察院,,32,32,28,13,12,19,19,81,45,8,7,2,2,0.5,0.5
2026-06-29T0000,4054A,109.0324,32.6913,安康市,市邮政管理局,,33,33,29,13,16,20,20,91,50,14,8,3,4,0.6,0.6
2026-06-29T0000,2291A,117.0806,30.5181,安庆市,环科院,二氧化氮(NO2),63,55,46,38,31,2,2,190,119,126,28,9,9,0.7,0.8
2026-06-29T0000,2292A,117.0331,30.5118,安庆市,马山宾馆,细颗粒物(PM2.5),58,49,41,39,32,34,34,168,116,83,28,6,3,0.6,0.5
2026-06-29T0000,2294A,116.9897,30.6146,安庆市,安庆大学,细颗粒物(PM2.5),56,38,49,38,37,117,117,203,149,7,14,3,6,0.5,0.6
2026-06-29T0000,3173A,117.0598,30.5351,安庆市,市人大,细颗粒物(PM2.5),84,70,44,52,32,61,61,198,144,37,16,7,6,0.8,0.6
2026-06-29T0000,3123A,105.9408,26.2431,安顺市,凤凰山,,20,NA,25,14,13,59,59,64,59,6,8,6,8,0.4,0.4
2026-06-29T0000,3124A,105.9443,26.2567,安顺市,金钟山,,18,13,24,8,14,56,56,63,58,5,6,6,8,0.5,0.5
2026-06-29T0000,3125A,105.8983,26.248,安顺市,娄家坡,,18,12,17,12,12,50,50,61,56,6,4,6,7,0.7,0.7
2026-06-29T0000,1819A,114.3552,36.1017,安阳市,红庙街,,40,28,42,16,20,128,128,201,146,8,11,3,7,0.6,0.6
2026-06-29T0000,1820A,114.361,36.0681,安阳市,银杏小区,,43,33,42,21,23,136,136,206,149,4,7,3,5,0.5,0.5
2026-06-29T0000,3141A,114.3921,36.0879,安阳市,信访局,,46,34,39,24,23,146,146,212,162,6,8,4,5,0.7,0.7
2026-06-29T0000,3669A,114.4706,36.0634,安阳市,左辅环卫站,颗粒物(PM10),60,63,44,16,21,122,122,188,148,10,13,3,4,0.8,0.8
2026-06-29T0000,4117A,114.2918,36.0769,安阳市,钢三路198号,,44,NA,36,22,23,139,139,186,135,5,10,4,7,0.6,0.7
2026-06-29T0000,1748A,123.0441,41.1201,鞍山市,深沟寺,,30,18,26,11,14,93,93,128,100,5,7,7,7,0.5,0.6
2026-06-29T0000,1749A,123.011,41.0931,鞍山市,太阳城,,26,24,29,16,14,81,81,135,101,8,15,7,8,0.7,0.8
2026-06-29T0000,1750A,123.0483,41.1445,鞍山市,太平,,30,20,34,9,14,94,94,127,100,7,12,8,8,0.6,0.7
2026-06-29T0000,1751A,122.964,41.0968,鞍山市,铁西三道街,,34,25,41,13,18,106,106,150,113,8,17,5,7,0.6,1
2026-06-29T0000,1753A,123.0219,41.0822,鞍山市,明达新区,,30,21,25,13,14,94,94,133,107,8,9,4,5,0.5,0.7
2026-06-29T0000,4201A,122.944647,41.082639,鞍山市,兴盛南路290号,,30,28,46,14,22,95,95,141,109,16,17,7,7,0.5,0.9
2026-06-29T0000,2195A,107.4206,40.7609,巴彦淖尔市,附二中,颗粒物(PM10),68,75,49,29,22,72,72,168,132,27,15,15,15,0.6,0.6
2026-06-29T0000,2196A,107.37,40.7372,巴彦淖尔市,市环保大楼,颗粒物(PM10),57,59,50,22,16,82,82,154,131,18,10,10,10,0.6,0.6
2026-06-29T0000,1956A,86.1476,41.7529,巴音郭楞蒙古自治州,孔雀公园,,36,31,35,8,9,115,115,124,114,6,6,6,5,0.2,0.2
2026-06-29T0000,1957A,86.1971,41.7166,巴音郭楞蒙古自治州,棉纺厂,颗粒物(PM10),54,55,39,9,13,112,112,128,122,8,7,/,/,/,/
2026-06-29T0000,1958A,86.236,41.7172,巴音郭楞蒙古自治州,经济开发区,颗粒物(PM10),55,57,34,11,8,110,110,124,121,7,7,4,3,0.3,0.3
2026-06-29T0000,3181A,106.776805,31.852614,巴中市,市五中,,38,27,21,26,22,76,76,91,74,8,11,8,8,0.7,0.5
2026-06-29T0000,3183A,106.7419,31.8654,巴中市,圣泉水务公司,,38,NA,22,26,14,84,84,91,77,6,12,9,9,0.7,0.7
2026-06-29T0000,3616A,106.7617,31.8343,巴中市,市中心医院,,49,49,30,33,16,70,70,97,79,11,12,7,7,0.8,0.7
2026-06-29T0000,2235A,122.7909,45.608,白城市,洮北区环保局,,40,28,25,28,18,109,109,125,115,5,7,4,4,0.2,0.2
2026-06-29T0000,2236A,122.8741,45.5725,白城市,市环保局,,35,NA,17,24,15,96,96,108,100,12,11,3,4,0.3,0.3
2026-06-29T0000,2231A,126.4219,41.9172,白山市,喜丰,,46,46,45,10,10,58,58,125,104,28,18,11,11,0.6,0.6
2026-06-29T0000,2232A,126.4082,41.9416,白山市,环保局,,25,18,22,8,8,77,77,124,108,6,8,8,11,0.3,0.4
2026-06-29T0000,2647A,104.1727,36.5448,白银市,第三小学,,32,26,37,16,14,100,100,135,117,12,11,25,9,0.7,0.4
2026-06-29T0000,2648A,104.1467,36.5482,白银市,动力公司,,33,20,31,13,13,104,104,134,118,7,6,9,5,0.4,0.3
2026-06-29T0000,2512A,106.6102,23.901,百色市,市监测站,,19,19,31,9,10,19,19,100,56,12,10,6,8,0.4,0.4
2026-06-29T0000,2513A,106.6524,23.8842,百色市,市中心血站,,18,18,37,10,16,31,31,94,53,6,9,11,10,0.6,0.7
2026-06-29T0000,4133A,106.6273,23.8798,百色市,龙景西路,,22,22,40,3,16,27,27,108,61,6,10,9,11,0.5,0.6
2026-06-29T0000,2270A,117.396,32.9389,蚌埠市,工人疗养院,细颗粒物(PM2.5),94,65,47,57,32,152,152,195,174,17,16,5,6,0.6,0.4
2026-06-29T0000,2271A,117.3606,32.9428,蚌埠市,百货大楼,细颗粒物(PM2.5),80,56,43,50,26,157,157,197,174,11,14,7,8,0.7,0.6
2026-06-29T0000,2273A,117.4183,32.8909,蚌埠市,蚌埠学院,细颗粒物(PM2.5),110,NA,40,70,29,110,110,181,148,15,9,5,5,0.5,0.4
2026-06-29T0000,2274A,117.3534,32.9672,蚌埠市,淮上区政府,细颗粒物(PM2.5),82,61,47,51,28,141,141,205,176,24,19,6,6,0.5,0.4
2026-06-29T0000,2275A,117.3143,32.8977,蚌埠市,高新区,细颗粒物(PM2.5),100,NA,46,60,30,142,142,185,158,13,12,8,8,0.5,0.4
2026-06-29T0000,3715A,117.3091,32.9314,蚌埠市,蚌埠田家炳中学,细颗粒物(PM2.5),101,61,46,61,28,156,156,197,173,10,9,6,7,0.6,0.6
2026-06-29T0000,1585A,109.8761,40.6533,包头市,市环境监测站,,42,28,37,14,20,133,133,165,142,15,24,7,11,0.3,0.4
2026-06-29T0000,1587A,109.9992,40.5843,包头市,包头八中,颗粒物(PM10),53,53,50,21,24,113,113,147,129,19,21,34,22,0.9,0.6
2026-06-29T0000,1589A,109.8641,40.6288,包头市,惠龙物流,,49,49,40,21,25,120,120,155,134,18,22,22,15,0.4,0.4
2026-06-29T0000,1590A,110.0376,40.5546,包头市,东河鸿龙湾,,47,47,40,3,22,117,117,152,131,16,20,21,21,0.4,0.5
2026-06-29T0000,3283A,109.9154,40.5684,包头市,滨河大厦,,40,40,36,8,20,113,113,144,124,14,19,12,14,0.4,0.5
2026-06-29T0000,3419A,109.9449,40.6259,包头市,包头市委党校,,39,24,33,21,21,124,124,153,135,17,28,10,16,0.4,0.6
2026-06-29T0000,3683A,109.8332,40.6577,包头市,昆区政府,,37,30,44,18,23,118,118,146,128,18,29,10,12,0.5,0.7
2026-06-29T0000,1931A,107.0802,34.3129,宝鸡市,竹园沟,,22,22,24,14,16,63,63,104,85,6,5,6,6,0.5,0.5
2026-06-29T0000,1933A,107.1429,34.3549,宝鸡市,监测站,,29,26,31,20,18,50,50,114,79,12,8,8,7,0.4,0.4
2026-06-29T0000,1934A,107.1172,34.3759,宝鸡市,技工学校,,29,25,32,20,19,59,59,122,94,9,5,6,6,0.5,0.5
2026-06-29T0000,1936A,107.2025,34.3518,宝鸡市,文理学院,,35,35,35,17,18,45,45,120,77,24,14,7,7,0.5,0.4
2026-06-29T0000,1937A,107.2396,34.3626,宝鸡市,三迪小学,,37,37,37,22,20,44,44,131,86,27,16,7,7,0.6,0.5
2026-06-29T0000,4155A,107.1721,34.3558,宝鸡市,滨河北路,,34,34,37,17,21,40,40,112,74,23,10,6,6,0.5,0.5
2026-06-29T0000,4308A,107.3898,34.3601,宝鸡市,陈仓区北开路21号,,36,36,51,21,31,39,39,137,86,32,17,5,28,0.5,0.6
2026-06-29T0000,1051A,115.4803,38.8568,保定市,游泳馆,,33,31,32,23,20,99,99,190,147,13,10,3,3,0.2,0.1
2026-06-29T0000,1052A,115.509,38.8895,保定市,华电二区,,36,30,28,23,15,113,113,193,NA,11,9,7,3,0.7,0.6
2026-06-29T0000,1053A,115.4588,38.9037,保定市,接待中心,,33,27,28,6,18,105,105,175,137,5,8,3,2,0.3,0.4
2026-06-29T0000,1054A,115.4484,38.8344,保定市,地表水厂,,37,37,38,15,16,98,98,194,146,9,7,2,3,0.6,0.5
2026-06-29T0000,3581A,115.3136,38.9511,保定市,满城区生态环境分局,,35,17,29,3,19,112,112,173,133,5,9,2,3,0,0
2026-06-29T0000,3582A,115.4709,38.7628,保定市,清苑区第二中学,,40,40,44,20,20,106,106,199,153,9,10,4,5,0.4,0.3
2026-06-29T0000,3583A,115.6231,39.0223,保定市,徐水物探局,,39,39,36,27,20,114,114,190,132,18,15,4,4,0.4,0.4
2026-06-29T0000,4004A,115.4199,38.8665,保定市,双鹰农机,,32,22,36,22,20,97,97,182,138,7,8,3,4,0.1,0.1
2026-06-29T0000,4034A,115.515,38.8589,保定市,植保所站,,37,37,32,24,17,110,110,208,165,15,8,8,8,0.4,0.4
2026-06-29T0000,2594A,99.1589,25.1137,保山市,市环境监测站,,16,NA,12,11,7,39,39,63,54,11,7,5,5,0.3,0.3
2026-06-29T0000,2595A,99.1616,25.1381,保山市,市环保局,,26,NA,13,18,16,29,29,66,54,6,5,5,5,0.3,0.3
2026-06-29T0000,1867A,109.1435,21.4085,北海市,海滩公园,,27,10,14,3,10,85,85,88,87,4,7,3,2,0.5,0.6
2026-06-29T0000,1868A,109.0983,21.466,北海市,新市环保局,,30,10,16,3,10,93,93,95,95,6,8,4,5,0.6,0.6
2026-06-29T0000,1869A,109.1775,21.5232,北海市,北海工业园,,22,17,20,14,15,68,68,77,76,6,8,1,3,0.3,0.4
2026-06-29T0000,3400A,109.1844,21.4396,北海市,龙潭自来水厂,,19,12,19,3,10,58,58,76,74,4,6,2,3,0.7,0.8
2026-06-29T0000,1001A,116.3611,39.8786,北京市,万寿西宫,颗粒物(PM10),87,101,55,43,33,175,175,248,226,11,16,5,5,0.7,0.5
2026-06-29T0000,1003A,116.4174,39.9289,北京市,东四,细颗粒物(PM2.5),96,92,55,58,33,187,187,265,237,16,17,8,6,0.7,0.4
2026-06-29T0000,1004A,116.4073,39.8858,北京市,天坛,细颗粒物(PM2.5),114,98,57,75,32,144,144,232,206,18,22,4,3,0.8,0.6
2026-06-29T0000,1005A,116.4622,39.9364,北京市,农展馆,细颗粒物(PM2.5),101,104,60,61,35,169,169,248,218,17,23,6,5,0.8,0.5
2026-06-29T0000,1006A,116.3399,39.9293,北京市,官园,细颗粒物(PM2.5),114,101,59,75,30,168,168,235,212,12,16,9,7,0.7,0.6
2026-06-29T0000,1007A,116.2879,39.9613,北京市,海淀万柳,细颗粒物(PM2.5),96,97,55,58,30,174,174,226,206,15,22,9,6,0.6,0.5
2026-06-29T0000,1008A,116.6635,40.1349,北京市,顺义新城,细颗粒物(PM2.5),96,82,61,58,34,173,173,251,215,15,15,5,3,0.9,0.6
2026-06-29T0000,1009A,116.6275,40.327,北京市,怀柔镇,细颗粒物(PM2.5),82,74,61,51,36,182,182,239,216,8,10,3,3,0.7,0.6
2026-06-29T0000,1010A,116.2295,40.217,北京市,昌平镇,细颗粒物(PM2.5),88,79,54,54,33,171,171,234,209,14,15,6,5,1.1,0.8
2026-06-29T0000,1011A,116.3968,39.982,北京市,奥体中心,细颗粒物(PM2.5),106,97,54,66,33,158,158,208,192,11,16,7,5,0.8,0.5
2026-06-29T0000,3418A,116.8336,40.4095,北京市,密云新城,臭氧1小时(O3_1h),85,57,55,35,30,188,188,226,214,8,10,4,4,0.7,0.6
2026-06-29T0000,3671A,116.0879,39.9725,北京市,门头沟三家店,细颗粒物(PM2.5),103,104,40,63,24,178,178,208,169,16,12,6,3,0.8,0.5
2026-06-29T0000,3672A,116.1507,39.8246,北京市,丰台云岗,颗粒物(PM10),99,118,54,59,29,181,181,215,187,6,7,5,2,0.8,0.5
2026-06-29T0000,3674A,115.9578,39.7602,北京市,房山燕山,细颗粒物(PM2.5),94,92,38,57,20,163,163,190,168,20,11,3,2,0.7,0.5
2026-06-29T0000,3675A,116.4669,39.7734,北京市,大兴旧宫,细颗粒物(PM2.5),104,105,64,64,35,161,161,234,210,14,25,3,3,0.8,0.6
2026-06-29T0000,3694A,115.9859,40.4562,北京市,延庆石河营,细颗粒物(PM2.5),115,107,54,76,33,178,178,226,222,18,15,4,3,0.7,0.5
2026-06-29T0000,3695A,116.6151,40.3052,北京市,怀柔新城,细颗粒物(PM2.5),94,68,58,57,36,182,182,230,209,8,9,2,3,0.8,0.7
2026-06-29T0000,3696A,116.2542,39.8764,北京市,丰台小屯,细颗粒物(PM2.5),90,93,56,55,30,168,168,222,201,10,14,6,5,0.7,0.5
2026-06-29T0000,3697A,116.8399,40.3843,北京市,密云镇,臭氧1小时(O3_1h),68,72,57,40,33,174,174,228,214,8,11,7,7,0.7,0.6
2026-06-29T0000,4057A,115.9423,40.4431,北京市,延庆百泉,细颗粒物(PM2.5),100,99,46,60,28,193,193,241,238,11,11,1,1,0.6,0.4
2026-06-29T0000,4058A,116.6598,39.9164,北京市,通州新华,细颗粒物(PM2.5),110,123,74,71,37,154,154,234,196,15,24,6,4,1.2,0.8
2026-06-29T0000,4182A,116.1942,39.9158,北京市,石景山八角,颗粒物(PM10),91,107,57,55,29,169,169,221,201,10,13,7,4,0.8,0.6
2026-06-29T0000,4194A,117.078628,40.151726,北京市,平谷新城,细颗粒物(PM2.5),98,79,65,59,39,169,169,221,196,8,10,4,4,1.0,0.8
2026-06-29T0000,1761A,123.8274146,41.31234549,本溪市,大峪,,22,21,29,10,15,70,70,148,107,17,13,6,6,0.3,0.4
2026-06-29T0000,1763A,123.7169,41.3094,本溪市,彩屯,,47,47,30,27,21,41,41,118,80,29,21,8,10,2.0,1.7
2026-06-29T0000,1764A,123.7672166,41.28649327,本溪市,东明,,27,27,35,14,14,80,80,141,120,27,16,6,6,0.5,0.5
2026-06-29T0000,1765A,123.799345,41.266614,本溪市,新立屯,,30,24,27,6,10,95,95,141,109,9,15,8,8,0.5,0.5
2026-06-29T0000,1766A,123.829144,41.336777,本溪市,威宁,,28,28,34,13,18,60,60,141,92,18,11,8,8,0.5,0.5
2026-06-29T0000,2587A,105.287,27.3133,毕节市,八中,,14,NA,29,3,16,44,44,86,51,6,10,6,7,0.5,0.5
2026-06-29T0000,2588A,105.3079,27.2987,毕节市,师专,,15,NA,23,10,15,44,44,81,47,6,8,2,4,0.6,0.6
2026-06-29T0000,4263A,105.3688,27.3598,毕节市,工业大道,,15,6,26,3,14,45,45,82,52,12,9,6,8,/,/
2026-06-29T0000,1629A,117.9961,37.3604,滨州市,第二水厂,,40,NA,55,28,31,120,120,214,157,9,17,6,9,0.7,0.7
2026-06-29T0000,1630A,117.9789,37.3931,滨州市,北中新校,,32,31,48,22,29,98,98,228,158,13,21,9,13,0.7,0.8
2026-06-29T0000,3514A,117.9379,37.3959,滨州市,中海酒店,,34,14,42,14,28,106,106,238,164,15,20,7,12,0.4,0.6
2026-06-29T0000,3515A,117.9381509,37.35547456,滨州市,开发区一中,,35,24,55,16,28,111,111,216,148,17,23,8,12,0.4,0.5
2026-06-29T0000,3516A,118.0914,37.6938,滨州市,金海六路,,36,NA,50,17,29,114,114,222,146,15,23,4,9,0.3,0.5
2026-06-29T0000,4028A,117.9955,37.3752,滨州市,滨州市西街道办事处,,35,NA,50,24,28,108,108,214,155,8,15,4,8,0.5,0.5
2026-06-29T0000,2311A,115.8071,33.8399,亳州市,污水处理厂,,43,35,48,23,30,137,137,201,178,11,13,4,4,0.3,0.3
2026-06-29T0000,2312A,115.7789,33.8519,亳州市,三国揽胜宫,,50,50,51,29,28,148,148,206,185,8,9,4,4,0.3,0.3
2026-06-29T0000,3332A,115.7631,33.803,亳州市,亳州学院,,45,38,39,31,35,132,132,204,177,11,10,4,4,0.4,0.4
2026-06-29T0000,2693A,82.0482,44.8553,博尔塔拉蒙古自治州,市党校,,31,20,34,3,12,97,97,116,112,7,5,3,3,0.2,0.3
2026-06-29T0000,2694A,82.0805,44.8966,博尔塔拉蒙古自治州,市环保局,,41,41,34,3,8,99,99,114,108,9,10,7,5,0.4,0.4
2026-06-29T0000,1071A,116.8733,38.2922,沧州市,沧县城建局,,44,25,48,13,32,138,138,215,165,5,15,3,9,0.5,0.6
2026-06-29T0000,1072A,116.8462,38.3189,沧州市,电视转播站,,45,27,58,16,33,141,141,208,170,6,18,1,5,0.2,0.4
2026-06-29T0000,1073A,116.8588,38.3161,沧州市,市环保局,,40,37,74,21,31,128,128,212,158,6,14,13,10,0.1,0.4
2026-06-29T0000,3324A,116.8011,38.294,沧州市,河北水利电力学院,,40,17,45,17,35,126,126,191,154,8,16,8,12,0.2,0.4
2026-06-29T0000,2622A,97.1813,31.1289,昌都市,昌都监测站,,30,6,4,3,3,95,95,96,96,6,7,8,7,0.6,0.5
2026-06-29T0000,3719A,97.1707,31.1428,昌都市,昌都会议中心,,31,6,5,6,3,99,99,106,106,4,4,5,5,0.4,0.4
2026-06-29T0000,2692A,87.2722,44.0298,昌吉回族自治州,新区政务中心,,41,26,36,11,15,130,130,131,126,5,12,8,9,0.2,0.3
2026-06-29T0000,3613A,87.3069,44.0093,昌吉回族自治州,亚心广场,,39,22,47,6,15,124,124,131,124,6,18,6,8,0.1,0.2
2026-06-29T0000,4164A,87.2057,43.9289,昌吉回族自治州,财政所,,41,34,41,7,10,131,131,133,128,10,9,6,7,0.1,0.1
2026-06-29T0000,1120A,125.2874,43.9024,长春市,客车厂,细颗粒物(PM2.5),84,NA,36,52,33,50,50,94,61,21,32,5,6,0.6,0.6
2026-06-29T0000,1121A,125.2943,43.8508,长春市,邮电学院,细颗粒物(PM2.5),72,NA,31,46,32,47,47,90,58,18,21,7,6,0.5,0.6
2026-06-29T0000,1122A,125.3648,43.8745,长春市,劳动公园,细颗粒物(PM2.5),92,NA,35,56,35,59,59,96,66,20,33,8,6,0.6,0.6
2026-06-29T0000,1123A,125.3233,43.8781,长春市,园林处,细颗粒物(PM2.5),84,NA,32,52,34,58,58,99,68,16,25,4,4,0.5,0.6
2026-06-29T0000,1124A,125.4604,43.7904,长春市,净月潭,细颗粒物(PM2.5),80,NA,27,50,31,38,38,68,51,14,16,7,6,0.4,0.4
2026-06-29T0000,1126A,125.38,43.8422,长春市,经开区环卫处,细颗粒物(PM2.5),80,NA,37,50,33,54,54,93,66,21,35,6,5,0.5,0.5
2026-06-29T0000,1127A,125.234,43.7761,长春市,高新区管委会,细颗粒物(PM2.5),62,NA,30,41,24,45,45,106,80,20,28,6,6,0.6,0.6
2026-06-29T0000,1128A,125.1695,43.83,长春市,岱山公园,细颗粒物(PM2.5),66,NA,39,43,28,52,52,110,81,20,36,2,3,0.6,0.6
2026-06-29T0000,4281A,125.334645,43.916281,长春市,北亚泰大街1068号,细颗粒物(PM2.5),86,NA,38,53,35,52,52,92,58,21,35,5,5,0.6,0.6
2026-06-29T0000,1335A,113.082,28.2421,长沙市,经开区环保局,颗粒物(PM10),51,51,42,35,28,62,62,128,93,17,15,4,7,0.5,0.5
2026-06-29T0000,1336A,112.8873,28.2202,长沙市,高开区环保局,颗粒物(PM10),52,52,49,33,31,84,84,135,100,15,24,5,4,0.6,0.6
2026-06-29T0000,1337A,113.0785,28.2012,长沙市,马坡岭,细颗粒物(PM2.5),60,61,46,40,29,38,38,132,87,36,20,6,7,0.6,0.5
2026-06-29T0000,1338A,112.9448,28.1894,长沙市,湖南师范大学,,46,46,44,31,26,83,83,136,96,11,14,10,10,0.3,0.2
2026-06-29T0000,1339A,113.0177,28.1322,长沙市,雨花区环保局,颗粒物(PM10),53,53,45,34,25,113,113,124,101,10,14,7,6,0.9,0.9
2026-06-29T0000,1340A,112.9795,28.2593,长沙市,伍家岭,颗粒物(PM10),70,78,50,43,29,28,28,132,76,29,16,3,4,0.5,0.5
2026-06-29T0000,1341A,113.002,28.1944,长沙市,火车新站,,48,47,44,33,26,102,102,124,100,13,19,9,8,0.5,0.5
2026-06-29T0000,1342A,112.9846,28.1177,长沙市,天心区环保局,细颗粒物(PM2.5),54,52,44,37,26,119,119,130,111,18,21,6,4,1.0,1
2026-06-29T0000,1343A,112.8906,28.1307,长沙市,湖南中医药大学,颗粒物(PM10),51,51,50,35,28,33,33,132,81,35,21,6,6,0.7,0.6
2026-06-29T0000,1727A,113.1146,36.1547,长治市,清华站,,28,20,24,19,12,69,69,158,120,21,9,8,9,0.7,0.7
2026-06-29T0000,1730A,113.0887,36.2126,长治市,审计局,,28,21,26,19,15,74,74,157,117,12,9,8,10,0.5,0.6
2026-06-29T0000,1731A,113.0845,36.1856,长治市,长治八中,,27,27,32,8,14,65,65,155,114,24,11,10,12,0.6,0.7
2026-06-29T0000,2845A,113.1561,36.1912,长治市,德盛苑,,25,17,24,14,15,80,80,162,125,15,14,10,13,0.5,0.5
2026-06-29T0000,3568A,113.0603,36.0464,长治市,向阳小学,,25,25,30,14,15,72,72,152,109,6,14,2,16,0.6,0.7
2026-06-29T0000,3569A,112.8788,36.315,长治市,屯留一中,,24,24,19,15,13,66,66,142,102,15,8,9,10,0.8,0.4
2026-06-29T0000,4189A,113.113092,36.199482,长治市,英华南巷50号,,31,31,29,10,13,83,83,165,122,14,12,8,11,0.7,0.6
2026-06-29T0000,4190A,113.23666,36.33435,长治市,学府街1号,,25,23,33,17,13,71,71,163,117,18,12,6,9,0.8,0.6
2026-06-29T0000,1854A,111.696,28.9725,常德市,市二中,细颗粒物(PM2.5),72,NA,39,46,31,45,45,114,97,20,10,8,9,1.2,1.1
2026-06-29T0000,3138A,111.7152,29.0288,常德市,武陵区永安,细颗粒物(PM2.5),86,53,47,53,43,74,74,133,107,29,12,7,10,1.0,0.9
2026-06-29T0000,3139A,111.6891,28.9881,常德市,鼎城区玉霞,细颗粒物(PM2.5),70,45,43,45,34,35,35,119,76,26,19,10,10,1.2,1.1
2026-06-29T0000,3140A,111.6651,29.0526,常德市,武陵区长庚,细颗粒物(PM2.5),72,49,44,46,34,42,42,132,110,28,11,9,10,0.9,0.8
2026-06-29T0000,1196A,119.9524,31.7586,常州市,市监测站,,35,23,43,23,35,112,112,181,161,17,20,10,11,0.4,0.5
2026-06-29T0000,1200A,119.9351,31.703,常州市,武进监测站,,33,30,50,19,31,104,104,159,146,12,16,7,4,0.6,0.6
2026-06-29T0000,3002A,119.9701,31.813,常州市,行政中心,,40,40,49,26,33,107,107,178,152,12,15,6,6,0.3,0.4
2026-06-29T0000,3003A,120.0434,31.7726,常州市,经开区,,35,35,61,24,33,101,101,186,156,11,14,2,3,0.8,0.9
2026-06-29T0000,3010A,119.8919,31.7892,常州市,钟楼,,40,36,56,23,30,127,127,182,167,12,15,7,8,0.6,0.2
2026-06-29T0000,3429A,119.8595,31.706,常州市,武进经发区,,39,39,50,20,27,109,109,167,151,8,11,8,9,0.7,0.7
2026-06-29T0000,3430A,119.5812,31.7256,常州市,金坛城区,,37,31,43,18,27,116,116,174,163,4,7,7,8,0.9,0.8
2026-06-29T0000,4089A,119.9551,31.863,常州市,崇义南街5-H号,,45,41,55,31,37,104,104,194,155,20,20,6,7,0.7,0.8
2026-06-29T0000,2220A,120.4318,41.588,朝阳市,西梁,,42,42,46,26,29,61,61,143,98,24,14,8,10,0.9,0.9
2026-06-29T0000,2221A,120.452,41.565,朝阳市,河畔小区,,39,29,36,23,31,123,123,141,118,11,12,9,11,0.4,0.5
2026-06-29T0000,2222A,120.4176,41.5648,朝阳市,八里堡,,50,35,43,35,35,70,70,151,98,23,17,2,5,0.9,1
2026-06-29T0000,3026A,116.6179,23.6608,潮州市,市政府,,19,19,21,9,14,40,40,72,47,7,8,8,6,0.5,0.5
2026-06-29T0000,4036A,116.646,23.676,潮州市,金山,,13,13,20,6,13,38,38,72,38,5,7,2,2,0.3,0.4
2026-06-29T0000,2473A,113.0116,25.8228,郴州市,市职中,细颗粒物(PM2.5),52,39,42,36,32,18,18,100,59,18,12,8,8,0.9,0.9
2026-06-29T0000,2475A,113.0381,25.8074,郴州市,市审计局,,43,32,40,30,30,33,33,96,63,12,13,4,6,/,/
2026-06-29T0000,2476A,113.0348,25.7757,郴州市,市环保局,,38,NA,32,26,29,40,40,103,66,12,12,6,7,0.9,0.9
2026-06-29T0000,4252A,113.0138,25.8011,郴州市,好美居路49号,,42,39,39,29,26,29,29,103,66,18,11,9,8,/,/
2026-06-29T0000,1431A,103.9727,30.7242,成都市,金泉两河,,35,35,29,12,24,69,69,129,106,19,14,2,3,0.3,0.4
2026-06-29T0000,1432A,104.1423,30.6765,成都市,十里店,,31,31,40,18,27,84,84,121,109,14,13,5,5,0.6,0.6
2026-06-29T0000,1433A,104.0594,30.5765,成都市,三瓦窑,,28,28,34,14,24,67,67,121,103,20,18,6,6,0.6,0.6
2026-06-29T0000,1434A,104.1122,30.6306,成都市,沙河铺,,39,39,40,17,22,66,66,113,98,24,14,4,4,0.4,0.4
2026-06-29T0000,2880A,104.0219,30.6561,成都市,大石西路,,34,34,44,15,32,63,63,115,98,23,13,7,5,0.5,0.5
2026-06-29T0000,3136A,104.2724,30.559,成都市,龙泉驿区区政府,,25,NA,19,17,17,75,75,120,107,11,7,7,7,0.4,0.4
2026-06-29T0000,3357A,104.0028,30.6891,成都市,金博路,,24,13,31,10,26,74,74,124,106,18,16,8,8,0.5,0.8
2026-06-29T0000,3359A,104.056,30.5228,成都市,华阳,,24,24,27,13,20,75,75,124,109,13,8,2,2,0.4,0.4
2026-06-29T0000,3488A,104.387954,30.746684,成都市,青白江技师分院,,27,27,33,18,26,81,81,120,111,12,13,5,5,0.6,0.6
2026-06-29T0000,3489A,104.0788,30.4054,成都市,科学城,,20,16,18,12,16,61,61,120,103,13,6,5,6,0.3,0.3
2026-06-29T0000,4011A,103.8505,30.6946,成都市,光华大道三段,,24,24,47,11,34,74,74,128,106,14,11,5,5,0.5,0.5
2026-06-29T0000,4144A,104.3257,30.6406,成都市,八角井街185号,,40,40,37,15,21,62,62,119,104,18,10,4,4,0.5,0.5
2026-06-29T0000,4224A,104.2433276,30.53529463,成都市,鲸龙路1057号,,24,24,24,15,16,76,76,126,113,15,14,8,8,0.7,0.7
2026-06-29T0000,1062A,117.9531,40.908,承德市,铁路,细颗粒物(PM2.5),76,83,55,48,30,140,140,182,170,15,17,5,6,0.7,0.5
2026-06-29T0000,1063A,117.9397,40.9763,承德市,中国银行,细颗粒物(PM2.5),74,62,52,47,30,75,75,180,150,13,12,3,4,0.7,0.5
2026-06-29T0000,4073A,117.9462,40.95,承德市,杏林街1号,细颗粒物(PM2.5),92,69,52,56,37,102,102,194,177,16,11,4,5,0.7,0.5
2026-06-29T0000,4274A,117.7994,40.9605,承德市,滨河大街98号,细颗粒物(PM2.5),74,62,47,47,28,123,123,181,119,7,10,6,7,0.7,0.5
2026-06-29T0000,2314A,117.4698,30.6617,池州市,池州学院,,50,47,50,35,36,90,90,195,148,22,18,4,5,1.3,1.2
2026-06-29T0000,3237A,117.4918,30.6617,池州市,展览馆,,50,50,46,35,29,95,95,198,133,19,14,3,4,1.1,0.9
2026-06-29T0000,3333A,117.5626,30.695,池州市,第八中学,细颗粒物(PM2.5),62,58,49,41,34,44,44,192,146,48,14,4,5,0.6,0.6
2026-06-29T0000,3334A,117.5037,30.6242,池州市,第十二中学,细颗粒物(PM2.5),54,52,50,37,33,71,71,194,130,26,20,7,6,2.0,1.1
2026-06-29T0000,1744A,118.9229,42.2816,赤峰市,松山一中,,42,34,39,17,27,133,133,177,144,8,20,18,35,0.5,0.8
2026-06-29T0000,1745A,118.9588,42.2733,赤峰市,哈达街,,38,30,41,24,26,120,120,165,130,14,24,29,41,0.7,0.6
2026-06-29T0000,1746A,118.8792,42.2551,赤峰市,天义路,,39,22,25,20,22,122,122,173,142,12,17,8,14,0.6,0.7
2026-06-29T0000,3058A,119.2656,42.0356,赤峰市,银河街,,50,50,46,27,28,127,127,180,150,14,15,13,20,0.8,0.7
2026-06-29T0000,3286A,118.9359,42.3146,赤峰市,桥北物流园区,,35,24,33,22,24,111,111,170,127,11,20,4,15,0.6,0.7
2026-06-29T0000,2521A,107.3473,22.4137,崇左市,市环保局江州分局,,28,28,22,18,8,32,32,74,58,14,6,7,4,0.6,0.6
2026-06-29T0000,4256A,107.375,22.3736,崇左市,石景林东路7号,,19,NA,18,13,7,34,34,72,57,15,7,5,5,0.6,0.6
2026-06-29T0000,3207A,118.31131,32.3033,滁州市,市政府原办公楼,细颗粒物(PM2.5),111,NA,58,72,53,110,110,223,176,21,18,5,6,0.8,0.7
2026-06-29T0000,3331A,118.3268,32.2633,滁州市,图书馆,细颗粒物(PM2.5),111,83,60,72,38,109,109,200,169,24,15,10,10,0.7,0.6
2026-06-29T0000,4101A,118.3196,32.3335,滁州市,银山路666号,细颗粒物(PM2.5),109,84,67,69,46,123,123,221,173,16,17,2,3,0.5,0.4
2026-06-29T0000,4102A,118.3426,32.2979,滁州市,黄山路555号,细颗粒物(PM2.5),112,86,72,73,49,120,120,221,194,30,18,8,9,0.6,0.5
2026-06-29T0000,2606A,101.5379,25.0492,楚雄彝族自治州,市经济开发区,,13,12,9,7,6,40,40,45,43,9,6,10,4,0.4,0.4
2026-06-29T0000,4153A,101.5536,25.0343,楚雄彝族自治州,团结路562号,,13,7,9,7,6,41,41,50,49,9,3,7,4,0.6,0.6
2026-06-29T0000,2549A,107.5087,31.2186,达州市,市环境监测站,,38,38,28,3,14,53,53,97,74,20,19,7,7,0.5,0.6
2026-06-29T0000,2550A,107.4988,31.2132,达州市,凤凰小区,,40,39,29,28,12,52,52,91,73,19,15,7,6,0.6,0.4
2026-06-29T0000,2551A,107.5081,31.1987,达州市,达县机关宾馆,,46,36,28,32,14,57,57,97,76,26,21,6,4,0.4,0.3
2026-06-29T0000,2552A,107.4644,31.2124,达州市,市政中心,,40,40,34,12,6,66,66,98,85,13,17,4,4,0.3,0.3
2026-06-29T0000,2614A,100.2168,25.5818,大理白族自治州,大理市环境监测站,,18,12,9,3,5,56,56,63,62,7,6,5,5,0.4,0.5
2026-06-29T0000,2615A,100.1542,25.7055,大理白族自治州,大理古城,,13,12,12,9,7,33,33,62,41,12,9,4,4,0.6,0.5
2026-06-29T0000,1109A,121.6119,38.974,大连市,甘井子,,22,18,27,10,14,69,69,136,98,17,10,9,9,0.5,0.6
2026-06-29T0000,1110A,121.565,38.9509,大连市,周水子,,25,25,32,11,19,75,75,141,88,12,14,6,7,0.6,0.7
2026-06-29T0000,1111A,121.5637,38.8849,大连市,星海三站,,38,38,33,7,12,90,90,152,125,15,13,8,8,0.7,0.8
2026-06-29T0000,1112A,121.6301,38.9117,大连市,青泥洼桥,,24,19,25,11,14,74,74,145,104,10,9,7,8,0.5,0.5
2026-06-29T0000,1113A,121.6248,38.8643,大连市,傅家庄,,27,17,20,8,14,85,85,138,110,10,10,12,11,0.4,0.5
2026-06-29T0000,1114A,121.5117,38.8636,大连市,七贤岭,,27,24,30,10,13,85,85,138,108,9,8,4,5,0.8,0.9
2026-06-29T0000,1116A,121.7507,39.1339,大连市,金州,,26,24,28,12,18,82,82,162,111,8,10,8,9,0.6,0.6
2026-06-29T0000,1117A,121.7811,39.0495,大连市,开发区,,35,35,45,12,17,70,70,132,96,12,17,8,10,0.3,0.4
2026-06-29T0000,1118A,121.9762,39.0631,大连市,双D港,,13,9,22,9,15,30,30,124,70,4,7,5,6,0.5,0.6
2026-06-29T0000,4082A,121.2548,38.8188,大连市,旅顺,,27,19,22,11,15,85,85,142,115,4,5,6,6,0.4,0.5
2026-06-29T0000,1789A,124.8085,46.0381,大庆市,大同区,,36,36,32,21,14,103,103,132,120,17,19,4,5,0.7,0.6
2026-06-29T0000,1790A,125.1166,46.5255,大庆市,龙凤区,,38,38,37,19,12,95,95,105,101,10,13,8,7,0.1,0
2026-06-29T0000,1791A,124.8894,46.4007,大庆市,红岗区,,32,28,24,22,13,77,77,111,95,11,12,8,8,0.5,0.4
2026-06-29T0000,1792A,125.1391,46.578,大庆市,萨尔图区,,33,33,29,20,13,94,94,110,105,12,13,6,5,0.7,0.4
2026-06-29T0000,1793A,124.9026,46.6217,大庆市,让胡路区,,38,37,33,26,14,90,90,118,104,14,13,5,4,0.7,0.5
2026-06-29T0000,3481A,125.127,46.6277,大庆市,萨区政府监测点,,35,35,27,21,14,97,97,120,115,8,9,5,5,0.3,0.2
2026-06-29T0000,1723A,113.2926,40.0759,大同市,云冈宾馆,,39,20,43,14,16,123,123,153,126,8,20,6,9,0.3,0.4
2026-06-29T0000,1724A,113.3437,40.0921,大同市,大同大学,,35,18,39,9,16,112,112,151,125,12,18,6,7,0.4,0.5
2026-06-29T0000,1725A,113.2637,40.129,大同市,安家小村,,34,33,43,12,20,106,106,150,117,13,19,17,17,0.4,0.5
2026-06-29T0000,3282A,113.3399,40.0586,大同市,大同市卫生学校,,35,27,40,14,16,112,112,157,125,14,19,10,10,0.6,0.6
2026-06-29T0000,3565A,113.1371,40.1122,大同市,云冈站,,32,32,36,10,14,52,52,137,100,13,15,6,7,0.6,0.6
2026-06-29T0000,3566A,113.1186,40.2556,大同市,图书馆,,28,28,32,18,16,86,86,149,118,13,13,7,7,0.6,0.6
2026-06-29T0000,3567A,113.5931,40.0459,大同市,区一中,,27,25,30,17,14,86,86,155,113,18,14,8,9,0.5,0.5
2026-06-29T0000,4199A,113.2798248,40.09972476,大同市,魏都大道141号,,38,19,43,12,20,121,121,149,123,12,26,7,9,0.4,0.5
2026-06-29T0000,2269A,124.1068,50.4091,大兴安岭地区,科技局,,26,26,23,15,9,27,27,71,56,7,4,5,4,0.3,0.2
2026-06-29T0000,3663A,124.117,50.4279,大兴安岭地区,红旗社区,,15,12,10,3,6,7,7,79,56,29,8,7,6,0.1,0.1
2026-06-29T0000,1600A,124.33,40.0625,丹东市,江湾东路,,46,42,31,32,22,44,44,124,80,14,11,14,8,0.5,0.6
2026-06-29T0000,1601A,124.4242,40.1513,丹东市,临江后街,颗粒物(PM10),58,60,35,30,21,47,47,122,81,13,10,4,5,0.6,0.5
2026-06-29T0000,1602A,124.3935,40.1461,丹东市,元宝山,,48,39,30,33,20,49,49,116,79,14,11,5,5,0.8,0.7
2026-06-29T0000,1603A,124.3634,40.1093,丹东市,民主桥,细颗粒物(PM2.5),62,41,36,41,22,48,48,121,71,14,11,13,7,0.8,0.8
2026-06-29T0000,3541A,109.5726195,19.51688767,儋州市,第一中学子站,,13,6,16,3,10,40,40,74,48,5,6,2,3,0.7,0.6
2026-06-29T0000,3542A,109.5567,19.5187,儋州市,东坡学校子站,,13,13,18,3,8,40,40,80,53,4,4,2,2,0.6,0.6
2026-06-29T0000,2616A,98.5611,24.4273,德宏傣族景颇族自治州,德宏州监测站,,23,NA,11,16,13,17,17,42,35,12,10,7,7,0.6,0.6
2026-06-29T0000,3677A,98.5887,24.4366,德宏傣族景颇族自治州,芒市人民政府综合楼,,29,29,34,11,12,11,11,39,29,8,9,2,2,0.6,0.6
2026-06-29T0000,1901A,104.424,31.1209,德阳市,东山公园,,29,26,36,20,29,81,81,137,107,12,13,3,4,0.7,0.7
2026-06-29T0000,1902A,104.3827,31.1318,德阳市,西小区,,40,40,49,24,35,64,64,128,99,30,18,7,8,0.9,1
2026-06-29T0000,1904A,104.3553,31.1091,德阳市,耐火材料厂,,40,40,45,24,38,82,82,157,116,14,13,4,5,0.5,0.5
2026-06-29T0000,4145A,104.4144,31.1495,德阳市,市林业局,,36,36,38,22,32,91,91,162,126,19,17,10,10,0.8,0.9
2026-06-29T0000,1622A,116.3034,37.4675,德州市,儿童乐园,,49,NA,56,9,30,154,154,234,193,6,13,8,12,0.7,0.8
2026-06-29T0000,1624A,116.2992,37.4449,德州市,监理站,,48,NA,57,8,26,153,153,227,189,5,17,12,17,0.3,0.4
2026-06-29T0000,3066A,116.2722,37.438,德州市,九衢泉纯净水厂,,46,9,61,6,29,145,145,203,178,8,27,8,14,0.7,0.8
2026-06-29T0000,3371A,116.3693,37.44,德州市,开发区人民医院,,45,14,56,9,27,144,144,225,182,12,16,8,12,0.5,0.6
2026-06-29T0000,3511A,116.5687,37.3331,德州市,陵城艺术中心,臭氧1小时(O3_1h),52,NA,48,9,24,161,161,226,186,6,13,3,5,0.4,0.5
2026-06-29T0000,4292A,116.352738,37.420875,德州市,新河东路,,48,7,51,6,26,151,151,224,186,10,20,9,13,0.5,0.8
2026-06-29T0000,2621A,99.7054,27.8319,迪庆藏族自治州,迪庆州站,,19,19,14,13,6,59,59,74,64,9,8,6,6,0.2,0.2
2026-06-29T0000,3180A,99.7122,27.8129,迪庆藏族自治州,质量技术监督局,,24,13,13,8,6,74,74,79,72,6,9,10,10,0.3,0.4
2026-06-29T0000,4257A,104.6092,35.5962,定西市,将台街,,41,37,42,3,14,129,129,150,138,10,14,3,5,0.2,0.2
2026-06-29T0000,4309A,104.6159,35.5701,定西市,正龙路62号,,44,37,49,6,14,139,139,145,136,5,10,4,5,0.1,0.1
2026-06-29T0000,4071A,114.9883,38.5232,定州市,交通局,,32,18,44,13,18,102,102,213,165,16,19,3,6,0.4,0.6
2026-06-29T0000,4072A,115.0045,38.5136,定州市,第五中学,,32,32,52,13,19,87,87,205,162,21,21,3,5,0.3,0.4
2026-06-29T0000,1390A,113.7943,23.0132,东莞市,东城石井,,32,32,15,22,12,11,11,67,31,24,16,1,2,0.7,0.6
2026-06-29T0000,1391A,113.7384,22.9659,东莞市,南城西平,,32,32,19,22,10,9,9,43,23,44,25,3,3,0.7,0.4
2026-06-29T0000,3319A,113.7283,23.041,东莞市,万江金泰,,29,29,37,16,11,39,39,80,62,46,25,7,5,0.4,0.4
2026-06-29T0000,4129A,113.8666,23.1062,东莞市,裕兴路,,29,29,23,17,10,34,34,56,42,20,21,8,8,0.7,0.7
2026-06-29T0000,4130A,114.0076,22.9739,东莞市,教育路1号,,34,34,24,19,13,11,11,56,26,34,24,6,6,0.7,0.7
2026-06-29T0000,4131A,113.7981,22.8124,东莞市,长怡路1号,,41,41,23,24,11,7,7,56,25,34,19,4,3,0.7,0.6
2026-06-29T0000,1666A,118.6612,37.4313,东营市,市环保局,,44,44,57,30,28,118,118,236,174,19,22,5,8,0.5,0.7
2026-06-29T0000,3036A,118.6903,37.4337,东营市,开发区管委会,,46,46,63,30,27,120,120,239,177,21,25,15,15,0.5,0.6
2026-06-29T0000,3365A,118.5721,37.5654,东营市,垦利区民丰路,细颗粒物(PM2.5),84,63,62,52,31,118,118,238,168,22,20,14,14,0.5,0.5
2026-06-29T0000,3498A,118.5063,37.8606,东营市,河口城区,细颗粒物(PM2.5),76,NA,50,48,30,115,115,258,186,15,16,5,9,0.8,0.9
2026-06-29T0000,3646A,118.4979,37.4623,东营市,胜利站,细颗粒物(PM2.5),54,44,61,37,22,141,141,222,166,14,24,8,10,0.8,0.8
2026-06-29T0000,3734A,118.5753,37.4405,东营市,理想之城,细颗粒物(PM2.5),64,44,48,42,23,105,105,237,169,28,25,8,11,0.5,0.6
2026-06-29T0000,1591A,110.0024,39.8127,鄂尔多斯市,综合楼,,44,44,41,12,18,113,113,138,126,28,18,13,12,0.6,0.5
2026-06-29T0000,1592A,109.9485,39.8259,鄂尔多斯市,巴音孟克林场办事处,,46,46,35,11,17,106,106,136,131,27,14,8,6,0.4,0.4
2026-06-29T0000,1593A,109.7734,39.5987,鄂尔多斯市,康泽苑,,31,22,35,15,14,99,99,141,132,20,13,9,10,0.3,0.3
2026-06-29T0000,1594A,109.8121,39.5987,鄂尔多斯市,华泰汽车城,,27,27,35,15,16,81,81,128,121,32,15,8,7,0.5,0.5
2026-06-29T0000,1595A,109.9734,39.7884,鄂尔多斯市,奥林花园,,41,41,44,12,16,95,95,128,107,25,16,6,4,0.5,0.4
2026-06-29T0000,2436A,114.894,30.3989,鄂州市,市政府,颗粒物(PM10),65,70,71,37,41,110,110,194,150,20,27,19,10,0.7,0.7
2026-06-29T0000,2437A,114.8986,30.3714,鄂州市,赵家坝,NA,NA,NA,60,NA,35,113,113,199,156,NA,17,14,13,0.7,0.8
2026-06-29T0000,3654A,114.8093,30.4091,鄂州市,精准医疗中心,颗粒物(PM10),55,56,61,36,42,105,105,195,147,23,24,6,9,1.8,1.1
2026-06-29T0000,2454A,109.4978,30.2979,恩施土家族苗族自治州,湖北民院,,33,33,32,19,18,31,31,95,68,12,7,4,4,0.5,0.5
2026-06-29T0000,3549A,109.5061,30.3771,恩施土家族苗族自治州,龙凤新区,,32,32,28,22,19,26,26,91,53,11,8,6,6,0.5,0.5
2026-06-29T0000,2499A,108.3411,21.6159,防城港市,沙万,,27,27,28,11,17,56,56,71,65,30,16,4,4,0.6,0.8
2026-06-29T0000,2500A,108.3515,21.7733,防城港市,防城档案局,,29,29,25,20,12,44,44,57,55,7,6,9,6,0.7,0.7
2026-06-29T0000,2501A,108.3506,21.6414,防城港市,大海花园,,23,21,25,15,18,71,71,82,79,21,10,9,10,0.6,0.8
2026-06-29T0000,1371A,113.1293,23.0065,佛山市,湾梁,,32,22,12,22,14,10,10,55,42,38,20,/,/,/,/
2026-06-29T0000,1372A,113.1082,23.0477,佛山市,华材职中,,36,29,14,25,17,27,27,58,49,23,14,7,7,0.5,0.5
2026-06-29T0000,1373A,113.1439,23.045,佛山市,南海气象局,,37,37,20,22,16,17,17,50,38,36,24,/,/,/,/
2026-06-29T0000,1374A,113.2879,22.8094,佛山市,顺德苏岗,,40,NA,9,28,15,9,9,49,31,39,26,/,/,0.8,0.9
2026-06-29T0000,1376A,112.8384,22.8678,佛山市,高明孔堂,,20,20,20,10,12,22,22,49,36,9,10,/,/,/,/
2026-06-29T0000,1377A,112.8835,23.1584,佛山市,三水监测站,,26,19,19,18,20,14,14,50,24,24,22,5,6,0.8,0.7
2026-06-29T0000,1378A,112.8668,23.185,佛山市,三水云东海,,32,28,24,22,19,8,8,56,26,25,17,/,/,/,/
2026-06-29T0000,3625A,113.2568,22.7629,佛山市,容桂街道办,,38,NA,11,26,18,17,17,49,33,29,27,/,/,/,/
2026-06-29T0000,1282A,119.2681,26.0506,福州市,师大,,50,35,24,35,17,97,97,100,94,8,11,4,4,0.6,0.6
2026-06-29T0000,1283A,119.2983,26.1028,福州市,五四北路,细颗粒物(PM2.5),52,NA,22,36,17,76,76,96,75,15,15,4,4,0.7,0.6
2026-06-29T0000,1284A,119.2648,26.0769,福州市,杨桥西路,,46,NA,22,32,16,96,96,102,89,9,12,3,3,/,/
2026-06-29T0000,3048A,119.5799,26.0937,福州市,九龙,细颗粒物(PM2.5),56,NA,23,38,16,65,65,109,86,7,6,6,6,0.4,0.4
2026-06-29T0000,3526A,119.5188,25.9666,福州市,吴航,,33,32,30,23,23,58,58,107,92,9,14,6,6,0.6,0.6
2026-06-29T0000,4104A,119.3106,26.0648,福州市,路通桥巷6号,,45,38,26,31,20,90,90,100,88,7,10,/,/,/,/
2026-06-29T0000,1755A,123.7974,41.8494,抚顺市,望花区,,35,32,45,24,24,79,79,153,110,19,24,11,10,1.0,0.9
2026-06-29T0000,1756A,123.9161,41.8827,抚顺市,顺城区,颗粒物(PM10),51,51,39,22,20,54,54,168,122,38,23,12,11,0.7,0.8
2026-06-29T0000,1757A,124.0437,41.8615,抚顺市,东洲区,,31,31,27,17,16,98,98,166,129,12,13,18,12,0.2,0.4
2026-06-29T0000,1758A,123.9246,41.8638,抚顺市,新抚区,细颗粒物(PM2.5),113,NA,36,74,25,71,71,178,124,16,20,6,7,0.7,0.8
2026-06-29T0000,1759A,124.0972,41.8961,抚顺市,大伙房水库,,26,19,25,18,18,70,70,170,128,22,18,10,12,0.6,0.7
2026-06-29T0000,1760A,123.708,41.8386,抚顺市,沈抚新城,,37,37,46,18,23,64,64,165,108,33,30,8,11,0.7,0.9
2026-06-29T0000,2377A,116.3544,27.9833,抚州市,市站,,26,26,42,7,27,38,38,104,73,1,3,2,7,0.6,0.6
2026-06-29T0000,2378A,116.3562,27.9631,抚州市,血防站,,22,22,42,7,26,33,33,108,66,11,10,4,7,0.7,0.8
2026-06-29T0000,2379A,116.3561,28.0007,抚州市,采茶剧团,,30,30,44,3,25,42,42,113,80,7,10,4,4,0.6,0.7
2026-06-29T0000,2380A,116.3854,27.9648,抚州市,医学分院,,13,12,41,3,23,40,40,108,67,4,6,3,4,0.8,0.9
2026-06-29T0000,2207A,121.6095,41.9978,阜新市,工业园区,细颗粒物(PM2.5),101,75,45,61,30,103,103,175,146,31,18,8,9,0.5,0.5
2026-06-29T0000,2208A,121.6567,42.0188,阜新市,长青街,细颗粒物(PM2.5),84,70,44,52,28,147,147,188,173,21,15,13,10,0.6,0.6
2026-06-29T0000,2209A,121.6672,42.07,阜新市,农业园区,细颗粒物(PM2.5),88,67,48,54,31,155,155,182,177,18,13,9,8,1.0,1
2026-06-29T0000,2211A,121.6343,42.0455,阜新市,玉龙新城,细颗粒物(PM2.5),110,76,47,70,29,87,87,165,141,36,18,6,7,0.8,0.8
2026-06-29T0000,2301A,115.8276,32.8929,阜阳市,市监测站,,49,49,51,29,29,127,127,188,158,14,15,5,6,0.4,0.4
2026-06-29T0000,2303A,115.8551,32.8606,阜阳市,开发区,颗粒物(PM10),60,64,57,36,29,143,143,190,164,13,13,4,4,0.4,0.4
2026-06-29T0000,2875A,115.783962,32.889217,阜阳市,阜阳职业技术学院,臭氧1小时(O3_1h),58,51,52,34,29,166,166,192,175,5,6,4,4,0.5,0.5
2026-06-29T0000,3468A,115.79,32.8614,阜阳市,市规划展馆,颗粒物(PM10),59,62,55,37,32,143,143,190,163,12,14,3,3,0.5,0.5
2026-06-29T0000,3469A,115.835101,32.918568,阜阳市,枣园社区,,49,48,51,34,33,136,136,186,153,14,19,2,2,0.4,0.4
2026-06-29T0000,2669A,102.9097,34.9841,甘南藏族自治州,州政府,,37,27,31,6,14,117,117,124,116,5,14,3,4,0.2,0.2
2026-06-29T0000,3380A,102.8915,34.9618,甘南藏族自治州,甘肃民族师范学院,,36,26,35,11,14,115,115,130,115,11,20,3,4,0.3,0.3
2026-06-29T0000,2570A,101.96,30.048,甘孜藏族自治州,水桥子,,14,12,11,3,4,23,23,62,47,28,16,2,2,0.1,0.2
2026-06-29T0000,3065A,101.9534,29.9976,甘孜藏族自治州,州环保局,,22,9,11,3,5,22,22,63,52,44,17,2,2,0.3,0.3
2026-06-29T0000,2363A,114.9368,25.8663,赣州市,地委,,17,16,31,3,14,52,52,87,67,2,8,3,4,0.6,0.8
2026-06-29T0000,2364A,114.946,25.8483,赣州市,气象台,,18,18,28,8,19,48,48,80,63,8,11,3,4,0.5,0.6
2026-06-29T0000,2365A,114.932,25.8332,赣州市,市图书馆,,18,6,25,3,13,56,56,82,68,6,8,3,5,0.9,0.9
2026-06-29T0000,2366A,114.8905,25.8472,赣州市,华坚鞋城,,15,12,34,3,17,46,46,86,66,8,12,1,1,0.3,0.4
2026-06-29T0000,3109A,115.0094,25.8614,赣州市,赣县区卫计委,,17,6,21,3,11,54,54,83,65,4,8,1,3,0.3,0.4
2026-06-29T0000,2684A,106.2753,36.0057,固原市,监测站,,39,13,35,3,13,124,124,136,130,8,7,5,6,0.3,0.3
2026-06-29T0000,2685A,106.2384,36.0189,固原市,新区,,32,NA,32,11,13,102,102,131,122,9,6,6,6,0.4,0.3
2026-06-29T0000,2544A,106.6307,30.4577,广安市,市委,,32,32,30,18,22,52,52,97,76,12,11,6,6,0.6,0.2
2026-06-29T0000,2545A,106.6266,30.4662,广安市,友谊中学,,38,32,27,26,21,61,61,100,83,11,10,9,8,0.5,0.6
2026-06-29T0000,2547A,106.6386,30.4551,广安市,广电花园,,29,22,20,20,23,52,52,93,73,12,10,8,8,0.6,0.6
2026-06-29T0000,2902A,106.6347,30.4868,广安市,北辰小学,,36,26,26,25,24,61,61,102,85,14,11,7,6,0.5,0.5
2026-06-29T0000,2524A,105.8211,32.4444,广元市,老城,颗粒物(PM10),53,54,30,26,20,50,50,112,88,18,13,10,10,0.6,0.6
2026-06-29T0000,2526A,105.8629,32.429,广元市,监测站,颗粒物(PM10),53,54,44,23,19,52,52,101,84,15,12,6,7,0.7,0.7
2026-06-29T0000,3617A,105.8047,32.4167,广元市,经开区,,35,35,37,24,24,50,50,105,85,21,17,7,11,0.5,0.6
2026-06-29T0000,1345A,113.2346,23.1423,广州市,广雅中学,,22,20,15,15,11,27,27,55,46,28,20,6,4,0.7,0.7
2026-06-29T0000,1346A,113.2611,23.105,广州市,市五中,,25,19,13,17,12,22,22,64,51,33,18,3,3,/,/
2026-06-29T0000,1348A,113.3477,23.0916,广州市,广东商学院,,23,20,14,13,10,5,5,53,35,45,20,4,4,0.6,0.6
2026-06-29T0000,1349A,113.4332,23.105,广州市,市八十六中,,30,30,11,19,8,4,4,50,24,51,30,8,6,/,/
2026-06-29T0000,1350A,113.3506,22.9488,广州市,番禺中学,,20,20,11,11,9,17,17,55,37,34,18,5,5,0.7,0.7
2026-06-29T0000,1351A,113.2147,23.3918,广州市,花都师范,,20,20,19,14,12,21,21,62,48,33,22,3,2,0.9,0.8
2026-06-29T0000,1352A,113.2599,23.1329,广州市,市监测站,,22,21,15,15,11,29,29,61,50,23,15,3,3,/,/
2026-06-29T0000,1353A,113.5618,23.3119,广州市,九龙镇镇龙,,20,18,11,14,9,23,23,43,33,20,19,7,6,0.6,0.6
2026-06-29T0000,1354A,113.2764,23.1544,广州市,麓湖,,18,18,15,12,11,22,22,56,42,24,21,6,6,0.9,0.9
2026-06-29T0000,2846A,113.3209,23.1323,广州市,体育西,,21,16,13,13,10,14,14,49,37,42,24,5,4,0.5,0.5
2026-06-29T0000,3298A,113.5718,23.5493,广州市,从化街口,,13,13,12,9,9,35,35,55,42,11,13,7,7,0.5,0.6
2026-06-29T0000,3299A,113.3463,23.369,广州市,白云竹料,,32,30,15,22,11,22,22,58,46,24,18,2,2,0.7,0.7
2026-06-29T0000,3300A,113.2981,23.2365,广州市,白云嘉禾,,25,25,16,17,11,12,12,53,37,40,25,12,12,/,/
2026-06-29T0000,3301A,113.4256,23.1716,广州市,黄埔科学城,NA,NA,NA,14,NA,9,NA,NA,56,32,NA,20,10,7,0.8,0.6
2026-06-29T0000,3302A,113.3942,23.0485,广州市,番禺大学城,,27,14,16,10,6,3,3,58,29,54,21,4,4,0.4,0.4
2026-06-29T0000,3303A,113.4923,22.8169,广州市,南沙黄阁,,26,14,13,10,8,8,8,52,38,51,21,7,6,/,/
2026-06-29T0000,3304A,113.534,22.7893,广州市,南沙街,,26,19,14,10,8,10,10,52,34,52,20,8,8,0.5,0.5
2026-06-29T0000,3443A,113.2905,23.5541,广州市,花都梯面,,21,21,16,14,11,39,39,65,53,14,12,10,8,/,/
2026-06-29T0000,3445A,113.786,23.7479,广州市,从化良口,,15,15,7,7,6,24,24,66,39,11,10,4,4,/,/
2026-06-29T0000,3446A,113.805,23.2614,广州市,增城荔城,,28,26,14,19,10,22,22,52,31,20,15,9,8,0.5,0.5
2026-06-29T0000,2506A,109.604387,23.066791,贵港市,江南子站,,17,17,31,10,18,36,36,100,72,17,15,4,5,0.9,0.9
2026-06-29T0000,2508A,109.5669,23.1065,贵港市,荷城子站,,15,14,22,10,12,44,44,98,71,9,13,5,6,0.7,0.8
2026-06-29T0000,3405A,109.5886,23.1172,贵港市,新世纪学校,,17,17,22,10,13,42,42,97,70,8,11,/,/,0.6,0.7
2026-06-29T0000,4260A,109.5933,23.095,贵港市,中山路155-3号,,29,29,37,13,19,38,38,107,74,15,16,/,/,0.7,0.8
2026-06-29T0000,1439A,106.6863,26.6035,贵阳市,马鞍山,,25,22,25,17,16,18,18,57,39,10,9,7,8,/,/
2026-06-29T0000,1441A,106.6241,26.6266,贵阳市,鉴湖路,,41,41,39,17,17,43,43,60,51,10,10,6,7,0.8,0.8
2026-06-29T0000,1442A,106.7468,26.6344,贵阳市,燕子冲,,39,39,36,21,17,19,19,64,45,21,11,8,8,0.7,0.6
2026-06-29T0000,1443A,106.6556,26.4362,贵阳市,碧云窝,,39,39,43,21,20,34,34,72,54,17,12,5,7,/,/
2026-06-29T0000,1445A,106.6963,26.6063,贵阳市,红边门,,36,36,30,23,19,27,27,66,48,19,12,6,7,/,/
2026-06-29T0000,1446A,106.7162383,26.56964667,贵阳市,新华路,,44,44,38,24,18,18,18,74,48,28,12,4,18,0.7,0.4
2026-06-29T0000,1447A,106.6742,26.542,贵阳市,太慈桥,,35,31,28,24,18,8,8,70,33,18,13,3,3,/,/
2026-06-29T0000,4230A,106.688212,26.56952,贵阳市,花果园大街66号,,50,50,37,25,19,48,48,75,64,16,11,2,2,/,/
2026-06-29T0000,4231A,106.687268,26.516892,贵阳市,漓江路57号,,32,29,29,22,19,26,26,62,49,22,15,2,2,0.8,0.8
2026-06-29T0000,1864A,110.3091,25.2705,桂林市,龙隐路小学,,38,38,32,26,23,76,76,102,86,8,6,4,5,0.7,0.6
2026-06-29T0000,1865A,110.2849361,25.22909545,桂林市,八中,,37,37,35,16,12,81,81,114,90,11,11,5,7,0.9,0.8
2026-06-29T0000,3531A,110.296,25.1254,桂林市,旅游学院,,42,42,37,29,28,80,80,110,81,3,6,8,13,0.5,0.5
2026-06-29T0000,4222A,110.1835,25.2444,桂林市,环湖路276号,,50,NA,34,35,29,85,85,110,92,7,9,12,24,0.6,0.7
2026-06-29T0000,4301A,110.2803,25.2773,桂林市,信义路13号,细颗粒物(PM2.5),60,NA,33,40,21,77,77,107,90,9,8,5,7,0.7,0.7
2026-06-29T0000,2674A,100.2262,34.4854,果洛藏族自治州,玛沁县大武镇,,26,26,25,6,8,81,81,123,104,2,2,12,13,0.4,0.3
2026-06-29T0000,1130A,126.5557,45.8109,哈尔滨市,松北商大,,42,34,23,29,15,57,57,103,85,19,20,5,5,0.5,0.4
2026-06-29T0000,1132A,126.6162,45.719,哈尔滨市,南岗学府路,颗粒物(PM10),58,60,36,38,11,21,21,120,91,81,30,8,6,0.4,0.3
2026-06-29T0000,1133A,126.6894,45.7733,哈尔滨市,太平宏伟公园,颗粒物(PM10),53,53,30,29,9,33,33,112,86,57,26,6,6,0.3,0.3
2026-06-29T0000,1134A,126.6361,45.7672,哈尔滨市,道外承德广场,颗粒物(PM10),64,69,43,26,10,39,39,116,103,60,29,5,5,0.4,0.3
2026-06-29T0000,1136A,126.644,45.7261,哈尔滨市,动力和平路,颗粒物(PM10),70,78,33,28,11,29,29,122,92,66,27,9,6,0.5,0.4
2026-06-29T0000,1137A,126.5933,45.7479,哈尔滨市,道里建国路,,48,NA,27,33,14,75,75,115,101,26,18,4,5,0.7,0.5
2026-06-29T0000,1138A,126.6127,45.6119,哈尔滨市,平房东轻厂,,42,42,31,23,11,24,24,101,42,25,35,8,7,0.9,0.6
2026-06-29T0000,1139A,126.5875,45.9827,哈尔滨市,呼兰师专,,36,36,20,12,6,12,12,100,68,36,22,3,3,0.7,0.4
2026-06-29T0000,1140A,126.6299,45.6799,哈尔滨市,省农科院,颗粒物(PM10),66,72,46,33,13,17,17,109,68,79,36,5,6,0.6,0.4
2026-06-29T0000,4282A,126.6769,45.7379,哈尔滨市,华山路1号,,41,41,26,27,8,57,57,131,99,45,21,7,6,0.2,0.2
2026-06-29T0000,4283A,126.9717,45.5356,哈尔滨市,解放大街52号,颗粒物(PM10),60,64,46,14,7,60,60,114,81,26,30,4,4,0.4,0.4
2026-06-29T0000,2688A,93.5124,42.8176,哈密市,地区监测站,,34,19,17,8,8,107,107,133,126,12,8,5,6,0.4,0.4
2026-06-29T0000,2689A,93.5014,42.8312,哈密市,哈密师范学校,,32,14,27,14,13,100,100,124,108,18,13,7,7,0.1,0.1
2026-06-29T0000,2671A,100.9016,36.9464,海北藏族自治州,海晏县西海镇,,33,22,18,14,9,105,105,155,138,2,3,7,8,0.3,0.4
2026-06-29T0000,3867A,102.074,36.5056,海东市,平安区公安局北苑,,33,21,22,19,12,103,103,139,125,5,5,9,7,0.5,0.5
2026-06-29T0000,4163A,102.0984,36.5119,海东市,滨河路,,30,30,21,17,12,58,58,136,102,52,18,8,6,0.5,0.5
2026-06-29T0000,1410A,110.3189,20.0596,海口市,海南大学,,17,12,18,6,11,54,54,96,67,16,10,4,5,0.4,0.4
2026-06-29T0000,1411A,110.2827,20.0051,海口市,秀英海南医院,,17,14,16,8,12,53,53,94,61,14,10,6,5,0.3,0.3
2026-06-29T0000,1412A,110.3391,19.9979,海口市,海南师范大学,,16,9,19,6,10,50,50,96,62,8,9,3,3,0.3,0.4
2026-06-29T0000,1413A,110.3303,20.0359,海口市,龙华路环保局宿舍,,20,12,20,7,11,61,61,101,70,8,9,/,/,0.3,0.3
2026-06-29T0000,3539A,110.5111,19.9737,海口市,桂林洋子站,,15,15,21,7,10,41,41,96,55,9,9,/,/,/,/
2026-06-29T0000,4134A,110.1952,20.0451,海口市,长滨二路9号,,16,8,16,3,8,51,51,87,58,6,8,/,/,/,/
2026-06-29T0000,2673A,100.6158,36.2985,海南藏族自治州,共和县恰卜恰镇,,43,28,23,10,9,136,136,144,140,3,5,12,11,0.4,0.4
2026-06-29T0000,2676A,97.373,37.376,海西蒙古族藏族自治州,德令哈市,,40,37,32,12,10,127,127,141,138,2,2,19,20,0.3,0.3
2026-06-29T0000,1049A,114.492,36.5712,邯郸市,矿院,,46,NA,28,18,18,147,147,216,176,2,5,2,7,0.5,0.6
2026-06-29T0000,1050A,114.4839,36.6136,邯郸市,丛台公园,,44,NA,28,16,11,140,140,211,172,6,9,4,9,0.3,0.6
2026-06-29T0000,3458A,114.7893,36.5592,邯郸市,香泉濮院小区,,47,22,42,17,24,149,149,208,170,11,17,3,5,0.3,0.6
2026-06-29T0000,3580A,114.1998,36.4439,邯郸市,峰峰矿区临水派出所,,44,44,26,23,14,100,100,200,145,26,10,26,12,2.4,0.6
2026-06-29T0000,4068A,114.5209,36.7697,邯郸市,建安街268号,,33,33,40,3,13,94,94,210,164,15,15,3,5,0.3,0.7
2026-06-29T0000,4069A,114.5488,36.6177,邯郸市,丛台东路558号,,41,32,32,22,16,130,130,206,167,5,12,4,7,0.6,0.6
2026-06-29T0000,2635A,107.0155,33.0707,汉中市,市监测站,,32,31,34,22,21,40,40,103,72,8,13,4,7,0.4,0.4
2026-06-29T0000,2636A,107.0083,33.114,汉中市,鑫源开发区,细颗粒物(PM2.5),60,40,31,40,17,39,39,115,78,19,14,6,9,0.5,0.4
2026-06-29T0000,2637A,107.0072,33.0323,汉中市,南郑大河坎水厂,,38,38,30,26,19,31,31,95,60,11,10,4,4,0.6,0.6
2026-06-29T0000,1223A,120.2073,30.2111,杭州市,滨江,,28,26,41,19,27,83,83,173,133,11,20,5,5,0.5,0.5
2026-06-29T0000,1224A,120.0625,30.2737,杭州市,西溪,,48,40,38,33,29,64,64,157,123,11,14,4,4,0.7,0.6
2026-06-29T0000,1226A,120.3417,30.315,杭州市,下沙,,29,26,36,20,34,55,55,174,116,20,22,4,5,0.6,0.6
2026-06-29T0000,1227A,120.1252,30.2465,杭州市,卧龙桥,,48,36,36,33,28,29,29,179,105,14,11,8,8,0.7,0.5
2026-06-29T0000,1228A,120.1902,30.2691,杭州市,浙江农大,,36,34,38,25,28,54,54,160,108,28,26,7,7,0.6,0.5
2026-06-29T0000,1230A,120.1195,30.3121,杭州市,和睦小学,,42,36,34,29,28,54,54,183,136,22,13,9,8,0.7,0.6
2026-06-29T0000,1231A,120.3076,30.4146,杭州市,临平镇,,39,39,52,26,35,73,73,192,134,17,21,7,7,0.6,0.6
2026-06-29T0000,1232A,120.2753,30.1839,杭州市,城厢镇,,32,32,40,18,29,71,71,162,124,19,20,5,6,0.8,0.8
2026-06-29T0000,1233A,120.0883,30.1808,杭州市,云栖,,38,38,36,26,22,21,21,155,73,28,22,4,5,0.7,0.6
2026-06-29T0000,3557A,119.9463,30.0496,杭州市,镇二中,,40,34,36,28,23,37,37,143,92,50,27,5,6,0.7,0.7
2026-06-29T0000,3558A,119.7184,30.2367,杭州市,市府大楼,,45,38,26,31,23,50,50,144,119,22,11,8,8,0.6,0.6
2026-06-29T0000,3656A,120.1554,30.2863,杭州市,消防大队,,38,33,36,26,28,49,49,172,124,25,16,8,8,0.8,0.8
2026-06-29T0000,1270A,117.1957,31.7845,合肥市,明珠广场,细颗粒物(PM2.5),111,83,69,72,48,134,134,195,176,29,18,8,8,0.8,0.7
2026-06-29T0000,1271A,117.307,31.8765,合肥市,三里街,细颗粒物(PM2.5),88,63,67,54,47,146,146,174,164,22,22,10,9,0.9,0.8
2026-06-29T0000,1272A,117.2587,31.8703,合肥市,琥珀山庄,细颗粒物(PM2.5),62,53,60,41,39,134,134,182,166,16,11,7,7,0.8,0.8
2026-06-29T0000,1275A,117.2593,31.9376,合肥市,庐阳区,颗粒物(PM10),63,68,68,38,40,127,127,194,165,38,28,8,11,0.8,0.7
2026-06-29T0000,1276A,117.345251,31.861615,合肥市,瑶海区,细颗粒物(PM2.5),86,70,68,53,43,124,124,182,156,36,22,9,9,0.9,0.8
2026-06-29T0000,1277A,117.3033,31.7967,合肥市,包河区,细颗粒物(PM2.5),72,78,70,46,40,31,31,174,124,142,55,11,10,0.9,0.9
2026-06-29T0000,1278A,117.278,31.7392,合肥市,滨湖新区,细颗粒物(PM2.5),68,66,63,44,38,146,146,176,167,17,11,11,12,0.9,0.8
2026-06-29T0000,1279A,117.1324,31.8395,合肥市,高新区,细颗粒物(PM2.5),70,68,68,45,42,145,145,184,170,22,16,7,8,0.8,0.7
2026-06-29T0000,3464A,117.3802,31.9148,合肥市,高教基地,细颗粒物(PM2.5),74,70,61,47,36,112,112,187,148,21,13,5,5,0.8,0.7
2026-06-29T0000,4098A,117.2518,31.8404,合肥市,中国科学技术大学,细颗粒物(PM2.5),70,66,64,45,44,174,174,203,190,18,15,10,10,0.8,0.8
2026-06-29T0000,3614A,79.9241,37.0878,和田地区,地区环保局,颗粒物(PM10),196,342,166,49,27,127,127,147,138,3,6,7,8,0.1,0.1
2026-06-29T0000,3615A,79.9132,37.1137,和田地区,市环保局,颗粒物(PM10),147,242,138,36,28,129,129,144,138,4,7,2,2,0.2,0.3
2026-06-29T0000,2517A,108.0496,24.6957,河池市,市环保站,,22,22,19,13,8,16,16,56,38,14,9,3,3,1.0,0.9
2026-06-29T0000,4302A,108.0901,24.6945,河池市,上任中路54号,,35,35,20,15,9,7,7,72,45,26,11,3,3,0.9,0.8
2026-06-29T0000,1697A,114.6962,23.7538,河源市,东埔,,17,17,12,10,7,24,24,55,45,15,7,7,4,0.6,0.7
2026-06-29T0000,1698A,114.6895,23.7232,河源市,老城,,13,13,15,8,9,33,33,56,44,9,9,10,8,0.5,0.7
2026-06-29T0000,3374A,115.5562,35.089,菏泽市,定陶老年大学,细颗粒物(PM2.5),70,68,55,45,30,166,166,196,190,12,11,3,3,0.4,0.2
2026-06-29T0000,4114A,115.4239,35.2593,菏泽市,黄河路600号,颗粒物(PM10),62,66,59,40,31,154,154,185,174,9,9,6,5,0.4,0.4
2026-06-29T0000,4115A,115.5025,35.2727,菏泽市,菏泽市人社局,"颗粒物(PM10),细颗粒物(PM2.5)",60,64,55,40,32,153,153,168,163,14,15,6,7,0.4,0.4
2026-06-29T0000,4184A,115.479691,35.244011,菏泽市,永昌路1号,"细颗粒物(PM2.5),臭氧1小时(O3_1h)",64,66,62,42,31,171,171,191,181,12,12,6,7,0.3,0.2
2026-06-29T0000,4193A,115.471542,35.280012,菏泽市,长城路999号,臭氧1小时(O3_1h),62,53,49,34,30,169,169,184,178,11,11,11,12,0.6,0.6
2026-06-29T0000,2514A,111.5264,24.4178,贺州市,环保小区,,16,16,30,7,15,48,48,98,70,6,9,4,4,0.4,0.5
2026-06-29T0000,2515A,111.561,24.4074,贺州市,政协大楼,NA,NA,NA,26,NA,17,NA,NA,101,NA,NA,13,NA,13,NA,0.8
2026-06-29T0000,3534A,111.4744,24.455,贺州市,西湾,,34,34,36,6,17,40,40,84,61,9,9,7,9,0.4,0.5
2026-06-29T0000,2385A,114.17,35.9019,鹤壁市,市监测站,,44,44,45,10,28,97,97,178,139,11,7,6,5,0.6,0.5
2026-06-29T0000,2386A,114.2953,35.7512,鹤壁市,市交警支队,细颗粒物(PM2.5),54,51,52,37,35,80,80,202,154,29,17,5,8,0.6,0.6
2026-06-29T0000,2387A,114.2877,35.7302,鹤壁市,迎宾馆,,36,NA,46,25,25,85,85,212,163,24,13,8,8,0.6,0.7
2026-06-29T0000,3474A,114.2616,35.6824,鹤壁市,大新区,细颗粒物(PM2.5),58,NA,49,39,32,95,95,209,162,23,16,7,8,0.4,0.4
2026-06-29T0000,3596A,114.1573,35.9607,鹤壁市,南山宾馆,细颗粒物(PM2.5),58,NA,35,39,34,92,92,171,130,16,8,9,10,0.5,0.4
2026-06-29T0000,2244A,130.2537,47.3416,鹤岗市,哈啤分公司,,35,35,24,13,11,32,32,73,52,12,10,1,5,0.7,0.4
2026-06-29T0000,2245A,130.2683,47.3087,鹤岗市,斯达机电,,33,33,20,15,8,22,22,72,56,18,8,5,5,0.3,0.2
2026-06-29T0000,2246A,130.3114,47.3388,鹤岗市,东山纸板厂,颗粒物(PM10),136,212,41,24,12,1,1,62,31,29,15,7,6,0.5,0.3
2026-06-29T0000,2263A,127.4832,50.2524,黑河市,交通局,,27,27,19,13,9,28,28,76,50,11,10,5,5,0.4,0.2
2026-06-29T0000,2264A,127.5146,50.2339,黑河市,环保局,,43,43,18,19,11,22,22,72,52,19,10,7,8,0.4,0.3
2026-06-29T0000,1074A,115.6839,37.754,衡水市,电机北厂,颗粒物(PM10),53,53,73,17,30,152,152,218,186,10,18,6,9,0.6,0.6
2026-06-29T0000,1075A,115.6303,37.7318,衡水市,市监测站,,46,43,65,3,25,147,147,213,179,10,16,10,12,0.8,0.9
2026-06-29T0000,3188A,115.6684,37.7216,衡水市,市城管局,,46,41,70,18,27,145,145,216,185,9,14,8,12,0.2,0.4
2026-06-29T0000,3459A,115.599,37.5491,衡水市,地表水厂,,46,24,69,16,31,147,147,223,187,12,21,8,12,0.3,0.5
2026-06-29T0000,2457A,112.6209,26.9268,衡阳市,衡阳化工总厂,细颗粒物(PM2.5),54,47,46,37,29,69,69,126,101,11,10,7,5,0.9,0.9
2026-06-29T0000,2458A,112.621,26.8957,衡阳市,珠晖区环保局,,39,39,44,27,25,82,82,129,104,16,20,6,7,0.9,0.9
2026-06-29T0000,2459A,112.628,26.8654,衡阳市,市委党校,,43,41,44,30,28,95,95,133,113,8,9,9,9,0.6,0.7
2026-06-29T0000,2460A,112.6007,26.8977,衡阳市,市监测站,,42,NA,35,29,29,96,96,135,115,10,12,8,8,1.3,1.3
2026-06-29T0000,2461A,112.5658,26.9013,衡阳市,真空机电公司,,46,38,42,32,30,92,92,142,115,15,13,10,6,1.1,1.1
2026-06-29T0000,3399A,112.6703,26.8817,衡阳市,师范学院,,40,36,48,28,30,97,97,136,116,8,11,9,9,0.8,0.8
2026-06-29T0000,3038A,103.3757,23.3679,红河哈尼族彝族自治州,州图书馆,,15,14,7,10,7,35,35,47,40,4,3,3,3,0.4,0.3
2026-06-29T0000,4154A,103.401,23.3561,红河哈尼族彝族自治州,蒙自市朝阳路,,13,11,12,9,7,31,31,46,37,4,2,6,6,0.3,0.3
2026-06-29T0000,1090A,111.6506,40.7517,呼和浩特市,呼市一监,,34,14,27,3,12,107,107,160,126,14,11,11,12,0.4,0.5
2026-06-29T0000,1094A,111.7516,40.8369,呼和浩特市,如意水处理厂,,30,16,31,16,17,95,95,172,120,15,17,7,9,0.5,0.5
2026-06-29T0000,1095A,111.727798,40.806187,呼和浩特市,二十九中,,27,25,32,3,20,84,84,162,119,20,16,9,11,0.8,0.8
2026-06-29T0000,1097A,111.717,40.7617,呼和浩特市,化肥厂生活区,,28,18,29,17,20,87,87,164,122,19,14,11,13,0.8,0.7
2026-06-29T0000,3699A,111.6519,40.8389,呼和浩特市,海东办,,30,9,29,3,9,93,93,160,118,17,16,6,8,0.5,0.5
2026-06-29T0000,4275A,111.591512,40.827312,呼和浩特市,成吉思汗西街8号,,25,14,33,3,11,79,79,154,102,36,28,4,7,0.3,0.4
2026-06-29T0000,4276A,111.6597,40.8077,呼和浩特市,公园东路75号,,36,12,28,3,11,114,114,167,135,17,16,10,12,0.7,0.8
2026-06-29T0000,4277A,111.5427,40.7846,呼和浩特市,金海路35号,,31,21,36,8,15,98,98,147,112,13,20,5,7,0.5,0.5
2026-06-29T0000,3061A,119.7511,49.1576,呼伦贝尔市,国华电力东,,30,23,26,14,16,95,95,99,86,7,9,5,5,0.3,0.4
2026-06-29T0000,4279A,119.7569,49.2222,呼伦贝尔市,伊敏大街东7号,,30,28,29,16,17,94,94,99,82,10,13,6,5,0.4,0.4
2026-06-29T0000,1250A,120.075,30.867,湖州市,城西水厂,,38,36,54,22,39,119,119,224,182,8,9,5,6,0.5,0.6
2026-06-29T0000,2873A,120.083,30.8929,湖州市,仁皇山新区,,32,32,49,21,38,80,80,184,142,11,13,5,6,0.6,0.6
2026-06-29T0000,2907A,120.1846,30.8592,湖州市,吴兴区站,NA,NA,23,39,19,33,NA,NA,174,NA,14,17,6,7,0.5,0.5
2026-06-29T0000,3562A,120.4146,30.8538,湖州市,南浔区站,,28,28,38,17,31,75,75,156,115,14,16,8,9,0.7,0.7
2026-06-29T0000,1607A,120.904878,40.721091,葫芦岛市,龙港区,细颗粒物(PM2.5),62,42,37,41,27,145,145,188,169,9,9,8,10,0.6,0.6
2026-06-29T0000,1608A,120.8382,40.7521,葫芦岛市,化工街,颗粒物(PM10),70,78,47,38,27,97,97,172,135,39,21,14,16,0.7,0.5
2026-06-29T0000,1609A,120.8339,40.7078,葫芦岛市,新区,,48,48,38,26,28,123,123,168,142,12,10,5,6,0.5,0.5
2026-06-29T0000,1610A,120.8697,40.7679,葫芦岛市,东城区,细颗粒物(PM2.5),70,56,42,45,32,120,120,172,NA,27,16,4,4,0.8,0.7
2026-06-29T0000,2483A,109.9297,27.5383,怀化市,河西地税局,,49,36,29,34,21,32,32,98,76,20,8,8,10,/,/
2026-06-29T0000,2484A,109.9783,27.5342,怀化市,市四医院,,45,45,42,30,24,53,53,107,85,11,12,8,8,0.6,0.5
2026-06-29T0000,2485A,109.9971,27.5579,怀化市,监测楼,,46,40,38,32,24,51,51,112,83,11,10,8,8,0.6,0.6
2026-06-29T0000,1210A,119.0566,33.5991,淮安市,钵池山,细颗粒物(PM2.5),62,48,44,41,32,94,94,172,143,18,13,8,10,0.5,0.7
2026-06-29T0000,1211A,119.0083,33.578,淮安市,北京南路,细颗粒物(PM2.5),64,44,46,42,35,113,113,198,164,8,11,7,8,0.9,0.9
2026-06-29T0000,1212A,118.9938,33.6083,淮安市,市监测站,细颗粒物(PM2.5),64,NA,40,42,34,118,118,194,166,10,13,7,8,0.9,1
2026-06-29T0000,1213A,119.135,33.5038,淮安市,楚州区监测站,细颗粒物(PM2.5),76,NA,45,48,37,106,106,190,153,10,13,6,6,0.7,0.8
2026-06-29T0000,3426A,118.8757,33.2897,淮安市,新华书店,颗粒物(PM10),54,55,50,28,30,127,127,190,165,10,14,8,9,0.8,0.8
2026-06-29T0000,4092A,119.119691,33.550006,淮安市,枚皋中路89号,细颗粒物(PM2.5),80,NA,48,50,36,114,114,188,158,11,12,8,9,0.7,0.8
2026-06-29T0000,4206A,119.028838,33.631911,淮安市,承德北路606号,细颗粒物(PM2.5),70,46,45,45,34,104,104,170,142,6,9,6,7,0.6,0.8
2026-06-29T0000,2282A,116.8005,33.9749,淮北市,监测站,细颗粒物(PM2.5),78,57,45,49,31,140,140,219,191,16,12,8,8,0.9,0.7
2026-06-29T0000,2283A,116.8094,33.9008,淮北市,烈山区政府,细颗粒物(PM2.5),108,95,48,68,27,133,133,225,190,17,14,6,6,0.7,0.6
2026-06-29T0000,4017A,116.7926,33.9534,淮北市,市博物馆,细颗粒物(PM2.5),86,60,44,53,31,142,142,230,198,14,10,6,5,1.0,0.6
2026-06-29T0000,4100A,116.8322,33.9884,淮北市,杜集区第一实验学校,细颗粒物(PM2.5),96,70,49,58,24,144,144,225,192,12,12,7,9,0.7,0.5
2026-06-29T0000,2277A,116.8304,32.7726,淮南市,潘集区政府,细颗粒物(PM2.5),84,69,53,52,33,111,111,195,159,18,12,7,8,0.4,0.3
2026-06-29T0000,2279A,116.8569,32.5949,淮南市,谢家集区政府,细颗粒物(PM2.5),88,NA,43,54,34,132,132,192,170,21,14,8,8,0.3,0.3
2026-06-29T0000,2280A,116.8279,32.6333,淮南市,八公山区政府,细颗粒物(PM2.5),76,57,58,48,34,153,153,195,171,11,11,10,9,0.4,0.3
2026-06-29T0000,2894A,117.0561,32.6536,淮南市,经济技术开发区消防队,细颗粒物(PM2.5),98,76,41,59,35,110,110,187,157,23,14,8,8,0.7,0.5
2026-06-29T0000,3329A,117.011,32.5891,淮南市,山南新区,细颗粒物(PM2.5),92,65,45,56,33,145,145,191,173,10,9,10,10,0.6,0.5
2026-06-29T0000,4209A,117.003137,32.644456,淮南市,国庆中路369号,细颗粒物(PM2.5),72,63,48,46,29,136,136,180,157,14,14,8,8,0.5,0.4
2026-06-29T0000,2446A,114.9021,30.474,黄冈市,职工中心,NA,NA,46,49,NA,38,100,100,200,160,11,14,10,12,0.8,0.8
2026-06-29T0000,2929A,114.8858,30.4519,黄冈市,红卫路,细颗粒物(PM2.5),72,NA,43,46,42,102,102,189,146,5,13,8,9,0.6,0.5
2026-06-29T0000,3398A,114.9134,30.4446,黄冈市,市林业局,细颗粒物(PM2.5),68,62,57,44,44,102,102,192,149,12,14,4,7,0.5,0.6
2026-06-29T0000,2672A,102.02,35.5101,黄南藏族自治州,同仁县隆务镇,,44,33,22,14,10,140,140,153,NA,1,1,10,10,0.2,0.2
2026-06-29T0000,2295A,118.2905,29.6965,黄山市,延安路89号,,25,25,27,15,18,30,30,115,73,12,6,6,6,0.4,0.4
2026-06-29T0000,2297A,118.1369,30.2755,黄山市,黄山区政府5号楼,细颗粒物(PM2.5),52,37,39,36,30,21,21,132,71,10,5,3,3,0.7,0.6
2026-06-29T0000,4210A,118.335445,29.720283,黄山市,滨江东路7-2号,,36,36,40,25,21,32,32,107,62,6,4,/,/,/,/
2026-06-29T0000,2423A,115.0547,30.2332,黄石市,沈家营,颗粒物(PM10),68,75,72,40,39,71,71,180,122,26,27,6,8,0.7,0.7
2026-06-29T0000,2426A,114.899,30.211,黄石市,铁山,,48,48,50,33,31,102,102,168,138,20,11,4,4,0.5,0.5
2026-06-29T0000,2427A,115.0259,30.2108,黄石市,团城山,颗粒物(PM10),57,59,68,31,38,118,118,204,168,16,17,5,6,0.9,0.8
2026-06-29T0000,3149A,115.0174,30.1591,黄石市,笔架山北路,颗粒物(PM10),70,78,72,34,34,126,126,205,166,6,10,6,5,0.6,0.5
2026-06-29T0000,4185A,115.078022,30.21118,黄石市,磁湖东路29号,颗粒物(PM10),69,76,70,36,40,89,89,196,149,29,25,6,6,1.1,1
2026-06-29T0000,1392A,114.4181,23.0528,惠州市,河南岸金山湖子站,,15,15,15,9,9,33,33,53,43,11,10,8,8,0.5,0.5
2026-06-29T0000,1393A,114.4055,23.0824,惠州市,下埔横江三路子站,,19,19,18,10,9,42,42,55,48,8,8,8,6,0.6,0.6
2026-06-29T0000,1395A,114.4645,22.7832,惠州市,惠阳区承修路船湖子站,,18,11,15,6,7,56,56,62,47,5,10,3,3,0.6,0.6
2026-06-29T0000,1396A,114.5316,22.7423,惠州市,大亚湾管委会子站,NA,NA,15,14,6,6,49,49,62,52,8,10,NA,5,0.5,0.6
2026-06-29T0000,3314A,114.4334,22.8134,惠州市,惠阳秋长,,18,9,12,6,7,56,56,61,44,10,13,/,/,/,/
2026-06-29T0000,3452A,114.6521,22.7755,惠州市,大亚湾霞涌,,15,15,13,6,5,30,30,66,47,14,7,/,/,/,/
2026-06-29T0000,4300A,114.4089,23.1147,惠州市,文华一路1号,,15,15,15,8,8,37,37,52,44,10,9,/,/,/,/
2026-06-29T0000,2240A,130.9618,45.2926,鸡西市,环保局,,26,26,20,15,9,38,38,90,66,16,9,9,9,0.3,0.2
2026-06-29T0000,2243A,130.9294,45.2959,鸡西市,第一中学,,23,23,19,11,10,33,33,84,64,20,8,7,8,0.3,0.3
2026-06-29T0000,3707A,131.0069,45.2988,鸡西市,欧美日汽修厂,,49,49,22,12,7,25,25,86,NA,16,8,6,6,0.5,0.4
2026-06-29T0000,2367A,114.9753,27.0803,吉安市,红声器材厂,颗粒物(PM10),51,51,57,26,34,68,68,129,103,23,11,13,8,0.4,0.5
2026-06-29T0000,2369A,114.9903,27.1313,吉安市,市环境监测站,,48,48,52,27,34,52,52,119,90,19,10,16,13,/,/
2026-06-29T0000,2370A,115.009527,27.096792,吉安市,青原区法院,,49,49,56,29,36,42,42,118,85,38,14,17,9,0.5,0.5
2026-06-29T0000,1772A,126.54,43.8622,吉林市,哈达湾,,28,28,38,19,26,64,64,104,83,17,24,6,7,0.4,0.4
2026-06-29T0000,1773A,126.5843,43.8358,吉林市,东局子,,32,31,37,22,26,58,58,100,72,13,18,4,4,0.8,0.8
2026-06-29T0000,1774A,126.5051,43.8243,吉林市,电力学院,,32,29,43,22,27,65,65,111,77,11,24,5,6,0.9,0.9
2026-06-29T0000,1775A,126.6133,43.8971,吉林市,江北,,40,NA,32,28,33,52,52,102,59,13,17,7,7,0.5,0.5
2026-06-29T0000,1776A,126.5549,43.8304,吉林市,江南公园,,33,33,40,18,26,69,69,106,78,11,16,5,6,0.1,0.1
2026-06-29T0000,2868A,126.4737,43.953,吉林市,九站,,36,33,41,25,30,70,70,104,78,12,28,2,7,0.2,0.3
2026-06-29T0000,1299A,116.9866,36.6118,济南市,科干所,,50,19,36,8,21,160,160,199,176,8,13,3,5,0.7,0.7
2026-06-29T0000,1300A,116.9379,36.6652,济南市,农科所,,48,NA,43,21,21,151,151,191,171,8,11,2,4,0.2,0.3
2026-06-29T0000,1301A,117.1265,36.6736,济南市,开发区,,37,12,43,12,22,116,116,168,138,4,7,5,6,0.5,0.5
2026-06-29T0000,1303A,117.0616,36.6865,济南市,省种子仓库,,44,NA,47,17,20,139,139,188,159,6,9,4,5,0.4,0.4
2026-06-29T0000,1304A,116.9495185,36.644937,济南市,机床二厂,,44,NA,48,18,20,139,139,185,160,6,10,4,5,0.3,0.4
2026-06-29T0000,1305A,117.0496,36.6629,济南市,市监测站,,46,15,42,10,20,145,145,188,162,8,9,3,4,0.4,0.4
2026-06-29T0000,1306A,116.7674,36.5458,济南市,长清党校,,50,NA,44,29,19,160,160,191,176,7,9,3,5,0.3,0.3
2026-06-29T0000,1961A,117.5323,36.6865,济南市,东山小学,,50,NA,52,35,25,141,141,203,177,9,11,3,6,0.3,0.3
2026-06-29T0000,3059A,117.7181,36.205,济南市,泰兴公司,,46,NA,52,24,27,146,146,211,193,7,28,8,13,0.4,0.5
2026-06-29T0000,3064A,117.6861,36.2172,济南市,莱芜战役纪念馆,,43,27,52,24,25,137,137,214,194,7,17,1,4,0.9,0.5
2026-06-29T0000,3494A,117.1673,36.9782,济南市,济阳区政府,,40,20,58,18,22,127,127,184,143,11,19,3,4,0.3,0.3
2026-06-29T0000,3495A,117.1168,36.6299,济南市,锦屏中学,,41,NA,44,11,20,131,131,159,148,4,6,7,8,0.1,0.2
2026-06-29T0000,4108A,117.7107,36.2385,济南市,山财大街5号,NA,NA,NA,48,29,25,145,145,218,197,9,21,6,10,0.3,0.4
2026-06-29T0000,4109A,116.9744,36.6889,济南市,无影山路12号,,44,NA,38,19,22,138,138,178,155,7,10,2,3,0.4,0.4
2026-06-29T0000,1653A,116.6229,35.4288,济宁市,火炬城,颗粒物(PM10),55,56,47,35,19,162,162,189,184,32,14,2,3,0.8,0.6
2026-06-29T0000,3500A,116.5808,35.3703,济宁市,北湖一中,臭氧1小时(O3_1h),79,44,37,35,20,183,183,210,205,7,6,5,6,0.5,0.4
2026-06-29T0000,3501A,116.8251,35.5592,济宁市,服务中心,细颗粒物(PM2.5),62,44,45,41,20,167,167,191,186,13,9,5,3,0.6,0.5
2026-06-29T0000,3678A,116.5907,35.4054,济宁市,市第七中学,臭氧1小时(O3_1h),82,41,44,34,19,185,185,212,207,9,8,3,3,0.4,0.3
2026-06-29T0000,4111A,116.6075,35.4566,济宁市,任和路,臭氧1小时(O3_1h),80,61,46,37,21,184,184,211,208,12,10,4,4,0.5,0.5
2026-06-29T0000,4112A,116.5648,35.3921,济宁市,文体南路1号,细颗粒物(PM2.5),74,52,39,47,17,177,177,199,197,6,5,4,5,0.7,0.7
2026-06-29T0000,4122A,112.6071,35.1015,济源市,市委党校,颗粒物(PM10),85,98,51,49,24,73,73,178,133,29,15,23,11,0.8,0.6
2026-06-29T0000,4123A,112.596,35.0702,济源市,沁园中路1号,颗粒物(PM10),68,74,41,40,23,58,58,195,143,37,17,4,4,1.0,0.7
2026-06-29T0000,2255A,130.2749,46.8028,佳木斯市,佳纺,,40,40,22,13,10,0,0,73,42,37,17,2,2,0.3,0.2
2026-06-29T0000,2257A,130.3258,46.7975,佳木斯市,环保局,,27,27,20,9,10,7,7,75,52,40,20,4,4,0.3,0.1
2026-06-29T0000,4285A,130.363,46.806,佳木斯市,顺和街,,26,24,15,15,9,4,4,75,50,52,16,3,2,0.3,0.2
2026-06-29T0000,4286A,130.3952,46.8268,佳木斯市,长安路196号,,24,24,17,8,6,6,6,78,52,48,18,4,6,0.2,0.2
2026-06-29T0000,1252A,120.7439,30.778,嘉兴市,清河小学,,30,30,35,10,16,89,89,164,117,11,15,5,6,0.5,0.6
2026-06-29T0000,1253A,120.7261,30.7477,嘉兴市,嘉兴学院,,30,24,26,19,22,94,94,172,121,12,15,5,5,0.6,0.7
2026-06-29T0000,2872A,120.7845,30.7524,嘉兴市,南湖区残联,,30,24,29,17,22,94,94,179,125,9,11,6,7,0.7,0.7
2026-06-29T0000,3407A,120.6915,30.7741,嘉兴市,秀洲住建,,30,24,32,15,21,93,93,175,126,12,15,7,7,0.6,0.6
2026-06-29T0000,1945A,98.291,39.7705,嘉峪关市,气象局,,31,29,40,14,13,99,99,142,125,10,9,5,12,0.5,0.5
2026-06-29T0000,2884A,98.2672,39.7978,嘉峪关市,酒钢宾馆,,27,27,45,9,17,85,85,140,126,12,6,6,17,0.6,0.7
2026-06-29T0000,3248A,98.2644,39.7723,嘉峪关市,雄关区,,37,37,43,14,11,84,84,141,123,14,10,4,10,0.1,0.1
2026-06-29T0000,1383A,113.1063,22.6058,江门市,北街,,29,29,17,20,12,18,18,52,37,24,12,/,/,/,/
2026-06-29T0000,1384A,113.073,22.5835,江门市,西区,,30,NA,13,21,12,30,30,55,39,19,18,/,/,/,/
2026-06-29T0000,1385A,113.0218,22.531,江门市,圭峰西,,29,21,16,20,12,23,23,58,40,18,11,/,/,/,/
2026-06-29T0000,1386A,113.0826,22.5947,江门市,东湖,,28,26,18,19,11,18,18,54,35,16,14,6,6,0.6,0.6
2026-06-29T0000,3311A,113.1077,22.5647,江门市,江海富民,,40,30,28,28,13,32,32,61,42,20,15,/,/,0.9,0.8
2026-06-29T0000,3449A,113.0496,22.4669,江门市,新会银湖,,33,33,19,20,11,3,3,46,20,35,22,3,2,0.7,0.7
2026-06-29T0000,3335A,113.3137,35.2643,焦作市,马村街道办,,49,49,41,29,23,118,118,185,151,13,14,7,9,0.6,0.4
2026-06-29T0000,3336A,113.2464,35.2374,焦作市,焦作技师学院,,48,48,34,26,21,124,124,182,158,11,13,8,9,0.8,0.5
2026-06-29T0000,3477A,113.1656,35.2536,焦作市,中站许衡医院,,44,34,35,22,21,139,139,185,164,10,8,8,8,0.5,0.4
2026-06-29T0000,3981A,113.2456,35.18,焦作市,原李万街道办,颗粒物(PM10),53,53,43,28,20,128,128,192,165,10,9,9,10,0.5,0.5
2026-06-29T0000,4264A,113.234,35.219,焦作市,新安路1731号,,47,47,46,25,22,137,137,202,175,6,5,10,11,0.7,0.6
2026-06-29T0000,4295A,113.2722,35.2121,焦作市,人民路3066号,NA,NA,44,42,34,24,NA,NA,178,NA,17,16,6,8,0.5,0.5
2026-06-29T0000,1708A,116.3701,23.5345,揭阳市,新兴,,30,30,26,12,15,22,22,65,41,19,15,6,7,0.5,0.6
2026-06-29T0000,1709A,116.3261,23.5442,揭阳市,西马,,32,32,27,14,15,22,22,67,44,20,13,6,7,0.7,0.7
2026-06-29T0000,1710A,116.361,23.5627,揭阳市,东兴,,26,26,22,17,18,20,20,60,38,18,15,8,4,/,/
2026-06-29T0000,1711A,116.4151,23.5295,揭阳市,渔湖,,28,28,30,10,17,19,19,57,35,18,14,2,3,/,/
2026-06-29T0000,3320A,116.4028,23.5699,揭阳市,曲溪,,20,20,21,11,13,22,22,60,38,15,11,5,6,0.5,0.5
2026-06-29T0000,1944A,102.1691,38.5166,金昌市,天庆家园,,41,34,89,19,22,131,131,136,129,3,12,5,29,0.2,0.3
2026-06-29T0000,4022A,102.1648,38.5369,金昌市,金川区人防中心,,40,27,89,10,25,128,128,138,128,4,7,4,12,0.2,0.3
2026-06-29T0000,4239A,102.193042,38.531887,金昌市,长春路96号,,44,44,80,8,22,124,124,130,120,3,8,3,13,0.3,0.3
2026-06-29T0000,1262A,119.6478,29.0773,金华市,十五中,,27,27,34,13,19,57,57,118,74,9,13,1,1,0.6,0.6
2026-06-29T0000,1263A,119.6859,29.1032,金华市,监测站,,27,27,35,11,20,38,38,120,76,20,17,3,4,0.5,0.5
2026-06-29T0000,3659A,119.656,29.1132,金华市,气象局,,26,26,39,14,23,40,40,119,79,19,18,3,3,0.4,0.5
2026-06-29T0000,1767A,121.1114,41.0879,锦州市,南山,细颗粒物(PM2.5),109,NA,45,69,32,107,107,184,147,29,17,8,9,0.6,0.5
2026-06-29T0000,1768A,121.060361,40.842794,锦州市,开发区,细颗粒物(PM2.5),70,67,68,45,29,154,154,182,153,19,19,7,10,0.1,0.1
2026-06-29T0000,1769A,121.1836,41.1118,锦州市,百股街道,细颗粒物(PM2.5),94,NA,45,57,35,119,119,198,156,17,15,9,10,0.6,0.6
2026-06-29T0000,1770A,121.1176,41.1224,锦州市,天安街道,细颗粒物(PM2.5),109,NA,50,69,34,125,125,189,160,24,16,10,10,0.8,0.7
2026-06-29T0000,1771A,121.1303,41.1385,锦州市,北湖公园,细颗粒物(PM2.5),103,NA,45,63,32,132,132,191,169,20,13,6,7,0.5,0.5
2026-06-29T0000,2160A,112.8496,35.5051,晋城市,自来水公司,,43,43,34,11,12,106,106,177,158,15,10,5,6,0.5,0.6
2026-06-29T0000,2162A,112.8509,35.4886,晋城市,市环保局,,34,27,32,18,15,107,107,176,157,12,10,4,7,0.4,0.5
2026-06-29T0000,3620A,112.8258,35.4804,晋城市,泽州一中,,35,26,27,3,15,112,112,176,160,20,13,4,6,0.4,0.6
2026-06-29T0000,4078A,112.8246,35.5152,晋城市,前书院路,,33,32,32,3,11,105,105,185,161,9,9,3,7,0.3,0.8
2026-06-29T0000,4079A,112.8864,35.4773,晋城市,祥云街666号,,32,32,27,20,16,91,91,168,NA,15,8,2,3,0.5,0.5
2026-06-29T0000,2174A,112.6992,37.6984,晋中市,榆次区政府,,29,29,34,12,23,92,92,162,122,19,13,8,11,0.5,0.7
2026-06-29T0000,2865A,112.7195,37.683,晋中市,榆次三中,,34,17,33,15,23,108,108,180,156,9,12,6,11,0.3,0.7
2026-06-29T0000,4080A,112.7375,37.7215,晋中市,广安街188号,,27,16,35,15,19,86,86,165,120,16,14,6,10,0.1,0.3
2026-06-29T0000,4200A,112.7478,37.6954,晋中市,迎宾街26号,,30,9,33,9,20,96,96,158,121,13,15,5,10,0.4,0.6
2026-06-29T0000,2439A,112.2012,31.048,荆门市,竹园小学,细颗粒物(PM2.5),54,49,52,37,38,104,104,162,139,14,13,4,4,0.9,0.8
2026-06-29T0000,2440A,112.1968,30.9892,荆门市,掇刀,细颗粒物(PM2.5),62,47,48,41,39,110,110,163,142,11,9,9,10,0.7,0.7
2026-06-29T0000,3012A,112.1849,31.0361,荆门市,西山林语,细颗粒物(PM2.5),56,54,46,38,34,92,92,153,126,9,7,8,9,0.6,0.6
2026-06-29T0000,3547A,112.1631,31.0134,荆门市,龙泉中学南校,,42,42,44,27,28,101,101,171,143,10,9,5,6,0.9,0.9
2026-06-29T0000,4124A,112.2213,31.0654,荆门市,新台西路6号,细颗粒物(PM2.5),56,46,52,38,40,114,114,164,141,7,10,4,6,1.1,1.1
2026-06-29T0000,1844A,112.2493,30.3198,荆州市,市图书馆,,50,36,42,35,37,115,115,157,129,8,10,5,5,0.7,0.7
2026-06-29T0000,1845A,112.2009,30.3543,荆州市,市委党校,,42,40,44,29,33,98,98,134,113,16,12,8,9,0.6,0.5
2026-06-29T0000,3194A,112.2749,30.3124,荆州市,管委会,颗粒物(PM10),52,52,49,32,36,109,109,152,125,8,9,9,10,0.6,0.6
2026-06-29T0000,4268A,112.1722,30.3366,荆州市,学苑路85号,细颗粒物(PM2.5),54,42,40,37,34,48,48,151,106,61,19,6,8,0.6,0.6
2026-06-29T0000,2343A,117.2114,29.2931,景德镇市,老干部活动中心,,45,33,28,31,26,33,33,120,90,12,8,7,6,0.7,0.7
2026-06-29T0000,2344A,117.1893,29.2789,景德镇市,兽医站,,40,40,34,24,24,40,40,122,81,14,9,4,4,0.6,0.6
2026-06-29T0000,2346A,117.246,29.2958,景德镇市,陶研所,,33,30,26,23,19,24,24,109,68,12,6,5,4,0.7,0.7
2026-06-29T0000,4289A,117.154766,29.256967,景德镇市,青少年活动中心,颗粒物(PM10),54,55,44,31,29,18,18,119,76,41,20,28,26,/,/
2026-06-29T0000,1803A,115.9873,29.6816,九江市,十里,细颗粒物(PM2.5),62,44,48,41,31,58,58,147,102,30,19,3,3,0.7,0.6
2026-06-29T0000,1804A,115.9583,29.7047,九江市,茅山头,,40,36,40,28,29,69,69,166,115,26,13,4,4,0.5,0.6
2026-06-29T0000,1805A,115.9877,29.7295,九江市,西园,二氧化氮(NO2),57,33,38,28,29,4,4,142,85,114,42,4,5,0.5,0.5
2026-06-29T0000,1808A,115.9112,29.6038,九江市,综合工业园,,40,32,32,28,29,67,67,158,100,75,20,1,2,0.4,0.4
2026-06-29T0000,3190A,116.0254,29.6995,九江市,外国语学校,细颗粒物(PM2.5),52,NA,40,36,32,74,74,136,100,14,15,8,7,0.8,0.8
2026-06-29T0000,4253A,116.010205,29.659402,九江市,莲花大道8号,,43,NA,35,30,32,59,59,123,93,15,10,4,5,0.5,0.6
2026-06-29T0000,4240A,98.495752,39.733935,酒泉市,玉门东路5号,,31,29,40,12,15,97,97,136,121,8,9,6,10,0.1,0.2
2026-06-29T0000,4241A,98.5099,39.7506,酒泉市,北大街108号,,36,36,47,15,15,81,81,140,119,18,10,11,15,0.3,0.3
2026-06-29T0000,2698A,76.0071,39.466,喀什地区,巡警大队,颗粒物(PM10),67,73,46,23,13,95,95,151,138,30,10,3,3,0.3,0.1
2026-06-29T0000,2699A,75.9756,39.4693,喀什地区,吾办,颗粒物(PM10),70,77,45,30,20,103,103,143,132,13,5,3,3,0.4,0.2
2026-06-29T0000,4027A,75.9485,39.4688,喀什地区,老干局,颗粒物(PM10),74,83,50,21,8,106,106,142,129,11,6,3,4,0.2,0.2
2026-06-29T0000,1824A,114.3389,34.778,开封市,肿瘤医院,颗粒物(PM10),96,114,58,44,33,128,128,183,167,25,16,7,5,0.3,1.1
2026-06-29T0000,1826A,114.2884,34.7966,开封市,世纪星幼儿园,颗粒物(PM10),60,64,63,36,42,128,128,189,169,19,18,7,8,0.5,0.5
2026-06-29T0000,3147A,114.3434,34.8101,开封市,龙亭公园,颗粒物(PM10),60,63,63,36,36,142,142,206,186,19,15,6,6,0.5,0.6
2026-06-29T0000,3210A,114.3645,34.7955,开封市,汴京公园,细颗粒物(PM2.5),58,58,65,39,41,136,136,197,172,14,16,9,9,0.7,0.7
2026-06-29T0000,3473A,114.2485,34.8306,开封市,技师学院,颗粒物(PM10),55,56,73,28,36,145,145,201,187,14,14,9,10,0.7,0.7
2026-06-29T0000,3592A,114.4518,34.7503,开封市,祥符区生态环境局,颗粒物(PM10),58,61,56,37,43,127,127,185,154,27,22,11,11,0.5,0.5
2026-06-29T0000,1951A,84.886,45.6029,克拉玛依市,长征新村,,33,19,17,13,10,105,105,122,112,2,6,3,3,0.3,0.3
2026-06-29T0000,1952A,84.8894,45.5827,克拉玛依市,南林小区,,32,23,18,3,3,102,102,114,106,1,6,5,5,0.1,0.1
2026-06-29T0000,1954A,84.896,44.3328,克拉玛依市,独山子区,,32,32,26,20,8,74,74,116,80,21,11,8,8,0.6,0.4
2026-06-29T0000,1955A,85.6888,46.0909,克拉玛依市,乌尔禾区商贸楼,,39,39,24,23,16,108,108,117,106,5,8,7,7,0.2,0.2
2026-06-29T0000,3612A,85.1045,45.6895,克拉玛依市,白碱滩区新站,,39,39,16,6,3,117,117,132,124,2,3,8,8,0.1,0.2
2026-06-29T0000,2697A,76.1457,39.7143,克孜勒苏柯尔克孜自治州,市人民政府,,38,38,36,15,15,112,112,154,138,12,4,6,7,0.2,0.1
2026-06-29T0000,3665A,76.1654,39.7157,克孜勒苏柯尔克孜自治州,克州文化中心,,47,47,38,22,15,129,129,159,148,4,2,7,8,0.1,0.1
2026-06-29T0000,1450A,102.8203,24.889,昆明市,呈贡新区,,18,18,12,9,7,17,17,53,26,17,12,3,2,0.8,0.7
2026-06-29T0000,1452A,102.7253,25.0904,昆明市,龙泉镇,,48,48,18,23,9,3,3,43,17,18,14,5,5,0.6,0.5
2026-06-29T0000,1453A,102.7267,25.0378,昆明市,东风东路,,30,30,13,11,8,0,0,45,13,33,21,3,2,0.6,0.4
2026-06-29T0000,1454A,102.6744,25.0671,昆明市,金鼎山,,28,28,20,11,9,6,6,50,21,33,19,4,4,0.7,0.6
2026-06-29T0000,1455A,102.6643,25.0401,昆明市,碧鸡广场,,43,43,12,20,9,9,9,45,26,33,14,2,2,0.8,0.7
2026-06-29T0000,3179A,102.7491,25.012,昆明市,官渡区博物馆,,31,31,16,16,7,2,2,46,14,36,20,4,3,0.7,0.5
2026-06-29T0000,3375A,102.8016,24.8336,昆明市,青年创业园,,22,22,9,12,5,1,1,48,14,20,11,4,4,0.5,0.4
2026-06-29T0000,3550A,102.8,24.9787,昆明市,昆明学院,,48,48,14,14,4,3,3,51,22,31,14,8,5,0.7,0.4
2026-06-29T0000,3551A,102.5969,24.6738,昆明市,晋宁区生态环境分局,,23,23,14,13,10,23,23,52,38,12,8,5,4,0.8,0.6
2026-06-29T0000,3552A,102.6673,24.9861,昆明市,云天化总部,,29,29,10,11,4,4,4,48,26,39,13,5,5,0.7,0.5
2026-06-29T0000,1456A,91.132,29.6515,拉萨市,八廓街,,43,NA,8,11,6,137,137,142,138,6,7,4,5,0.4,0.4
2026-06-29T0000,1457A,91.1221,29.6748,拉萨市,市环保局,,41,12,8,6,6,130,130,139,134,8,9,7,7,0.2,0.3
2026-06-29T0000,1458A,91.0874,29.6476,拉萨市,区监测站,,40,11,8,3,6,127,127,135,129,10,10,5,5,0.3,0.3
2026-06-29T0000,1459A,91.1774,29.6541,拉萨市,西藏大学,,45,10,8,10,6,141,141,146,143,8,9,4,5,0.3,0.2
2026-06-29T0000,1460A,90.9798,29.6586,拉萨市,区辐射站,,42,12,10,8,7,134,134,135,130,12,12,7,6,0.3,0.3
2026-06-29T0000,1461A,91.0831,29.6292,拉萨市,拉萨火车站,,40,12,8,6,6,128,128,136,128,11,8,4,4,0.2,0.3
2026-06-29T0000,2520A,109.2203,23.7252,来宾市,来宾技工学校,,43,43,44,17,25,57,57,104,77,12,11,18,12,0.7,0.8
2026-06-29T0000,3535A,109.1781,23.7293,来宾市,兴宾区政府,,35,35,36,14,23,65,65,113,78,7,9,6,7,0.7,0.7
2026-06-29T0000,4002A,109.2312,23.7428,来宾市,中南小学,,36,36,40,20,26,48,48,108,82,26,12,6,6,0.8,0.9
2026-06-29T0000,1479A,103.8309,36.0467,兰州市,铁路设计院,,38,38,44,21,22,118,118,154,133,16,21,9,11,0.7,0.8
2026-06-29T0000,3241A,103.7439,36.0841,兰州市,百合公园,,40,40,45,16,20,113,113,158,130,15,22,4,9,0.6,0.6
2026-06-29T0000,3242A,103.9613,35.9985,兰州市,和平,,43,28,34,12,19,137,137,150,137,5,9,12,15,0.3,0.3
2026-06-29T0000,4236A,103.629272,36.093822,兰州市,庄浪东路808号,,36,31,46,17,20,115,115,160,121,7,15,9,13,0.2,0.3
2026-06-29T0000,4237A,103.7251,36.104344,兰州市,安宁西路88号,,44,44,47,17,18,121,121,168,140,12,27,9,10,0.2,0.3
2026-06-29T0000,4238A,103.846982,36.067567,兰州市,北滨河东路1号,,34,31,41,12,18,108,108,148,118,20,34,13,15,0.4,0.4
2026-06-29T0000,1067A,116.6712,39.5109,廊坊市,药材公司,细颗粒物(PM2.5),76,84,67,48,37,167,167,226,205,14,20,4,3,0.6,0.5
2026-06-29T0000,1068A,116.7215,39.5592,廊坊市,开发区,细颗粒物(PM2.5),106,111,75,66,41,170,170,252,218,19,22,3,3,0.6,0.5
2026-06-29T0000,1070A,116.7246,39.5273,廊坊市,北华航天学院,细颗粒物(PM2.5),100,61,67,60,38,166,166,255,221,14,25,4,3,0.6,0.5
2026-06-29T0000,2919A,116.7022,39.5454,廊坊市,河北工业大学,细颗粒物(PM2.5),103,74,67,63,41,174,174,249,220,18,25,4,4,0.6,0.5
2026-06-29T0000,2536A,103.7629,29.5844,乐山市,牛耳桥,,17,15,18,6,7,54,54,77,68,8,8,5,5,0.7,0.7
2026-06-29T0000,2537A,103.7501,29.6002,乐山市,市第三水厂,,17,16,19,10,10,54,54,73,68,9,10,4,4,0.7,0.7
2026-06-29T0000,2538A,103.7571,29.5664,乐山市,市监测站,,19,19,20,7,7,53,53,72,67,7,6,5,3,0.7,0.7
2026-06-29T0000,3361A,103.7313,29.563,乐山市,理工大学,,17,16,18,10,10,54,54,78,69,9,6,4,4,0.5,0.5
2026-06-29T0000,2599A,100.2497,26.8802,丽江市,丽江古城,,13,13,14,8,7,41,41,63,54,11,8,8,10,0.6,0.6
2026-06-29T0000,2600A,100.2203,26.8906,丽江市,市中心,,12,8,14,8,9,37,37,60,53,10,7,6,6,0.8,0.7
2026-06-29T0000,1267A,119.9141,28.4513,丽水市,监测站大楼,,25,11,23,3,14,77,77,99,76,6,7,4,4,0.4,0.3
2026-06-29T0000,1268A,119.93,28.4589,丽水市,莲都小学,,26,12,24,3,13,83,83,98,80,4,7,/,/,/,/
2026-06-29T0000,1269A,119.8794,28.4232,丽水市,余庄前,,15,14,26,3,13,47,47,88,62,10,10,7,7,0.6,0.5
2026-06-29T0000,1173A,119.1759,34.5885,连云港市,市环境监测站,,45,31,32,31,27,100,100,183,131,7,9,8,9,0.5,0.6
2026-06-29T0000,3000A,119.3577,34.6971,连云港市,德源药业,,48,48,44,27,29,68,68,161,107,25,12,6,8,0.7,0.5
2026-06-29T0000,3007A,119.178,34.8442,连云港市,新城一中,,40,40,43,19,21,89,89,152,111,24,15,3,5,0.6,0.6
2026-06-29T0000,3008A,119.3607,34.7519,连云港市,胡沟管理处,,42,17,30,9,16,134,134,125,115,6,22,9,12,0.4,0.5
2026-06-29T0000,3009A,119.1478,34.5913,连云港市,矿山设计院,,44,44,39,24,23,97,97,170,126,7,9,5,5,0.3,0.4
2026-06-29T0000,3434A,119.2414,34.6539,连云港市,工贸学校,,36,26,33,19,23,115,115,182,138,9,11,4,6,0.4,0.5
2026-06-29T0000,3664A,119.4171,34.734,连云港市,连云街道,,37,29,37,14,19,117,117,159,130,8,10,11,12,0.4,0.4
2026-06-29T0000,2573A,102.2629,27.8981,凉山彝族自治州,西昌市政府,,20,20,12,11,6,44,44,72,58,8,7,4,5,0.5,0.5
2026-06-29T0000,2574A,102.2686,27.885,凉山彝族自治州,凉山州政府,,16,13,9,9,6,50,50,72,60,6,7,5,6,0.5,0.5
2026-06-29T0000,4229A,102.2342,27.8859,凉山彝族自治州,凯乐南路30号,NA,NA,NA,13,NA,2,NA,NA,51,NA,NA,6,NA,5,NA,0
2026-06-29T0000,2212A,123.1978,41.2036,辽阳市,宏伟区,,33,15,22,10,11,105,105,129,104,5,6,6,7,0.6,0.6
2026-06-29T0000,2213A,123.1684,41.2497,辽阳市,新华园,,33,11,27,11,13,105,105,142,105,6,9,7,8,0.4,0.4
2026-06-29T0000,2214A,123.2355,41.2663,辽阳市,滨河路,,31,18,22,8,13,98,98,124,91,8,12,8,8,0.4,0.4
2026-06-29T0000,4083A,123.153,41.2874,辽阳市,铁西路150号,,32,14,29,11,12,102,102,138,108,6,9,6,7,0.4,0.5
2026-06-29T0000,2227A,125.1359,42.8845,辽源市,环保局,,27,27,28,17,20,56,56,95,77,28,30,7,7,0.4,0.5
2026-06-29T0000,4085A,125.0998,42.9134,辽源市,安宁大街333号,NA,NA,20,29,19,21,53,53,91,77,NA,32,5,5,0.5,0.6
2026-06-29T0000,1625A,115.9789,36.4372,聊城市,区政府,,46,6,53,3,24,146,146,191,164,1,8,8,11,0.5,0.5
2026-06-29T0000,3200A,115.9772,36.4986,聊城市,监控中心,,50,NA,50,6,24,160,160,215,185,2,9,6,10,0.4,0.5
2026-06-29T0000,3513A,116.0443,36.436,聊城市,九州社区,NA,NA,NA,53,NA,25,NA,NA,207,181,NA,8,NA,5,NA,0.4
2026-06-29T0000,4018A,116.0564,36.4609,聊城市,星美广场,,48,NA,48,3,22,153,153,207,174,1,9,8,8,0.3,0.3
2026-06-29T0000,4113A,116.0091,36.4495,聊城市,利民路,,48,35,40,3,24,152,152,203,172,4,10,9,12,0.3,0.4
2026-06-29T0000,2632A,94.3683,29.6373,林芝市,林芝监测站,,17,6,6,3,5,53,53,77,70,7,6,4,4,0.4,0.4
2026-06-29T0000,2633A,94.3616,29.6634,林芝市,林芝人民医院,,19,NA,7,12,7,59,59,81,74,6,6,3,4,0.2,0.2
2026-06-29T0000,2603A,100.0779,23.8981,临沧市,市环保局,,12,10,17,8,10,16,16,41,33,6,6,4,4,0.4,0.4
2026-06-29T0000,2604A,100.0894,23.882,临沧市,市气象局,,20,19,20,14,13,28,28,53,44,7,6,5,6,0.4,0.2
2026-06-29T0000,1733A,111.5552,36.0791,临汾市,临钢医院,,32,32,38,18,13,86,86,159,108,14,12,5,6,0.5,0.5
2026-06-29T0000,1734A,111.4984,36.0734,临汾市,技工学校,,37,37,42,18,18,85,85,157,110,13,13,5,7,0.5,0.6
2026-06-29T0000,1736A,111.5017,36.0857,临汾市,市委,颗粒物(PM10),52,52,47,15,14,87,87,161,114,14,13,8,10,0.6,0.7
2026-06-29T0000,3018A,111.5048,36.1015,临汾市,唐尧大酒店,颗粒物(PM10),53,54,52,11,13,82,82,158,108,14,12,6,7,0.6,0.6
2026-06-29T0000,4244A,111.4879,36.053,临汾市,启星学校,,39,39,38,24,17,86,86,158,113,12,10,6,7,0.7,0.7
2026-06-29T0000,4271A,103.2464,35.6123,临夏回族自治州,滨河东路1号,,39,39,50,16,15,33,33,118,87,30,12,12,13,0.3,0.3
2026-06-29T0000,4310A,103.207136,35.599807,临夏回族自治州,新华街21号,,25,19,42,17,18,75,75,111,94,11,10,9,10,0.4,0.4
2026-06-29T0000,1618A,118.3429,35.0532,临沂市,沂河小区,细颗粒物(PM2.5),66,58,57,43,31,90,90,204,150,16,19,10,17,0.3,0.3
2026-06-29T0000,1619A,118.2962,35.0568,临沂市,鲁南制药厂,细颗粒物(PM2.5),64,53,52,42,30,90,90,215,157,17,22,12,20,0.6,0.5
2026-06-29T0000,1620A,118.2793,34.9976,临沂市,新光毛纺厂,细颗粒物(PM2.5),76,NA,52,48,38,83,83,211,156,19,19,7,17,0.3,0.4
2026-06-29T0000,1621A,118.3955,35.0889,临沂市,河东保险公司,细颗粒物(PM2.5),58,39,49,39,35,86,86,219,157,18,19,8,14,0.2,0.2
2026-06-29T0000,3370A,118.3563,35.0215,临沂市,十里堡居委,细颗粒物(PM2.5),66,NA,48,43,33,88,88,209,151,22,28,12,20,0.6,0.6
2026-06-29T0000,3496A,118.359,35.1067,临沂市,南坊新区,细颗粒物(PM2.5),66,NA,51,43,38,84,84,208,150,17,20,6,13,0.5,0.6
2026-06-29T0000,3860A,118.3915,35.0297,临沂市,皇山花园小区,细颗粒物(PM2.5),86,NA,54,53,39,91,91,211,154,16,20,10,15,0.5,0.5
2026-06-29T0000,1870A,109.4854,24.3898,柳州市,柳东小学,,30,30,22,21,18,32,32,99,80,22,9,4,6,0.8,0.7
2026-06-29T0000,1871A,109.4109,24.3304,柳州市,环保监测站,,33,27,31,23,19,36,36,111,80,17,16,7,8,0.9,0.9
2026-06-29T0000,1872A,109.3886,24.3408,柳州市,河西水厂,细颗粒物(PM2.5),74,70,36,47,24,22,22,123,87,31,14,11,9,1.0,0.9
2026-06-29T0000,1873A,109.4263,24.2951,柳州市,市四中,,30,30,36,20,22,40,40,122,85,15,14,6,7,0.7,0.8
2026-06-29T0000,1874A,109.396,24.3658,柳州市,市九中,颗粒物(PM10),61,65,36,31,20,28,28,104,80,27,12,8,7,0.6,0.6
2026-06-29T0000,1875A,109.4912,24.3164,柳州市,古亭山,,30,21,29,21,20,11,11,108,62,26,15,3,4,0.8,0.7
2026-06-29T0000,3402A,109.5422,24.3994,柳州市,市二中,,40,40,31,22,20,20,20,100,54,25,14,5,6,1.0,0.9
2026-06-29T0000,2307A,116.5078,31.7369,六安市,监测大楼,细颗粒物(PM2.5),106,NA,33,66,32,149,149,166,164,10,11,3,4,0.7,0.5
2026-06-29T0000,2308A,116.4738,31.7642,六安市,皖西学院,细颗粒物(PM2.5),101,NA,43,61,31,171,171,183,182,6,8,6,6,0.6,0.4
2026-06-29T0000,2309A,116.4997,31.7904,六安市,朝阳厂,细颗粒物(PM2.5),92,NA,36,56,32,154,154,162,161,14,13,7,7,0.5,0.4
2026-06-29T0000,2310A,116.5566,31.7885,六安市,开发区,细颗粒物(PM2.5),86,61,51,53,37,148,148,178,171,24,21,7,6,0.5,0.3
2026-06-29T0000,2577A,104.8293,26.592,六盘水市,黄土坡,,19,8,18,3,12,60,60,62,50,8,13,5,5,0.5,0.5
2026-06-29T0000,2579A,104.8481,26.5898,六盘水市,民中,,20,6,16,3,10,62,62,64,52,6,12,1,1,0.5,0.5
2026-06-29T0000,2580A,104.9541,26.5506,六盘水市,双水,,14,9,15,9,8,43,43,70,54,13,7,4,4,0.7,0.3
2026-06-29T0000,4151A,104.8899,26.5685,六盘水市,钟山大道中段564号,,18,10,17,6,9,55,55,67,52,6,6,6,5,0.7,0.6
2026-06-29T0000,2336A,117.022,25.1031,龙岩市,龙岩市监测站,,15,11,14,10,8,23,23,69,42,12,8,6,5,0.4,0.4
2026-06-29T0000,2337A,117.0257,25.0662,龙岩市,闽西职业技术学院,,20,20,16,6,8,17,17,65,38,8,6,5,5,0.4,0.4
2026-06-29T0000,2338A,117.0195,25.0306,龙岩市,龙岩学院,,16,16,15,6,6,9,9,62,33,8,5,3,4,/,/
2026-06-29T0000,2885A,104.9344,33.3827,陇南市,滨江中学,,34,34,27,18,16,72,72,96,84,5,9,8,9,0.5,0.5
2026-06-29T0000,3247A,104.9551,33.3709,陇南市,市总工会,,30,30,30,19,13,79,79,96,86,4,6,9,9,0.4,0.4
2026-06-29T0000,2488A,111.9984,27.7346,娄底市,市监测站,细颗粒物(PM2.5),98,66,56,59,36,19,19,129,86,53,21,5,12,1.0,1.3
2026-06-29T0000,2491A,111.9888,27.7035,娄底市,市政府,细颗粒物(PM2.5),96,66,46,58,35,27,27,144,78,11,9,20,16,0.9,0.8
2026-06-29T0000,4127A,111.9812,27.7591,娄底市,涟钢职大,颗粒物(PM10),58,61,44,35,29,37,37,155,94,14,10,4,7,0.9,2.6
2026-06-29T0000,4128A,112.0303,27.7457,娄底市,娄底体校,细颗粒物(PM2.5),62,54,52,41,32,24,24,148,82,11,12,2,4,0.7,0.8
2026-06-29T0000,1894A,105.4427,28.9063,泸州市,小市上码头,,22,22,21,10,10,47,47,75,55,9,14,5,5,0.4,0.4
2026-06-29T0000,1895A,105.4241,28.8573,泸州市,兰田宪桥,,44,44,36,22,19,14,14,72,39,15,15,1,1,0.5,0.4
2026-06-29T0000,1896A,105.4378,28.8833,泸州市,市环监站,,25,25,22,7,7,39,39,75,47,16,14,5,5,0.7,0.6
2026-06-29T0000,4272A,105.3689,28.7783,泸州市,纳溪中医医院,,35,NA,21,24,20,18,18,68,44,15,15,2,2,0.7,0.7
2026-06-29T0000,2183A,111.1447,37.5212,吕梁市,环保局,,47,47,46,18,16,64,64,150,112,32,17,4,6,0.3,0.3
2026-06-29T0000,2185A,111.1285,37.5338,吕梁市,自来水公司,,43,43,42,19,15,73,73,152,117,21,15,3,5,0.5,0.4
2026-06-29T0000,2867A,111.1225,37.5093,吕梁市,马茂庄小学,,46,46,44,18,12,65,65,154,116,32,17,2,3,0.2,0.1
2026-06-29T0000,1812A,112.3934,34.6517,洛阳市,市委党校,,40,NA,42,26,26,125,125,169,146,10,13,8,9,0.5,0.6
2026-06-29T0000,1815A,112.494,34.6883,洛阳市,河南林校,,49,49,47,23,23,109,109,181,150,16,15,10,12,0.3,0.3
2026-06-29T0000,1816A,112.3843,34.623,洛阳市,开发区管委会,细颗粒物(PM2.5),54,37,40,37,25,130,130,189,156,10,9,11,12,0.5,0.6
2026-06-29T0000,1817A,112.4263,34.6249,洛阳市,市委新办公区,,40,35,37,22,25,126,126,166,144,8,9,11,11,0.4,0.4
2026-06-29T0000,3340A,112.6005,34.6323,洛阳市,伊滨,,39,39,46,17,23,120,120,172,149,8,9,4,5,0.4,0.5
2026-06-29T0000,3341A,112.495,34.6338,洛阳市,中移产业园,,38,37,41,26,24,114,114,174,152,14,11,6,10,0.7,0.7
2026-06-29T0000,3593A,112.5736,34.8993,洛阳市,吉利监测站,颗粒物(PM10),60,64,51,28,21,71,71,196,145,29,14,8,9,0.4,0.4
2026-06-29T0000,3635A,112.3678,34.6623,洛阳市,河科大西苑校区,,43,40,46,26,28,136,136,178,154,9,14,11,14,0.6,0.6
2026-06-29T0000,3636A,112.4387,34.678,洛阳市,英才小学,,40,35,43,28,26,116,116,163,139,8,12,9,10,0.6,0.6
2026-06-29T0000,4214A,112.460027,34.694929,洛阳市,春都路1号院,,48,48,39,30,25,80,80,176,142,16,11,6,7,0.4,0.4
2026-06-29T0000,2399A,114.051,33.5721,漯河市,三五一五工厂,颗粒物(PM10),54,55,48,34,34,68,68,202,135,45,36,17,8,0.3,0.2
2026-06-29T0000,2400A,114.0055,33.5698,漯河市,漯河大学,细颗粒物(PM2.5),70,NA,42,45,34,73,73,206,152,41,35,6,8,0.7,0.7
2026-06-29T0000,2401A,114.0134,33.5826,漯河市,市水利局,,46,41,46,32,34,77,77,210,149,36,29,6,7,0.4,0.3
2026-06-29T0000,2402A,114.0261,33.5697,漯河市,市广电局,,42,42,46,25,29,88,88,209,151,28,34,5,8,0.5,0.5
2026-06-29T0000,3478A,113.9691,33.568,漯河市,市图书馆,,44,44,51,28,31,61,61,205,143,45,33,9,9,0.7,0.7
2026-06-29T0000,4250A,114.089259,33.588274,漯河市,韶山路11号,,48,48,62,23,32,82,82,206,147,31,26,8,8,0.5,0.4
2026-06-29T0000,1798A,118.5084,31.6838,马鞍山市,湖东路四小,细颗粒物(PM2.5),66,65,70,43,50,108,108,214,158,24,16,9,10,0.7,0.7
2026-06-29T0000,1799A,118.5019,31.6449,马鞍山市,开发区,细颗粒物(PM2.5),101,92,80,61,61,94,94,215,153,37,16,6,7,0.7,0.8
2026-06-29T0000,3633A,118.4914,31.681,马鞍山市,雨山,颗粒物(PM10),63,67,61,35,42,142,142,221,172,16,13,9,7,0.8,0.8
2026-06-29T0000,4191A,118.527362,31.722269,马鞍山市,慈湖高新区,细颗粒物(PM2.5),72,70,80,46,53,158,158,218,168,18,19,8,9,0.5,0.6
2026-06-29T0000,1686A,111.0285,21.469,茂名市,电白南海,,27,27,29,13,21,71,71,84,82,7,9,6,9,0.9,0.9
2026-06-29T0000,1687A,110.9294,21.6533,茂名市,茂石化七小,,38,34,37,26,24,61,61,70,60,10,13,12,17,0.6,0.6
2026-06-29T0000,1688A,110.9108,21.6688,茂名市,健康路,,32,22,24,22,22,69,69,77,63,7,11,9,14,0.6,0.6
2026-06-29T0000,1689A,110.8592,21.6826,茂名市,高岭,,31,31,35,21,20,43,43,73,44,23,12,4,10,/,/
2026-06-29T0000,3450A,111.0101,21.5165,茂名市,电白水东,,29,29,24,15,22,63,63,84,81,10,10,3,9,/,/
2026-06-29T0000,2540A,103.8414,30.0871,眉山市,气象局,,24,21,25,3,16,74,74,107,91,9,11,7,6,0.7,0.7
2026-06-29T0000,3148A,103.829,30.0563,眉山市,区人社局,,34,34,37,3,10,64,64,99,81,12,13,8,7,0.6,0.6
2026-06-29T0000,4148A,103.8836,30.0695,眉山市,眉职院,,17,17,23,3,9,50,50,99,78,14,11,7,7,0.7,0.7
2026-06-29T0000,1690A,116.1248,24.3307,梅州市,梅江月梅,,20,20,15,11,7,40,40,64,48,9,9,/,/,/,/
2026-06-29T0000,1691A,116.0798,24.2719,梅州市,梅县新城,,20,NA,16,14,10,37,37,67,46,11,9,9,8,0.5,0.5
2026-06-29T0000,3315A,116.1234,24.2994,梅州市,梅龙,,18,14,13,12,9,40,40,60,47,7,7,6,7,0.6,0.6
2026-06-29T0000,1878A,104.7775,31.4741,绵阳市,富乐山,,43,40,39,30,26,90,90,154,123,10,14,10,11,0.9,0.8
2026-06-29T0000,1880A,104.6698,31.4668,绵阳市,高新区自来水公司,,44,44,51,28,30,86,86,155,127,15,24,11,11,0.6,0.5
2026-06-29T0000,3491A,104.6899,31.5324,绵阳市,西科大附属小学,,42,42,53,26,29,92,92,154,126,17,23,8,6,0.4,0.4
2026-06-29T0000,3492A,104.5647,31.5343,绵阳市,安州区旅游局,,50,50,42,23,26,104,104,151,134,8,8,7,7,0.6,0.6
2026-06-29T0000,4146A,104.7092,31.4972,绵阳市,科技城新区公安局,,42,40,51,29,28,97,97,155,133,15,21,11,12,0.8,0.8
2026-06-29T0000,4226A,104.765114,31.453094,绵阳市,绵阳市气象局,,45,32,44,31,27,94,94,136,118,11,18,8,8,0.7,0.7
2026-06-29T0000,1784A,129.61,44.561,牡丹江市,环保大楼,,28,20,25,19,12,58,58,108,80,18,14,5,7,0.3,0.3
2026-06-29T0000,1787A,129.6364,44.6075,牡丹江市,机车工厂,,38,38,33,9,12,48,48,107,77,24,14,7,8,0.2,0.3
2026-06-29T0000,1788A,129.6386,44.5462,牡丹江市,第一中学,,34,34,29,18,9,46,46,110,77,19,15,7,8,0.4,0.4
2026-06-29T0000,4287A,129.5992,44.5964,牡丹江市,东晓云街98号,,32,32,28,18,11,44,44,108,81,15,10,5,6,0.2,0.2
2026-06-29T0000,2531A,105.0703,29.61,内江市,市监测站,,19,NA,22,13,18,36,36,83,64,17,12,9,8,0.5,0.5
2026-06-29T0000,2533A,105.0657,29.5807,内江市,内江二中,,23,23,23,12,17,37,37,88,69,17,10,8,8,0.4,0.4
2026-06-29T0000,2534A,105.0407,29.5828,内江市,内江日报社,,24,24,20,16,19,52,52,88,75,11,10,6,6,0.4,0.4
2026-06-29T0000,4147A,105.0433,29.6105,内江市,玉峰路西段888号,,19,19,22,12,17,56,56,86,74,12,11,8,8,0.5,0.5
2026-06-29T0000,2628A,92.0653,31.4846,那曲市,那曲监测站,,36,15,10,10,9,114,114,125,109,8,8,3,4,0.3,0.3
2026-06-29T0000,4243A,92.0515,31.4787,那曲市,那曲市委宣传部,,35,NA,6,12,7,109,109,120,107,7,6,4,3,0.4,0.3
2026-06-29T0000,1291A,115.8887,28.7006,南昌市,省林业公司,,39,36,34,27,27,41,41,123,91,33,22,4,4,0.7,0.8
2026-06-29T0000,1292A,115.813,28.7443,南昌市,林科所,,30,24,27,21,21,62,62,129,86,16,16,7,8,0.8,0.7
2026-06-29T0000,1294A,115.8518,28.687,南昌市,建工学校,,50,50,36,28,26,46,46,123,82,38,19,6,6,0.8,0.8
2026-06-29T0000,1295A,115.8926,28.6425,南昌市,象湖,,48,43,28,33,25,33,33,120,87,50,21,9,10,0.7,0.6
2026-06-29T0000,3046A,115.9084,28.6062,南昌市,机电学校,颗粒物(PM10),58,60,45,38,27,26,26,126,79,47,21,6,7,0.7,0.7
2026-06-29T0000,3690A,115.9718,28.7032,南昌市,外国语学校,细颗粒物(PM2.5),52,51,36,36,25,40,40,111,84,29,8,12,12,0.8,0.8
2026-06-29T0000,4106A,115.7923,28.6873,南昌市,工业二路,细颗粒物(PM2.5),74,55,38,47,20,40,40,124,73,31,17,6,6,0.6,0.6
2026-06-29T0000,4192A,115.931587,28.686774,南昌市,南京东路235号,细颗粒物(PM2.5),54,45,29,37,25,51,51,122,94,31,14,4,5,0.6,0.6
2026-06-29T0000,1906A,106.0791,30.8022,南充市,南充市委,,20,18,29,11,18,64,64,90,79,10,10,8,7,0.2,0.3
2026-06-29T0000,1907A,106.1038,30.8215,南充市,南充炼油厂,,22,20,27,10,18,68,68,97,84,8,10,6,8,0.2,0.3
2026-06-29T0000,4227A,106.108336,30.788436,南充市,梨树横街98号,,22,18,30,10,17,68,68,95,82,7,9,7,8,0.3,0.3
2026-06-29T0000,4304A,106.1172,30.843,南充市,清泉寺北路188号,,23,23,31,10,19,70,70,97,83,9,11,8,8,0.4,0.4
2026-06-29T0000,4305A,106.067,30.7616,南充市,同庆路1号,,24,24,28,12,17,64,64,94,82,9,10,10,8,0.4,0.4
2026-06-29T0000,1151A,118.8033,32.1085,南京市,迈皋桥,细颗粒物(PM2.5),60,49,52,40,42,94,94,206,158,25,16,6,6,0.4,0.4
2026-06-29T0000,1152A,118.7487,32.057,南京市,草场门,细颗粒物(PM2.5),54,51,56,37,41,127,127,207,172,19,15,5,5,0.6,0.6
2026-06-29T0000,1154A,118.770105,32.004342,南京市,中华门,细颗粒物(PM2.5),64,53,53,42,42,120,120,191,157,13,10,7,7,0.3,0.3
2026-06-29T0000,1155A,118.8059,32.0329,南京市,瑞金路,细颗粒物(PM2.5),66,51,59,43,40,94,94,184,147,27,17,4,4,0.6,0.5
2026-06-29T0000,1156A,118.7946,32.0774,南京市,玄武湖,细颗粒物(PM2.5),52,48,57,36,37,123,123,178,152,10,10,6,7,0.4,0.5
2026-06-29T0000,1157A,118.6415,32.0964,南京市,浦口,细颗粒物(PM2.5),56,54,56,38,42,104,104,213,156,20,24,4,4,0.2,0.3
2026-06-29T0000,1158A,118.730129,32.000956,南京市,奥体中心,细颗粒物(PM2.5),56,55,59,38,37,135,135,200,167,21,17,8,8,0.3,0.3
2026-06-29T0000,1159A,118.9072,32.1047,南京市,仙林大学城,细颗粒物(PM2.5),66,51,58,43,36,113,113,206,171,19,10,6,7,0.8,0.8
2026-06-29T0000,3422A,118.8443,31.919,南京市,江宁彩虹桥,细颗粒物(PM2.5),54,50,50,37,40,131,131,191,165,16,9,5,4,0.6,0.6
2026-06-29T0000,3427A,118.8497,32.3599,南京市,六合雄州,细颗粒物(PM2.5),110,102,69,70,47,93,93,216,166,16,25,5,4,0.6,0.6
2026-06-29T0000,4086A,118.7641,32.0841,南京市,新模范马路66号,臭氧1小时(O3_1h),60,51,59,30,34,168,168,217,195,6,7,4,4,0.5,0.5
2026-06-29T0000,4249A,118.8707617,31.34017673,南京市,汶溪路181号,臭氧1小时(O3_1h),60,53,54,39,45,168,168,219,201,11,10,8,7,0.9,0.9
2026-06-29T0000,4312A,119.019,31.6512,南京市,中山西路1号,细颗粒物(PM2.5),68,48,55,44,46,140,140,194,165,21,13,4,4,0.6,0.6
2026-06-29T0000,1401A,108.3098,22.788,南宁市,二十一中,,28,22,24,19,16,58,58,83,58,11,12,1,1,0.9,0.8
2026-06-29T0000,1402A,108.3135,22.8529,南宁市,北湖,,36,NA,33,25,23,52,52,88,46,9,18,2,3,0.7,0.8
2026-06-29T0000,1403A,108.3205,22.8222,南宁市,市监测站,,22,21,26,15,16,70,70,100,70,6,9,3,3,0.8,0.8
2026-06-29T0000,1404A,108.3828,22.8038,南宁市,大自然花园,,21,21,23,9,15,64,64,96,67,9,8,4,4,0.9,0.9
2026-06-29T0000,1406A,108.2397,22.8462,南宁市,区农职院,,37,37,33,23,22,29,29,102,54,22,13,8,4,1.0,1
2026-06-29T0000,1407A,108.3285,22.7356,南宁市,英华嘉园,,23,23,30,15,16,57,57,86,60,12,14,5,4,0.6,0.6
2026-06-29T0000,3401A,108.4829,22.762,南宁市,红星社区,,28,20,26,19,17,52,52,99,65,9,9,4,5,0.6,0.6
2026-06-29T0000,4132A,108.2927,23.1477,南宁市,起凤路9号,,18,11,30,6,22,56,56,90,76,5,10,5,7,0.6,0.6
2026-06-29T0000,4221A,108.2177,22.7774,南宁市,乐贤路16号,,29,29,33,18,17,41,41,100,57,21,18,4,5,0.7,0.6
2026-06-29T0000,2332A,118.1682,26.6371,南平市,南平市监测站,,20,20,9,12,5,22,22,71,42,7,5,5,4,0.5,0.5
2026-06-29T0000,2334A,118.1757,26.6276,南平市,南平七中,,16,12,12,11,5,22,22,70,41,8,4,3,3,0.5,0.5
2026-06-29T0000,1168A,120.9056,31.9669,南通市,狼山街道,,29,21,32,20,30,82,82,205,142,18,19,5,6,0.8,0.8
2026-06-29T0000,1170A,120.8635,32.0231,南通市,城中,,40,40,50,27,40,79,79,203,140,14,14,3,3,0.4,0.6
2026-06-29T0000,1171A,120.9376,31.9301,南通市,星湖花园,,27,25,41,18,30,86,86,196,132,15,15,4,5,0.3,0.4
2026-06-29T0000,1172A,120.8053,32.046,南通市,紫琅学院,,35,35,44,23,27,87,87,188,132,19,23,6,7,0.7,0.8
2026-06-29T0000,3291A,121.0631,32.0644,南通市,通州监测站,,29,29,41,20,29,79,79,185,136,8,8,6,7,0.4,0.5
2026-06-29T0000,3432A,120.9348,31.9874,南通市,环境教育馆,,39,39,46,27,32,65,65,192,132,21,18,5,6,0.5,0.6
2026-06-29T0000,4091A,120.8692,31.9885,南通市,洪江路,,32,26,40,22,31,83,83,192,144,20,20,4,5,0.8,0.8
2026-06-29T0000,2404A,112.5338,33.0086,南阳市,瓦房庄,,46,44,42,32,26,118,118,162,136,8,7,6,6,0.5,0.5
2026-06-29T0000,2405A,112.5002,32.9734,南阳市,汉画馆,颗粒物(PM10),53,53,53,27,28,106,106,163,132,20,16,6,6,0.6,0.6
2026-06-29T0000,2406A,112.5778,33.0144,南阳市,气象站,,49,49,47,26,26,113,113,167,134,12,12,8,7,0.5,0.4
2026-06-29T0000,2407A,112.548,32.9687,南阳市,理工学院,细颗粒物(PM2.5),58,55,46,39,30,76,76,168,126,47,16,9,7,0.5,0.5
2026-06-29T0000,4008A,112.5233,32.9921,南阳市,卧龙区政府,颗粒物(PM10),60,64,43,31,26,115,115,161,132,11,9,5,6,0.7,0.4
2026-06-29T0000,1234A,121.8352,29.9111,宁波市,区环保大楼,,31,15,28,6,17,98,98,122,106,10,12,4,4,0.9,1
2026-06-29T0000,1235A,121.5595,29.8208,宁波市,万里学院,,31,23,29,12,16,99,99,127,113,7,7,10,11,0.6,0.7
2026-06-29T0000,1236A,121.713,29.9564,宁波市,龙赛医院,,32,17,31,9,20,100,100,132,113,8,10,4,5,0.2,0.3
2026-06-29T0000,1240A,121.5855,29.8635,宁波市,太古小学,,31,15,25,7,16,99,99,116,107,8,8,4,4,0.5,0.6
2026-06-29T0000,1241A,121.5239,29.8673,宁波市,市环境监测中心,,30,26,29,10,18,94,94,118,105,7,9,5,6,0.3,0.3
2026-06-29T0000,2871A,121.6156,29.9015,宁波市,万里国际学校,,35,14,26,7,17,110,110,130,118,4,4,6,6,0.4,0.5
2026-06-29T0000,3710A,121.5593,29.8976,宁波市,白沙活动中心,,34,19,39,8,18,106,106,124,114,6,9,6,7,0.5,0.6
2026-06-29T0000,4095A,121.8962,29.7529,宁波市,中科路88号,,32,8,22,3,16,102,102,136,128,3,7,6,6,0.4,0.4
2026-06-29T0000,2341A,119.5387,26.6611,宁德市,宁德市监测站,,36,30,22,25,18,74,74,114,96,13,13,3,4,0.9,0.9
2026-06-29T0000,3209A,119.5231,26.6562,宁德市,宁德一中,,40,NA,22,28,19,82,82,114,91,6,7,8,9,0.4,0.4
2026-06-29T0000,2618A,98.859,25.8541,怒江傈僳族自治州,州监测站,,27,27,26,15,10,32,32,46,41,12,11,5,5,0.5,0.4
2026-06-29T0000,2619A,98.8607,25.8168,怒江傈僳族自治州,泸水一中,,22,18,21,15,13,20,20,42,31,12,11,4,4,0.6,0.6
2026-06-29T0000,1888A,101.6891,26.571,攀枝花市,弄弄坪,,43,43,44,7,11,19,19,64,50,28,15,6,6,1.2,0.6
2026-06-29T0000,1889A,101.577,26.5914,攀枝花市,河门口,,26,26,34,7,19,25,25,66,47,16,18,12,26,0.8,1.7
2026-06-29T0000,1891A,101.7365,26.4986,攀枝花市,仁和,,38,26,21,14,12,18,18,52,39,27,11,37,8,3.8,0.9
2026-06-29T0000,2835A,101.7222,26.567,攀枝花市,四十中小,,18,18,21,3,12,47,47,65,56,10,10,9,10,0.9,1.1
2026-06-29T0000,1604A,122.0303,41.1489,盘锦市,开发区,细颗粒物(PM2.5),72,NA,37,46,29,169,169,207,198,10,11,8,9,0.5,0.4
2026-06-29T0000,1605A,122.0486,41.0883,盘锦市,兴隆台,细颗粒物(PM2.5),62,43,40,41,22,110,110,179,155,23,20,6,7,0.7,0.5
2026-06-29T0000,1606A,121.8297,41.1026,盘锦市,新生街道,细颗粒物(PM2.5),54,NA,29,37,26,116,116,192,160,14,12,6,7,0.6,0.5
2026-06-29T0000,1832A,113.3257,33.7423,平顶山市,新华旅馆,细颗粒物(PM2.5),64,52,47,42,31,94,94,187,139,29,16,2,3,0.6,0.6
2026-06-29T0000,1833A,113.2917,33.737,平顶山市,规划设计院,颗粒物(PM10),59,62,44,34,28,92,92,183,136,31,17,6,6,0.5,0.5
2026-06-29T0000,1834A,113.182,33.7738,平顶山市,平顶山工学院,细颗粒物(PM2.5),64,43,35,42,30,83,83,184,137,33,19,7,6,0.4,0.4
2026-06-29T0000,3594A,112.8736,33.9068,平顶山市,石龙区,,46,35,49,32,32,119,119,165,142,12,17,6,7,0.6,0.6
2026-06-29T0000,4116A,113.284,33.7139,平顶山市,姚电大道23号,颗粒物(PM10),61,65,52,37,29,62,62,185,118,59,30,7,8,0.7,0.6
2026-06-29T0000,2656A,106.6633,35.5338,平凉市,聚贤嘉苑,NA,NA,NA,77,6,17,125,125,132,129,16,23,7,8,0.5,0.6
2026-06-29T0000,2657A,106.7021,35.5307,平凉市,博物馆,,42,31,51,6,16,133,133,140,135,12,18,5,6,0.3,0.5
2026-06-29T0000,2348A,113.8384,27.6436,萍乡市,中医院,颗粒物(PM10),58,60,47,31,31,127,127,147,139,9,11,13,11,0.6,0.7
2026-06-29T0000,2350A,113.8677,27.6438,萍乡市,市环保局,细颗粒物(PM2.5),64,60,36,42,39,122,122,148,140,7,10,14,16,0.5,0.5
2026-06-29T0000,2351A,113.8663,27.6202,萍乡市,安源区政府,细颗粒物(PM2.5),58,55,48,39,36,117,117,150,134,14,13,17,18,0.4,0.8
2026-06-29T0000,4107A,113.8686,27.6668,萍乡市,联洪村委会,细颗粒物(PM2.5),64,66,52,42,35,120,120,138,131,7,9,14,12,0.4,0.4
2026-06-29T0000,2319A,119.0142,25.4324,莆田市,荔城区仓后路,细颗粒物(PM2.5),58,NA,24,39,26,79,79,111,99,14,11,/,/,/,/
2026-06-29T0000,2320A,119.0016,25.4553,莆田市,莆田市监测站,细颗粒物(PM2.5),64,NA,25,42,15,82,82,110,95,10,6,4,3,1.2,0.6
2026-06-29T0000,2321A,119.112,25.4561,莆田市,涵江区六中,,46,36,21,32,19,78,78,118,97,16,13,/,/,0.6,0.5
2026-06-29T0000,2322A,119.1014,25.3215,莆田市,秀屿区政府,,33,24,25,23,21,77,77,103,88,6,8,5,6,0.6,0.6
2026-06-29T0000,2392A,115.0312,35.7636,濮阳市,环保局,,44,42,53,15,29,138,138,194,170,10,11,5,7,0.5,0.5
2026-06-29T0000,3021A,115,35.7667,濮阳市,濮水河管理处,颗粒物(PM10),52,52,55,14,29,136,136,198,161,11,12,4,6,0.4,0.4
2026-06-29T0000,4118A,115.0552,35.7816,濮阳市,中原东路68号,颗粒物(PM10),82,94,66,26,26,139,139,200,174,14,15,5,7,0.3,0.3
2026-06-29T0000,4216A,115.0923632,35.76857718,濮阳市,任丘路479号,颗粒物(PM10),83,95,63,27,31,151,151,212,181,10,13,4,5,0.6,0.6
2026-06-29T0000,2601A,100.9801,22.7634,普洱市,市环保局,,27,27,25,12,11,18,18,43,30,5,4,5,5,0.7,0.7
2026-06-29T0000,2602A,100.9763,22.8237,普洱市,普洱第二中学,,35,35,25,8,8,12,12,45,28,6,6,8,8,0.8,0.8
2026-06-29T0000,3345A,131.0413,45.7795,七台河市,中波台,,17,17,15,9,12,25,25,83,60,26,14,4,5,0.4,0.4
2026-06-29T0000,3637A,131.0136,45.7688,七台河市,人民广场,,32,32,25,10,7,37,37,86,67,24,13,9,8,0.5,0.4
2026-06-29T0000,3684A,130.8639,45.8144,七台河市,新建矿广场,,31,31,17,10,8,27,27,87,60,30,16,6,5,0.6,0.2
2026-06-29T0000,1779A,123.9307,47.3641,齐齐哈尔市,安居小区,,27,20,25,17,7,84,84,98,90,12,12,5,4,0.6,0.4
2026-06-29T0000,1780A,123.9497,47.3389,齐齐哈尔市,中心广场,,38,38,25,10,7,86,86,97,93,14,16,4,4,0.5,0.3
2026-06-29T0000,1781A,123.9483,47.3229,齐齐哈尔市,农牧车辆厂,,34,34,28,9,7,93,93,103,99,11,12,4,4,0.2,0.2
2026-06-29T0000,1783A,123.9442,47.2994,齐齐哈尔市,市环境监测站,,42,NA,22,29,10,80,80,101,96,11,12,3,3,0.4,0.3
2026-06-29T0000,3662A,123.6341,47.2079,齐齐哈尔市,富区青少年活动中心,颗粒物(PM10),62,66,32,36,12,60,60,99,88,24,19,7,6,0.6,0.3
2026-06-29T0000,2591A,107.9765,26.5724,黔东南苗族侗族自治州,市环境监测站,,35,35,27,23,19,13,13,91,54,28,13,2,3,0.7,0.6
2026-06-29T0000,2881A,107.8909,26.531,黔东南苗族侗族自治州,凯里学院,,33,29,22,23,20,24,24,89,60,22,10,3,3,0.5,0.5
2026-06-29T0000,2593A,107.5223,26.2371,黔南布依族苗族自治州,小围寨,,36,36,23,24,15,29,29,64,55,13,12,5,6,0.6,0.6
2026-06-29T0000,3538A,107.5175,26.2977,黔南布依族苗族自治州,沙坝,,38,31,24,26,15,26,26,60,47,10,7,3,3,0.5,0.6
2026-06-29T0000,2589A,104.9022,25.0943,黔西南布依族苗族自治州,场坝街,,13,11,13,8,8,41,41,52,45,21,10,2,2,0.3,0.3
2026-06-29T0000,2590A,104.8812,25.0994,黔西南布依族苗族自治州,坪东大道,,18,15,16,7,8,57,57,55,53,2,5,5,5,0.3,0.4
2026-06-29T0000,2502A,108.6238,21.9667,钦州市,市环保站,,22,14,25,3,12,69,69,96,82,9,13,3,4,0.6,0.8
2026-06-29T0000,2503A,108.655,21.9481,钦州市,沙埠小学,,26,26,33,11,18,57,57,100,80,12,13,4,6,0.6,0.7
2026-06-29T0000,2504A,108.5989,21.7435,钦州市,港区一小,,35,35,32,14,16,76,76,88,84,14,12,5,4,0.9,0.5
2026-06-29T0000,3404A,108.5959,21.9634,钦州市,北职校,,22,21,31,14,14,70,70,95,81,9,10,5,4,0.5,0.6
2026-06-29T0000,1046A,119.5247,39.9346,秦皇岛市,建设大厦,颗粒物(PM10),65,70,72,38,32,88,88,161,135,33,27,6,8,0.5,0.5
2026-06-29T0000,3132A,119.5979,39.938,秦皇岛市,文明里,颗粒物(PM10),65,71,63,41,30,111,111,170,150,38,21,8,8,0.4,0.4
2026-06-29T0000,4066A,119.7458,39.9952,秦皇岛市,南园路157号,颗粒物(PM10),55,57,55,21,30,108,108,156,127,26,28,8,10,0.4,0.4
2026-06-29T0000,4067A,119.5131,39.8858,秦皇岛市,翠岛大街1号,颗粒物(PM10),52,52,43,23,29,133,133,170,164,21,16,5,6,0.4,0.4
2026-06-29T0000,4198A,119.509013,39.825305,秦皇岛市,北戴河轮滑馆,颗粒物(PM10),58,60,52,27,26,123,123,172,164,18,10,11,11,0.4,0.4
2026-06-29T0000,1310A,120.404,36.0625,青岛市,市南区东部子站,,26,17,16,11,8,83,83,91,80,2,6,5,6,0.2,0.3
2026-06-29T0000,1311A,120.362344,36.10282,青岛市,四方区子站,,32,NA,17,13,10,100,100,113,96,2,4,8,8,0.6,0.6
2026-06-29T0000,1312A,120.294373,36.054183,青岛市,市南区西部子站,,29,17,14,8,7,92,92,93,86,10,16,5,5,0.4,0.4
2026-06-29T0000,1313A,120.4581,36.0858,青岛市,崂山区子站,,28,14,13,13,8,89,89,102,90,2,4,6,7,0.3,0.3
2026-06-29T0000,1315A,120.3945,36.3083,青岛市,城阳区子站,,32,19,24,14,11,101,101,134,106,1,5,7,8,0.3,0.3
2026-06-29T0000,3642A,120.3454,36.0735,青岛市,市北区南部,,30,17,17,11,7,95,95,103,89,6,9,3,4,0.6,0.6
2026-06-29T0000,3643A,120.3897,36.18,青岛市,李沧区北部,,25,NA,14,15,10,79,79,94,78,6,9,6,6,0.4,0.4
2026-06-29T0000,4110A,120.5222,36.4089,青岛市,盟旺路653号,,29,17,26,13,12,90,90,147,100,4,6,6,7,0.6,0.7
2026-06-29T0000,4290A,120.196923,35.954556,青岛市,珠江路669号,,29,NA,15,14,10,91,91,100,87,2,7,5,5,0.3,0.3
2026-06-29T0000,4291A,120.0424,35.8656,青岛市,黄岛区人民政府广场,,28,14,19,11,10,88,88,103,87,6,10,5,5,0.5,0.6
2026-06-29T0000,1703A,113.0218,23.7086,清远市,凤城街办,,14,10,18,8,13,44,44,73,65,13,13,/,/,/,/
2026-06-29T0000,3025A,113.0479,23.6343,清远市,技师学院,,14,14,17,8,12,27,27,70,55,26,16,5,5,0.5,0.6
2026-06-29T0000,3318A,112.9898,23.7403,清远市,清新太和,,15,12,18,6,11,48,48,76,64,10,11,4,6,0.5,0.6
2026-06-29T0000,3455A,113.076,23.72,清远市,清城东城,,16,16,18,7,10,43,43,72,64,10,10,/,/,/,/
2026-06-29T0000,2661A,107.6325,35.7357,庆阳市,庆阳五中,颗粒物(PM10),55,56,49,24,19,125,125,154,136,17,11,7,6,0.3,0.4
2026-06-29T0000,2662A,107.6361,35.7067,庆阳市,市环保局,颗粒物(PM10),58,60,50,29,19,117,117,135,125,15,13,7,6,0.3,0.3
2026-06-29T0000,1916A,103.7897,25.5036,曲靖市,环境监测站,,15,14,16,10,7,28,28,53,38,10,10,3,3,0.5,0.5
2026-06-29T0000,1917A,103.8013,25.5357,曲靖市,烟厂办公区,,16,16,12,3,6,28,28,51,40,10,6,3,3,0.7,0.6
2026-06-29T0000,3376A,103.7926,25.4651,曲靖市,南苑二区,,20,20,12,13,8,30,30,50,39,13,10,4,4,0.7,0.6
2026-06-29T0000,3377A,103.7442,25.5259,曲靖市,曲靖师范学院,,17,17,13,8,8,31,31,54,41,10,9,4,4,0.5,0.5
2026-06-29T0000,1264A,118.8694,28.94,衢州市,环保大楼,,29,29,38,17,23,62,62,126,96,21,18,/,/,/,/
2026-06-29T0000,1266A,118.8622,28.9809,衢州市,衢州学院,NA,NA,33,33,NA,18,58,58,117,87,24,22,3,3,0.4,0.5
2026-06-29T0000,4097A,118.9646,28.9832,衢州市,衢州三中,,30,30,35,20,24,50,50,129,88,26,23,2,2,0.6,0.6
2026-06-29T0000,1611A,118.5818,24.9116,泉州市,涂山街,NA,NA,NA,20,18,18,12,12,104,56,32,10,3,2,0.8,0.7
2026-06-29T0000,1612A,118.597,24.8976,泉州市,津头埔,,43,34,23,30,18,34,34,102,57,28,14,2,2,0.4,0.4
2026-06-29T0000,1613A,118.6669,24.9422,泉州市,万安,,40,30,21,28,16,52,52,103,54,16,14,3,3,0.4,0.3
2026-06-29T0000,4105A,118.6355,24.9148,泉州市,霞新路6号,,39,32,21,27,16,33,33,108,54,20,15,/,/,0.4,0.4
2026-06-29T0000,2626A,88.8873,29.2723,日喀则市,日喀则监测站,,44,38,7,14,5,138,138,132,128,4,5,7,7,0.4,0.4
2026-06-29T0000,3726A,88.8775,29.2425,日喀则市,林业技术推广中心,,44,22,10,7,2,140,140,137,129,3,3,7,7,0.3,0.4
2026-06-29T0000,1659A,119.4711,35.421,日照市,监测站,,31,17,29,14,23,98,98,144,110,7,14,8,10,0.3,0.5
2026-06-29T0000,1660A,119.523,35.4216,日照市,市政府广场,,27,19,34,15,25,85,85,124,98,2,20,8,10,0.4,0.6
2026-06-29T0000,1661A,119.5511,35.4113,日照市,港务局,,30,24,41,12,23,96,96,114,95,5,18,5,8,0.7,0.7
2026-06-29T0000,3507A,119.5326,35.4627,日照市,职业技术学院,,31,19,34,10,20,98,98,135,106,6,16,7,8,0.5,0.6
2026-06-29T0000,3604A,119.3267,35.1043,日照市,岚山环保分局,,30,29,39,16,21,94,94,146,112,7,10,10,11,0.6,0.6
2026-06-29T0000,1835A,111.1922,34.7752,三门峡市,市政府,,25,25,42,17,23,64,64,139,113,28,9,9,10,0.7,0.8
2026-06-29T0000,1836A,111.1588,34.794,三门峡市,开发区,,33,33,43,19,24,93,93,145,118,9,11,6,7,0.4,0.5
2026-06-29T0000,3039A,111.1911,34.7829,三门峡市,三门峡市第一小学,,25,24,44,17,23,76,76,145,120,20,7,8,9,0.6,0.6
2026-06-29T0000,3598A,111.1031,34.719,三门峡市,富达温泉假日酒店,,31,31,44,16,22,61,61,142,101,13,12,8,8,0.7,0.8
2026-06-29T0000,2324A,117.621,26.2626,三明市,三钢,,22,20,15,15,8,16,16,59,40,15,11,5,6,0.5,0.6
2026-06-29T0000,2325A,117.6352,26.2714,三明市,三明二中,,25,25,16,14,11,14,14,56,39,14,10,3,4,0.6,0.6
2026-06-29T0000,2326A,117.6028,26.2377,三明市,三元区政府,,28,28,15,13,10,8,8,60,39,9,8,5,7,0.7,0.7
2026-06-29T0000,1877A,109.4962,18.2682,三亚市,河西子站,,21,20,20,9,11,67,67,88,75,14,10,2,2,0.2,0.2
2026-06-29T0000,3540A,109.7348,18.3443,三亚市,君悦子站,颗粒物(PM10),53,54,22,19,11,16,16,87,52,28,11,2,2,0.3,0.3
2026-06-29T0000,4135A,109.1714,18.3739,三亚市,城东小学站,,22,22,19,14,12,32,32,80,62,12,9,/,/,/,/
2026-06-29T0000,2624A,91.7592,29.234,山南市,山南监测站,,25,6,4,3,2,80,80,128,106,10,6,7,7,0.3,0.3
2026-06-29T0000,2625A,91.7701,29.2436,山南市,山南人民医院,,27,10,8,3,2,85,85,128,106,4,3,6,7,0.2,0.2
2026-06-29T0000,1674A,116.6795,23.3666,汕头市,金平子站,,18,13,15,6,9,56,56,82,63,8,7,3,3,0.6,0.6
2026-06-29T0000,1675A,116.7248,23.3632,汕头市,龙湖子站,,15,14,14,6,9,48,48,77,55,8,4,6,6,/,/
2026-06-29T0000,1676A,116.7257,23.2774,汕头市,濠江子站,,19,19,18,6,9,45,45,68,49,10,9,8,8,/,/
2026-06-29T0000,1677A,116.7518,23.4712,汕头市,澄海子站,,14,8,23,3,11,42,42,77,50,8,6,4,4,0.5,0.5
2026-06-29T0000,1678A,116.6088,23.2539,汕头市,潮阳子站,,17,7,14,3,10,53,53,69,59,5,6,6,6,0.7,0.7
2026-06-29T0000,3444A,116.4539,23.2684,汕头市,潮南峡山,,15,14,18,7,10,45,45,68,56,10,6,8,7,0.7,0.6
2026-06-29T0000,3624A,116.4069,23.2533,汕头市,潮南子站,,17,17,23,8,11,39,39,58,46,9,10,6,6,/,/
2026-06-29T0000,1693A,115.3653,22.7751,汕尾市,市环保局,,18,14,15,7,8,57,57,68,61,6,6,5,5,0.6,0.6
2026-06-29T0000,1695A,115.362,22.7926,汕尾市,新城中学,,18,18,17,7,10,45,45,69,50,8,6,6,6,0.5,0.5
2026-06-29T0000,2645A,109.9155,33.8714,商洛市,监测站,,32,32,33,14,18,46,46,130,68,11,12,5,6,0.9,0.9
2026-06-29T0000,3045A,109.9647,33.8486,商洛市,商州区中学,,24,24,33,14,16,49,49,132,80,8,11,6,6,0.8,0.8
2026-06-29T0000,2408A,115.6701,34.4283,商丘市,环境监测站,,50,50,55,29,34,150,150,203,193,10,8,4,5,0.5,0.5
2026-06-29T0000,2409A,115.6458,34.4047,商丘市,粮食局,,46,44,47,26,32,145,145,194,183,10,9,7,6,0.6,0.6
2026-06-29T0000,3171A,115.6069,34.4465,商丘市,梁园区档案局,颗粒物(PM10),51,51,51,31,32,140,140,187,178,9,8,2,3,0.7,0.7
2026-06-29T0000,4119A,115.6701,34.3767,商丘市,北海东路185号,颗粒物(PM10),55,57,48,34,30,131,131,197,181,20,14,4,4,0.5,0.5
2026-06-29T0000,4120A,115.6172,34.3704,商丘市,中山大街3号,颗粒物(PM10),68,74,60,22,27,127,127,186,171,14,11,7,7,0.5,0.5
2026-06-29T0000,1141A,121.401,31.2382,上海市,普陀,,31,19,34,14,24,97,97,169,126,11,15,5,5,0.2,0.2
2026-06-29T0000,1142A,121.4774,31.2043,上海市,十五厂,,30,13,34,10,24,93,93,166,119,7,15,6,6,0.4,0.6
2026-06-29T0000,1143A,121.4673,31.3011,上海市,虹口,,29,19,35,16,26,92,92,177,124,7,9,4,4,0.8,0.8
2026-06-29T0000,1147A,121.4253,31.226,上海市,静安监测站,,31,21,34,15,27,98,98,171,126,9,13,8,8,0.5,0.6
2026-06-29T0000,1148A,121.7029,31.1905,上海市,浦东川沙,,33,18,34,12,23,103,103,177,122,7,17,9,9,0.7,0.8
2026-06-29T0000,1149A,121.5339,31.229,上海市,浦东新区监测站,,28,19,33,15,25,87,87,165,115,9,11,6,7,0.4,0.5
2026-06-29T0000,1150A,121.5776,31.2038,上海市,浦东张江,,33,17,33,11,24,105,105,187,133,9,13,6,7,0.2,0.2
2026-06-29T0000,3265A,121.4242,31.3303,上海市,宝山庙行,,30,26,48,15,26,94,94,178,126,10,12,10,10,0.3,0.3
2026-06-29T0000,3266A,121.8789,31.4662,上海市,崇明上实东滩,,33,17,26,15,23,103,103,156,116,10,10,9,9,0.3,0.3
2026-06-29T0000,3268A,121.316,31.2839,上海市,嘉定南翔,,30,20,33,15,22,94,94,170,125,10,15,6,6,0.2,0.2
2026-06-29T0000,3269A,121.3357,30.7455,上海市,金山新城,,31,14,33,11,26,97,97,167,114,6,7,4,5,0.5,0.6
2026-06-29T0000,3270A,121.4996,31.0741,上海市,闵行浦江,,30,20,32,16,25,94,94,154,117,6,10,6,6,0.3,0.3
2026-06-29T0000,3271A,121.2886,31.1663,上海市,青浦徐泾,,29,21,32,16,25,92,92,161,122,1,5,5,5,0.4,0.5
2026-06-29T0000,3272A,121.2193,31.0382,上海市,松江图书馆,,30,26,44,18,31,95,95,166,127,5,7,7,7,0.4,0.4
2026-06-29T0000,3273A,121.3904,31.206,上海市,长宁仙霞,,30,18,33,15,24,93,93,158,121,7,11,7,8,0.2,0.3
2026-06-29T0000,3274A,121.7964,31.0507,上海市,浦东惠南,,34,27,33,14,23,106,106,166,122,11,11,8,8,0.5,0.6
2026-06-29T0000,3544A,121.4891,30.925,上海市,奉贤南桥新城,,33,16,32,13,25,104,104,168,124,10,13,7,7,0.4,0.5
2026-06-29T0000,4183A,121.417401,31.16637,上海市,冠生园路458号,,30,19,33,14,24,93,93,154,120,10,14,4,4,0.6,0.6
2026-06-29T0000,4205A,121.541914,31.268301,上海市,宁武路151号,,28,28,50,16,26,87,87,163,111,16,23,7,7,0.2,0.3
2026-06-29T0000,2382A,117.9758,28.4439,上饶市,市监测站,,21,21,42,7,25,37,37,93,57,14,8,6,7,/,/
2026-06-29T0000,2383A,117.9521,28.4637,上饶市,凤凰光学,,33,33,39,22,28,61,61,105,69,12,10,8,8,0.7,0.7
2026-06-29T0000,3685A,117.897,28.4316,上饶市,双创科技城,,24,24,45,16,26,56,56,101,65,14,15,9,8,0.6,0.7
2026-06-29T0000,4211A,118.190438,28.444845,上饶市,裕丰大道,,18,18,40,3,26,31,31,70,42,8,10,9,11,0.6,0.7
2026-06-29T0000,1669A,113.5821,24.7733,韶关市,市八中,,23,23,24,16,15,37,37,68,54,19,9,15,6,0.9,0.7
2026-06-29T0000,1671A,113.5916,24.7973,韶关市,园林处,,18,17,20,12,15,37,37,60,51,16,11,8,7,/,/
2026-06-29T0000,1673A,113.5971,24.6864,韶关市,曲江监测站,,24,24,22,13,13,20,20,70,51,17,11,8,16,1.2,1.1
2026-06-29T0000,2809A,113.6668,24.7756,韶关市,大学路288号,,28,28,23,14,14,29,29,72,52,15,11,10,14,/,/
2026-06-29T0000,3622A,113.5556,24.8082,韶关市,碧湖山庄,,26,26,22,14,12,39,39,66,58,13,8,3,4,0.9,0.7
2026-06-29T0000,2464A,111.5277,27.2442,邵阳市,市化工厂,细颗粒物(PM2.5),74,NA,52,47,35,73,73,146,109,7,6,7,5,0.6,0.5
